{
  "place: Touch wood 渋谷区笹塚3-17-3つるやビル2階": {
    "lat": 35.6768143,
    "lng": 139.6677258,
    "place_id": "ChIJkck5ioXzGGARL5v3JO4Ge6w"
  },
  "place:1500(ミレチンクエチェント) 渋谷区元代々木町4-2": {
    "lat": 35.6699537,
    "lng": 139.68724,
    "place_id": "ChIJyc7W0ZrzGGARjv9J544PESc"
  },
  "place:181cellar北参道 渋谷区千駄ヶ谷3-6-1ガレリア原宿1F": {
    "lat": 35.6761609,
    "lng": 139.7042353,
    "place_id": "ChIJJRifDLmMGGARcN2sIxhKjxw"
  },
  "place:2031 渋谷区神山町16-4ヴィラメトロポリス5A": {
    "lat": 35.6632797,
    "lng": 139.69403459999998,
    "place_id": "ChIJFRUpWqyMGGARyaIux2hURhE"
  },
  "place:25 Hudson 〒135-0016 東京都江東区東陽5-25-13-1F": {
    "lat": 35.6708827,
    "lng": 139.813887,
    "place_id": "ChIJTaKcGMmJGGARRzDpbxXFZDc"
  },
  "place:4000ChineseRestaurant 〒107-0062 東京都港区南青山7-10-10 パークアクシス南青山7丁目 1F": {
    "lat": 35.6588614,
    "lng": 139.7186821,
    "place_id": "ChIJE73gHM-LGGAR8lrzu5vYTM0"
  },
  "place:418KAMIYAMA 渋谷区神山町4-18セレンディピティ1階": {
    "lat": 35.665126099999995,
    "lng": 139.6928977,
    "place_id": "ChIJ1x_Gb62MGGARLXnmX7Yq3-g"
  },
  "place:6GRAMSstreet 渋谷区恵比寿南2-1-11恵比寿A・Mビル1a": {
    "lat": 35.6460517,
    "lng": 139.70727259999998,
    "place_id": "ChIJGRFoWGyLGGAR0wtKP8GPNPI"
  },
  "place:701 〒101-0021 東京都千代田区外神田2-1-3 東進ビル新館1階": {
    "lat": 35.6995937,
    "lng": 139.766705,
    "place_id": "ChIJLdDA4HiNGGARCcHyQmvL0OI"
  },
  "place:77696E65626172 渋谷区富ヶ谷1-37-1ロナーYS ビル 1F": {
    "lat": 35.6674661,
    "lng": 139.6896228,
    "place_id": "ChIJr6edFsmrGWARsSb6toOoz-w"
  },
  "place:7CAFE 渋谷区幡ヶ谷2–13-1平沼ビル102": {
    "lat": 35.6776307,
    "lng": 139.6770259,
    "place_id": "ChIJabnvSjvzGGARetPVZXtmh8k"
  },
  "place:86（キンプトン新宿東京内） 〒160-0023 東京都新宿区西新宿3丁目4-7": {
    "lat": 35.685583,
    "lng": 139.6922749,
    "place_id": "ChIJgwy-lY2NGGARrlYacvYcHV8"
  },
  "place:95YOOYA 渋谷区恵比寿4-22-7イーストスクエア1F": {
    "lat": 35.645046,
    "lng": 139.7147733,
    "place_id": "ChIJZUlJikyLGGARVEv0fxY7P7Y"
  },
  "place:A&Cスタジオことのは 〒170-0002 東京都 豊島区巣鴨2-11-5 巣鴨第1ビル3階": {
    "lat": 35.7356689,
    "lng": 139.7365243,
    "place_id": "ChIJKUuR10KNGGARVITEyDL2VVU"
  },
  "place:A9 渋谷区西原3-22-14西原水垣ビル1階": {
    "lat": 35.6708552,
    "lng": 139.68220720000002,
    "place_id": "ChIJ_xaS4DfzGGARvcM-pTU_jkw"
  },
  "place:ABASQUE Itsas eta Mendi 〒150-0002 東京都渋谷区渋谷2丁目12-11松下ビル1階": {
    "lat": 35.6586984,
    "lng": 139.7084644,
    "place_id": "ChIJkUXVml6LGGARfttNsHpNkjk"
  },
  "place:ACORN 新宿東宝ビル店 160-0021 東京都新宿区歌舞伎町1-19-1 新宿東宝ビル 1F": {
    "lat": 35.6951588,
    "lng": 139.70205389999998,
    "place_id": "ChIJw6YDLtiMGGAR7VE72FYk7xM"
  },
  "place:ADENIAアデニア 渋谷区鉢山町1番7号": {
    "lat": 35.653414,
    "lng": 139.6988064,
    "place_id": "ChIJQ1CHIFGLGGARItSJudSzi1w"
  },
  "place:AIGIS表参道店 〒150-0001 東京都渋谷区神宮前6丁目29ｰ4 HH BUILDING 4階": {
    "lat": 35.6675827,
    "lng": 139.7045497,
    "place_id": "ChIJN83Ci1zzGGARhoVoqJMlRk0"
  },
  "place:AJANTA アジャンタ 〒102-0084 東京都千代田区二番町3-11": {
    "lat": 35.6861406,
    "lng": 139.7369243,
    "place_id": "ChIJGXDwhmOMGGARFo0bjKveKu8"
  },
  "place:AKUBI-台湾火鍋&クラフトビール- 渋谷区猿楽町2-13F93daikanyama 1F": {
    "lat": 35.6587813,
    "lng": 139.6980754,
    "place_id": "ChIJvzKVcQmLGGARjips3CTbjf4"
  },
  "place:ALMA 〒150-0011 東京都渋谷区東3-15-6 百百代ビル 1F": {
    "lat": 35.6505657,
    "lng": 139.70936899999998,
    "place_id": "ChIJd4b6NUKLGGARtk962gShFs4"
  },
  "place:ANANAS COFFEE 渋谷区神山町7-15イムーブル渋谷神山町4F": {
    "lat": 35.6645257,
    "lng": 139.6937117,
    "place_id": "ChIJbaRFYkqNGGARP9aV6gCXCKg"
  },
  "place:AND THE FRIET 渋谷区広尾5丁目16番1号": {
    "lat": 35.6500905,
    "lng": 139.7204861,
    "place_id": "ChIJ19KCOG2LGGARpk77jDaoX4w"
  },
  "place:ANIKU produced by 新井屋 〒101-0061 東京都千代田区神田三崎町2-16-10": {
    "lat": 35.700928499999996,
    "lng": 139.7533812,
    "place_id": "ChIJ0SCpDE6NGGARNuuIUMu54DI"
  },
  "place:ARALE 渋谷区鶯谷町7-12GranDuo渋谷1F": {
    "lat": 35.6541038,
    "lng": 139.7020724,
    "place_id": "ChIJi8DWNlGLGGARhxbev8vX9Ao"
  },
  "place:ARMS TAKE OUT & DELIVERY 渋谷区富ヶ谷1-9-21レイ上原ビル1階": {
    "lat": 35.6685081,
    "lng": 139.6900651,
    "place_id": "ChIJKdJ0vEzzGGAR7OpuHRNbBM4"
  },
  "place:ARMS 渋谷区代々木5-64-7神宮白鳳マンション1階": {
    "lat": 35.6726062,
    "lng": 139.6910015,
    "place_id": "ChIJX9j_zErzGGARL7ZBBuCM5uQ"
  },
  "place:AYUR CEYLON Shibuya 渋谷区円山町22-15": {
    "lat": 35.6566101,
    "lng": 139.6942133,
    "place_id": "ChIJC8LQVdyLGGAR1N9v-E9YJBA"
  },
  "place:Afterhours 渋谷区富ヶ谷1-7-9": {
    "lat": 35.669103,
    "lng": 139.69006199999998,
    "place_id": "ChIJkc7ioEzzGGARcl5O0gLn_fo"
  },
  "place:All-Day Dining OASIS GARDEN（ザ・プリンスギャラリー 東京紀尾井町内） 〒102-8585 東京都千代田区紀尾井町1-2 ザ・プリンスギャラリー 東京紀尾井町,ラグジュアリーコレクションホテル36F": {
    "lat": 35.679518,
    "lng": 139.7375066,
    "place_id": "ChIJ_Uu2-3uMGGARbdlVlLCyTMc"
  },
  "place:Amour 〒150-0012 東京都渋谷区広尾1丁目6-13": {
    "lat": 35.648751499999996,
    "lng": 139.7141497,
    "place_id": "ChIJLTh95UKLGGARaNNQTNyglXE"
  },
  "place:AnchorPoint 〒102-0093 東京都千代田区平河町2-6-4 海運ビル1F": {
    "lat": 35.679478599999996,
    "lng": 139.7397061,
    "place_id": "ChIJAVoEeHmMGGARvoInBliuVns"
  },
  "place:Another C 京都市中心部 京都": {
    "lat": 35.0091003,
    "lng": 135.770593,
    "place_id": "ChIJKQUNgYMIAWARL1INgC1-uAc"
  },
  "place:Antelope 渋谷区広尾5-3-15HHBビル2F": {
    "lat": 35.650379199999996,
    "lng": 139.7207755,
    "place_id": "ChIJoX8ITmeLGGAR5W0QsY0bmMo"
  },
  "place:Aquavit 渋谷区宇田川町31-4シノダビルB1": {
    "lat": 35.661286,
    "lng": 139.697868,
    "place_id": "ChIJjQycDqmMGGARU0mHptRtsz8"
  },
  "place:Areva 渋谷区上原二丁目48-12東洋代々木上原コーポ103": {
    "lat": 35.66789200000001,
    "lng": 139.6820247,
    "place_id": "ChIJZ6V9MILzGGARBgad1FxpG-g"
  },
  "place:Artisan de la Truffe Paris 〒107-0052 東京都港区赤坂9-7-4 東京ミッドタウン ガレリア内ガーデンテラス1F D0118": {
    "lat": 35.6668399,
    "lng": 139.7305495,
    "place_id": "ChIJVVVVwXiLGGAR3BkhDF7P1Vs"
  },
  "place:Asian dining and bar bharat 渋谷区笹塚3丁目9番7号": {
    "lat": 35.6772206,
    "lng": 139.6690837,
    "place_id": "ChIJoxx18RjzGGARbFVAa9xLe9A"
  },
  "place:Asian dining and bar sathi 渋谷区猿楽町23-6Scott side 代官山2f": {
    "lat": 35.648879,
    "lng": 139.701743,
    "place_id": "ChIJb3U9eUWLGGARJOlX-gEfW7o"
  },
  "place:AsianDiningMomoCaveTokyo 渋谷区代々木4-5-1": {
    "lat": 35.6785822,
    "lng": 139.69263519999998,
    "place_id": "ChIJgZWdFMuMGGAR4WHIj4WeV0Y"
  },
  "place:Atelier LaLa 〒150​-0013 東京都渋谷区恵比寿4-20-7 恵比寿ガーデンプレイス センタープラザ B1F": {
    "lat": 35.6425894,
    "lng": 139.71415299999998,
    "place_id": "ChIJ7SRClsCLGGARP1elBLMol_I"
  },
  "place:B.M.L 渋谷区宇田川町32-7HULIC &New UDAGAWA11階": {
    "lat": 35.661159,
    "lng": 139.69740059999998,
    "place_id": "ChIJi1dpiamNGGAR48Zo8J0nBGM"
  },
  "place:BAGGAGE CAFEMARKET 渋谷区神宮前3-14-17荻島ビル1F": {
    "lat": 35.6694234,
    "lng": 139.7099634,
    "place_id": "ChIJ88wNf--NGGARK0ZDHm1ifCU"
  },
  "place:BAL HARA 渋谷区恵比寿西2-21-13Fビル　1F": {
    "lat": 35.6480951,
    "lng": 139.70342979999998,
    "place_id": "ChIJk34dfZmLGGARS1p-aTYOYfo"
  },
  "place:BALCONE SHIBUYA 〒150-0042 東京都渋谷区宇田川町10-3 VORT渋谷Ⅱ9F": {
    "lat": 35.6628541,
    "lng": 139.69692089999998,
    "place_id": "ChIJ0bWIS2WNGGARnLsKQXmDvTo"
  },
  "place:BANH MI STAR SHIBUYA by Nha Viet nam 渋谷区渋谷3-21-3渋谷ストリーム 2F": {
    "lat": 35.657362299999996,
    "lng": 139.7026629,
    "place_id": "ChIJF5u_0nOLGGARdSt0zkorIGY"
  },
  "place:BAR 30 CLUB 渋谷区道玄坂2-23-11トウショウビル3F": {
    "lat": 35.6600068,
    "lng": 139.6957621,
    "place_id": "ChIJ81onLaqMGGARyDYwHaLrfYI"
  },
  "place:BAR A seat 渋谷区神泉町1-19美幸ビル1階": {
    "lat": 35.658372899999996,
    "lng": 139.6924259,
    "place_id": "ChIJAZbMUQCNGGARuK7GrKd9iOM"
  },
  "place:BAR CORRYVRECKAN 渋谷区富ヶ谷2丁目43ー11永和ビル富ヶ谷3階": {
    "lat": 35.6675603,
    "lng": 139.6854249,
    "place_id": "ChIJW070q2PzGGARbZCGkO9k4m8"
  },
  "place:BAR EBIS 29 渋谷区恵比寿1-23-10LCUBE EBIS 5F": {
    "lat": 35.6461071,
    "lng": 139.7159457,
    "place_id": "ChIJ3SRTS-eLGGARtoqvaMnMCek"
  },
  "place:BAR FLAT 渋谷区代々木1-54-2小林ビルB1": {
    "lat": 35.6840675,
    "lng": 139.7006206,
    "place_id": "ChIJyc9j_M6MGGARlKe_ah5kA0g"
  },
  "place:BAR KIZUKI 渋谷区渋谷1丁目8番地5号グローリア宮益坂10階": {
    "lat": 35.6602679,
    "lng": 139.7054191,
    "place_id": "ChIJc35nwViLGGARXNpJ7dkMbFg"
  },
  "place:BAR LOUNGE VIVI 渋谷区恵比寿1-12-7三恵31ビル 6階C": {
    "lat": 35.6465253,
    "lng": 139.71213,
    "place_id": "ChIJff5OpGqLGGARM0EA9HUNEig"
  },
  "place:BAR SHIBUYA KALLAS(カラス 渋谷区道玄坂2-23-13渋谷デリタワー10階": {
    "lat": 35.6601085,
    "lng": 139.69613310000003,
    "place_id": "ChIJn9ciT3GNGGARyptq_r_KcTs"
  },
  "place:BAR TAKATSU 渋谷区道玄坂2-20-26藤和エクシール道玄坂B1-03": {
    "lat": 35.6593227,
    "lng": 139.6967756,
    "place_id": "ChIJO1NRhKmMGGARWY0H5eKiq6A"
  },
  "place:BAR TRUST 渋谷区恵比寿1-22-10カマスヤビル地下1階": {
    "lat": 35.6463878,
    "lng": 139.714095,
    "place_id": "ChIJF6fdKRWLGGAROvdQrgwcSrw"
  },
  "place:BAR UIGEADAIL 渋谷区笹塚2-16-2ASP笹塚ビル4F": {
    "lat": 35.674374199999995,
    "lng": 139.66634489999998,
    "place_id": "ChIJAfJ57N7zGGARn9P7A4mFxHI"
  },
  "place:BAR mArs EBISU 渋谷区恵比寿1-22-27マガザン恵比寿9F": {
    "lat": 35.6462289,
    "lng": 139.7128282,
    "place_id": "ChIJ_WV7oTaLGGARdSF412de8k8"
  },
  "place:BAR ŌMORI 渋谷区富ヶ谷1丁目51ー6": {
    "lat": 35.668596799999996,
    "lng": 139.68954549999998,
    "place_id": "ChIJh2CWQHrzGGARZj8SkYX0P34"
  },
  "place:BAR-SARAKA 渋谷区富ヶ谷1-43-23代々木公園ガーデニア104": {
    "lat": 35.6672675,
    "lng": 139.69088969999999,
    "place_id": "ChIJOegOKk3zGGARJb_mISLMui8"
  },
  "place:BAR31° 渋谷区円山町1-18ミネビル3F": {
    "lat": 35.6597903,
    "lng": 139.6951412,
    "place_id": "ChIJk5zWNKqMGGARGpibOigJNgs"
  },
  "place:BARALCOOL 渋谷区渋谷2-8-4東和青山ビルB01": {
    "lat": 35.6604456,
    "lng": 139.7074457,
    "place_id": "ChIJn89ZIV-LGGAR7jD_kkXOAYw"
  },
  "place:BARBUSHITSU 渋谷区恵比寿南1-8-8リアルミホビル3F": {
    "lat": 35.645996,
    "lng": 139.7087784,
    "place_id": "ChIJoZv0ADKLGGARqKBFyqjIDhQ"
  },
  "place:BARDEBIS 渋谷区恵比寿1-22-14石井ビルB1F": {
    "lat": 35.6463319,
    "lng": 139.7146037,
    "place_id": "ChIJiwqJ2hSLGGARoBFXn0jKh3g"
  },
  "place:BARSync 渋谷区恵比寿1-8-7三恵エイトビル102": {
    "lat": 35.647320199999996,
    "lng": 139.71045429999998,
    "place_id": "ChIJ5Y8lNECLGGAR2R-KwV6cUZ0"
  },
  "place:BARU HiLO 渋谷区笹塚1-22-9里テラス1階": {
    "lat": 35.6725846,
    "lng": 139.6685858,
    "place_id": "ChIJPQG0zXbzGGARvdftodnLJRw"
  },
  "place:BAR　andatt 渋谷区恵比寿西1-4-4ルソレイユ地下1階": {
    "lat": 35.6483937,
    "lng": 139.70835069999998,
    "place_id": "ChIJrY3sb0GLGGARjePuDfm8_uo"
  },
  "place:BAR日知屋 渋谷区道玄坂1-17-9ヴェラハイツ道玄坂 1F": {
    "lat": 35.657178,
    "lng": 139.696845,
    "place_id": "ChIJgXL5bFaLGGAR19KX33v5SBE"
  },
  "place:BAR木蓮 渋谷区幡ヶ谷2-8-15KODAビル幡ヶ谷303": {
    "lat": 35.6780195,
    "lng": 139.67708009999998,
    "place_id": "ChIJXwxX51rzGGAR1gl1HlPm6Sk"
  },
  "place:BAR風木 渋谷区恵比寿南1-1-4村田ビル3F": {
    "lat": 35.646501799999996,
    "lng": 139.708639,
    "place_id": "ChIJfamx-0CLGGARZ4GVq7Pn5bc"
  },
  "place:BASE 渋谷区松濤2-14-12シャンボール松涛106": {
    "lat": 35.6584126,
    "lng": 139.6920227,
    "place_id": "ChIJt8-MJ6uMGGARE7P9Hr4Eg0w"
  },
  "place:BASE-CHIC 渋谷区恵比寿2-9-1EBISU FLAT 1-A": {
    "lat": 35.6459741,
    "lng": 139.7170138,
    "place_id": "ChIJgS_e4bGLGGARWopzn-Ni0u0"
  },
  "place:BCNgroc 〒106-0045 東京都港区麻布十番3-10-2 1階": {
    "lat": 35.6528925,
    "lng": 139.7347204,
    "place_id": "ChIJYeAbDy6LGGARgiAyxTmPV98"
  },
  "place:BE A GOOD  NEIGHBOR SENDAGAYA 渋谷区千駄ヶ谷3-51-6": {
    "lat": 35.675036899999995,
    "lng": 139.7061333,
    "place_id": "ChIJkU_L8LuMGGARn12RzR-svSo"
  },
  "place:BEANS&BEANSぽえむ 渋谷区笹塚1-48-14ショッピングモール笹塚21　2F": {
    "lat": 35.6738035,
    "lng": 139.6689606,
    "place_id": "ChIJDd9ixdPzGGARcKAoKog-jD0"
  },
  "place:BENJAMIN STEAK HOUSE 東京ガーデンテラス紀尾井町店 〒102-0094 東京都千代田区紀尾井町1-2 東京ガーデンテラス紀尾井町 4F": {
    "lat": 35.6794052,
    "lng": 139.7372696,
    "place_id": "ChIJY1hD3rGNGGARLF5vOikFOlw"
  },
  "place:BENJAMIN TERRACE LOUNGE 〒102-0094 東京都千代田区紀尾井町1-2 東京ガーデンテラス紀尾井町 4F": {
    "lat": 35.6794052,
    "lng": 139.7372696,
    "place_id": "ChIJY1hD3rGNGGARLF5vOikFOlw"
  },
  "place:BHARATIIndianRESTAURANT 渋谷区元代々木町2-9City House Yoyogikoen": {
    "lat": 35.6701201,
    "lng": 139.6873751,
    "place_id": "ChIJjQfptkvzGGAR4DJvW5z4EJY"
  },
  "place:BIANCHI 〒106-0032 東京都港区六本木7-17-19 BPRスクエア2F": {
    "lat": 35.6624522,
    "lng": 139.72904939999998,
    "place_id": "ChIJGx20wDiLGGARfS1aLvQE1XE"
  },
  "place:BIEN-ETRE MAISON 〒151-0064 東京都渋谷区上原1-17-11 3F": {
    "lat": 35.669215699999995,
    "lng": 139.68233,
    "place_id": "ChIJhUm8tMPzGGARvLgUMcKAHSQ"
  },
  "place:BIEN-ETRE PATISSERIE 〒151-0064 東京都渋谷区上原1-21-10 1F": {
    "lat": 35.6682324,
    "lng": 139.6825203,
    "place_id": "ChIJy3EE9EjzGGARcnBSjO1lG6g"
  },
  "place:BISTRO SAVEUR　（ビストロサヴェール） 渋谷区恵比寿南1丁目17-17TimeZoneテラスビル3階全号室": {
    "lat": 35.6447804,
    "lng": 139.7104238,
    "place_id": "ChIJ_2KHB7eLGGARXBX2VO6_ZPU"
  },
  "place:BISTRO&CAFÉ LOUNGE LA BOUCHERIE＜ラ・ブーシェリー＞ 〒105-5590 東京都港区虎ノ門2-6-1 虎ノ門ヒルズステーションタワー B2F": {
    "lat": 35.667552199999996,
    "lng": 139.74693109999998,
    "place_id": "ChIJn5QlCzyLGGARk4RZunFoWVs"
  },
  "place:BISTRO＆CAFE Bonheur 〒105-0021 東京都港区東新橋1-8-2 カレッタ汐留 1F C1-2": {
    "lat": 35.6648867,
    "lng": 139.7624926,
    "place_id": "ChIJR7IWy2WLGGAREuEAEo_YbUM"
  },
  "place:BLACOWS ZERO 〒150-0021 東京都渋谷区恵比寿西2-11-9 東光ホワイトビル 1F": {
    "lat": 35.6494566,
    "lng": 139.707133,
    "place_id": "ChIJA6_y7UOLGGARR0HVb-2uF9A"
  },
  "place:BLESS 〒135-0004 東京都江東区森下2-20-13": {
    "lat": 35.6882698,
    "lng": 139.7995009,
    "place_id": "ChIJ43M1theJGGAR0Igi31iOJ5c"
  },
  "place:BODY&SOUL 渋谷区宇田川町2-1-B15渋谷ホームズB-15": {
    "lat": 35.66379810000001,
    "lng": 139.6989183,
    "place_id": "ChIJPWYRwWaLGGARKYcLXLVXaro"
  },
  "place:BONTA ITALIA 渋谷区猿楽町12番35号t+Daikanyama 1F": {
    "lat": 35.6512825,
    "lng": 139.7012723,
    "place_id": "ChIJrUY5momLGGAR0z_l5iygm-8"
  },
  "place:BOOKS BUNNY 渋谷区神宮前2-31-8": {
    "lat": 35.6730038,
    "lng": 139.7089541,
    "place_id": "ChIJGxR52LyMGGARjjKTYA_yaNA"
  },
  "place:BOTTA COFFEE 渋谷区神宮前3-39-5青山ウエスト1階": {
    "lat": 35.6659179,
    "lng": 139.7175591,
    "place_id": "ChIJHeDRylOLGGARYr6VpYVCUkI"
  },
  "place:BOW 渋谷区宇田川町41-26パピエビル202": {
    "lat": 35.6626894,
    "lng": 139.6953474,
    "place_id": "ChIJJ4hyE6yMGGAR9aqGd8OdzdI"
  },
  "place:BRIBON 〒171-0031 東京都豊島区目白3-5-12 目白コアビルB1": {
    "lat": 35.7223909,
    "lng": 139.70488459999999,
    "place_id": "ChIJg2PqQESNGGARMXhxKaD2WIU"
  },
  "place:BRITISH INDIAN CAFE 1930 渋谷区神宮前3-27-7": null,
  "place:BROWNHORSE 渋谷区神宮前2-22-1神宮前court1F": {
    "lat": 35.6751319,
    "lng": 139.7105836,
    "place_id": "ChIJFVhjSr2MGGARZE86PPPxBDk"
  },
  "place:BW01 渋谷区恵比寿4-27-7S:vort恵比寿 3F": {
    "lat": 35.64559,
    "lng": 139.7158323,
    "place_id": "ChIJH-_YjRSLGGARujyqNzoQMC4"
  },
  "place:Bakery&Cafe Honey 渋谷区代々木1-37-21": {
    "lat": 35.6839645,
    "lng": 139.70066549999999,
    "place_id": "ChIJl7URKwCNGGARzpf51N2zg6U"
  },
  "place:Bar  M13 渋谷区代々木1-32-10ラックビル5階": {
    "lat": 35.6825432,
    "lng": 139.7019569,
    "place_id": "ChIJJRmbGsaMGGAR1EC0dEywm-U"
  },
  "place:Bar & Dining TORRENT（トレント）／SHIBUYA STREAM HOTEL 渋谷区渋谷3-21-3SHIBUYA STREAM HOTEL 4F": {
    "lat": 35.6573615,
    "lng": 139.7031959,
    "place_id": "ChIJIZ_JXi6LGGARUzsctUGoX7k"
  },
  "place:Bar Brown Tokyo 渋谷区恵比寿南2-25-3EBISU HANA BLDG B1": {
    "lat": 35.6434193,
    "lng": 139.710185,
    "place_id": "ChIJn2KLtz-LGGARIeuEosmbjjU"
  },
  "place:Bar CEP・DOR 渋谷区道玄坂1-6-3道玄坂パールビル2F": {
    "lat": 35.6579129,
    "lng": 139.699156,
    "place_id": "ChIJX9ght1eLGGARcHB9pPCdMNA"
  },
  "place:Bar Dragon Fruit 渋谷区西原3-24-12テラ代々木上原103": {
    "lat": 35.67115,
    "lng": 139.6830773,
    "place_id": "ChIJNW5o1jfzGGARegighLVf9wY"
  },
  "place:Bar MIZ 渋谷区渋谷2-2-4青山アルコーブ203": {
    "lat": 35.6604676,
    "lng": 139.7086599,
    "place_id": "ChIJQ9A1_F6LGGARFR3hNJ4hRrg"
  },
  "place:Bar Perche 渋谷区神宮前2-3-30第二竹上ビル101": {
    "lat": 35.674425,
    "lng": 139.7133456,
    "place_id": "ChIJIQ5Fju-NGGARJMoCYZwDzNo"
  },
  "place:Bar Pledge 渋谷区幡ヶ谷1-2-8林ビル2-D": {
    "lat": 35.6771466,
    "lng": 139.6775386,
    "place_id": "ChIJK8_EOzvzGGARlba5FDSSTes"
  },
  "place:Bar PotStill 渋谷区道玄坂1-20-12MT道玄坂ビルB1": {
    "lat": 35.6568378,
    "lng": 139.6964965,
    "place_id": "ChIJ__8bDVaLGGARV7KY_K43KsM"
  },
  "place:Bar QB 渋谷区恵比寿西1-4-8Breeze Ebisu 2階": {
    "lat": 35.6484539,
    "lng": 139.70802179999998,
    "place_id": "ChIJbYo_JF6LGGARL0Vqxb44Z6g"
  },
  "place:Bar Ring… 渋谷区笹塚2-19-1ザ・シティ笹塚8F": {
    "lat": 35.6741349,
    "lng": 139.6654324,
    "place_id": "ChIJ-T0ktvXzGGARyCtZhVQb2-c"
  },
  "place:Bar Table かば山 渋谷区幡ヶ谷3-2-6佐藤ビル　1階": {
    "lat": 35.6803854,
    "lng": 139.6763413,
    "place_id": "ChIJeYN6cCTzGGARAEMWz-RbpZg"
  },
  "place:Bar Tnb 渋谷区千駄ヶ谷エビデンワビル2.5階": {
    "lat": 35.681325699999995,
    "lng": 139.7036705,
    "place_id": "ChIJxdEHHZONGGAReDgw9yC2etc"
  },
  "place:Bar Unkempt 渋谷区富ヶ谷1-14-20代々木公園セレナビル401": {
    "lat": 35.6672108,
    "lng": 139.6913971,
    "place_id": "ChIJIYZYkO6NGGARsUwjq057b9Q"
  },
  "place:Bar Wasabi 渋谷区千駄ヶ谷3ー27ー4 小林ビル 1F": {
    "lat": 35.6813098,
    "lng": 139.6804484,
    "place_id": "ChIJpVYsVADzGGARgmTb5fdNrq8"
  },
  "place:Bar Winny 渋谷区道玄坂2-29-18清水ビル8階": {
    "lat": 35.6599698,
    "lng": 139.6978183,
    "place_id": "ChIJqUFFuamMGGARVObJWFI6yko"
  },
  "place:Bar and Shisha Vedge 渋谷区神南1-20-8パークウェイテラス4F": {
    "lat": 35.6617983,
    "lng": 139.69990719999998,
    "place_id": "ChIJtRVolMiNGGARG9AP5yuoHWg"
  },
  "place:Bar de Espana Mon（モン） 〒105-0011 東京都港区芝公園2-3-1 芝加賀ビル 1F": {
    "lat": 35.656935000000004,
    "lng": 139.751816,
    "place_id": "ChIJM8EjrriLGGAR9Gb03jCpS5g"
  },
  "place:Bar dritt 渋谷区恵比寿西2-2-6恵比寿ファイブビル101号": {
    "lat": 35.6493466,
    "lng": 139.70802659999998,
    "place_id": "ChIJ9zAfbKuLGGARaocbFVosozU"
  },
  "place:Bar 松虎 渋谷区広尾1-16-2VORT恵比寿II 2F": {
    "lat": 35.6486818,
    "lng": 139.711161,
    "place_id": "ChIJVwK620GLGGARhEB-0GuIWB8"
  },
  "place:Bar 糸 渋谷区恵比寿4-11-8グランヌーノ301": {
    "lat": 35.6452551,
    "lng": 139.7147134,
    "place_id": "ChIJmVhl_WWLGGARmjW2ZJdoUCc"
  },
  "place:BarLm. 渋谷区渋谷2丁目12番11号B1F渋谷KKビル": {
    "lat": 35.6586577,
    "lng": 139.7083897,
    "place_id": "ChIJhc9-d9iLGGARdg9djcsBZXA"
  },
  "place:Bar×Grill Lust 渋谷区道玄坂2-23-13渋谷デリタワー8階": {
    "lat": 35.6601085,
    "lng": 139.69613310000003,
    "place_id": "ChIJJ8kOwi6NGGARsjp2SpzgiAU"
  },
  "place:Bar夜行 渋谷区桜丘町16-2サクラブルーム201": {
    "lat": 35.656566,
    "lng": 139.70135439999999,
    "place_id": "ChIJ_7u2FX6LGGARJYiiIIALi0M"
  },
  "place:Bar希望 渋谷区神山町7-8": {
    "lat": 35.6638836,
    "lng": 139.69382579999998,
    "place_id": "ChIJ1zwHcVSNGGARI7wfBR5iljM"
  },
  "place:Be full 渋谷区道玄坂2-8-8コスモ渋谷会館601号": {
    "lat": 35.65853,
    "lng": 139.698362,
    "place_id": "ChIJpV8yKVaLGGAR399_6gDI8bA"
  },
  "place:BeefGarden恵比寿 渋谷区恵比寿4-10-8orange恵比寿1F": {
    "lat": 35.645387500000005,
    "lng": 139.7147221,
    "place_id": "ChIJtUiS5RSLGGARUEfSjYDUgJ0"
  },
  "place:Beer Thirty 京都三条河原町店 京都市中心部 京都": {
    "lat": 35.0083206,
    "lng": 135.7687805,
    "place_id": "ChIJydhUfYMIAWARxq3ewoGD6AU"
  },
  "place:Beer Thirty京都駅前店 京都駅周辺 京都": {
    "lat": 34.9869075,
    "lng": 135.7609098,
    "place_id": "ChIJdwXmPK4IAWARo8VtNbf0xAs"
  },
  "place:Beer ＆ Spice KITTE丸の内店 〒100-7001 東京都千代田区丸の内2-7-2 JPタワーKITTE 1F": {
    "lat": 35.679227999999995,
    "lng": 139.7653758,
    "place_id": "ChIJCbvm9_qLGGARi8ZuxjhEXbU"
  },
  "place:Betterave Bistro Jiro 渋谷区富ヶ谷1-10-5パークサイドコグレ1階": {
    "lat": 35.6681242,
    "lng": 139.6909221,
    "place_id": "ChIJcXrIy0zzGGAREN3UO3KMPaY"
  },
  "place:Bet代々木上原 渋谷区西原3-7-5渡部ビル103": {
    "lat": 35.6698616,
    "lng": 139.68095399999999,
    "place_id": "ChIJjY1aJRvzGGARx1Qg3uDcFzQ"
  },
  "place:Bingo 〒106-0031 港区西麻布4-19-9ウォール西麻布B1F": {
    "lat": 35.657696,
    "lng": 139.7186403,
    "place_id": "ChIJUbfI5oKLGGARVImyiWQkEJc"
  },
  "place:BioGaia Kafé 渋谷区広尾5-15-1日計広尾コーポ102": {
    "lat": 35.650283699999996,
    "lng": 139.721115,
    "place_id": "ChIJszwxRG2LGGARaCZUG-0TGiw"
  },
  "place:Bistro Horitetsu 渋谷区宇田川町42-15中島ビルB1": {
    "lat": 35.663160999999995,
    "lng": 139.695177,
    "place_id": "ChIJm1fGFayMGGAR7pHYjHey4ro"
  },
  "place:Bistro Kou 渋谷区神宮前3-25-7丹治ビル1F": {
    "lat": 35.6711731,
    "lng": 139.70801110000002,
    "place_id": "ChIJ-a0DHJ2NGGARdijkfl-J1B8"
  },
  "place:Bistro W 〒160-0004 東京都新宿区四谷3-14-1\nホテルウィングインターナショナルプレミアム東京四谷 1F": {
    "lat": 35.6880976,
    "lng": 139.7184246,
    "place_id": "ChIJV0IRW-yMGGARw68AuQ2VK0k"
  },
  "place:Bistro YEBISU 〒150-0011 東京都渋谷区東3-15-8小澤ビル1F": {
    "lat": 35.6502517,
    "lng": 139.70962939999998,
    "place_id": "ChIJHRbzMEKLGGARjd3oqimfZvk"
  },
  "place:Bistro 本当のはじまり 渋谷区代々木1-52-5ベルテ南新宿B1階": {
    "lat": 35.6834655,
    "lng": 139.6994542,
    "place_id": "ChIJsednfx6NGGARziJrGVSj7vU"
  },
  "place:Bistro&Cafe 十字屋　TOMIGAYA 渋谷区富ヶ谷1-14-13メゾンテオブロマ1F": {
    "lat": 35.6667543,
    "lng": 139.6915488,
    "place_id": "ChIJ5VdIcQCNGGARUVPpGI1ZyO8"
  },
  "place:Blau Mohn 渋谷区上原1-40-3ジャルダン上原内101": {
    "lat": 35.6695596,
    "lng": 139.68430139999998,
    "place_id": "ChIJ3XZMpEnzGGARQYgG9Ov0NpY"
  },
  "place:Blue Tokai Coffee Roasters 渋谷区広尾5-3-15サワタカビル1階": {
    "lat": 35.6503663,
    "lng": 139.7207238,
    "place_id": "ChIJFTDuewCLGGAROUVCWDWbgb4"
  },
  "place:Bomb Bar Cafe 渋谷区笹塚2-42-17秋元スペース1F": {
    "lat": 35.6762845,
    "lng": 139.6677919,
    "place_id": "ChIJIXRxierzGGAR23Y1hKmUg6o"
  },
  "place:Bookcafe days 渋谷区鶯谷町15-10ロイヤルパレス渋谷105": {
    "lat": 35.6540976,
    "lng": 139.70083,
    "place_id": "ChIJdQyUolCLGGAREBvx_3aQDLo"
  },
  "place:Bostro 〒108-0072 東京都港区白金1-6-1 1F": {
    "lat": 35.646812,
    "lng": 139.7317417,
    "place_id": "ChIJmUuFKwiLGGARHj2dhMp3WxQ"
  },
  "place:Botrus 渋谷区千駄ヶ谷4-10-4千駄ヶ谷グリーンランドビル2階": {
    "lat": 35.679915699999995,
    "lng": 139.7064577,
    "place_id": "ChIJwWOcqiCNGGARWQBma5U6mcs"
  },
  "place:Boulangerie HARU 〒135-0016 東京都江東区東陽3-27-30-1F": {
    "lat": 35.669687499999995,
    "lng": 139.8154151,
    "place_id": "ChIJ_3DvcOeJGGARtXwIVwmLiZ8"
  },
  "place:Brasserie Laiton 〒171-0021 東京都豊島区西池袋1-9-8 阿部ビル1F": {
    "lat": 35.729108599999996,
    "lng": 139.7085217,
    "place_id": "ChIJ5UIdW1aNGGARukJ-5P7PoVU"
  },
  "place:Brasserie Salut(ブラッスリー ・サリュー) 〒151-0051 東京都渋谷区千駄ヶ谷4-5-11 SuSLOB北参道 1F": {
    "lat": 35.6801216,
    "lng": 139.7041609,
    "place_id": "ChIJ2W0jEsKNGGARjwc3_tl6jv4"
  },
  "place:British Golf Lounge 渋谷区円山町28-4ObaビルB館B1F": {
    "lat": 35.655682299999995,
    "lng": 139.6943992,
    "place_id": "ChIJAU066KWLGGARVuVzTZULfMo"
  },
  "place:Btap虎ノ門ヒルズ店 〒105-6490 東京都港区虎ノ門1-17-1 虎ノ門ヒルズビジネスタワーB1F": {
    "lat": 35.667766,
    "lng": 139.7500736,
    "place_id": "ChIJMTqmCwCLGGARIXlJi9jigWU"
  },
  "place:Bubbles 渋谷区円山町7-2EDIFICE渋谷101": {
    "lat": 35.6580116,
    "lng": 139.694885,
    "place_id": "ChIJf7GvbaqMGGAR1brtWYMsyVo"
  },
  "place:BumBleBee 渋谷区恵比寿1-12-5萩原ビル3 地下1階": {
    "lat": 35.6501322,
    "lng": 139.7046675,
    "place_id": "ChIJ8W5vRcSLGGARa7kbr2j6hM8"
  },
  "place:C'sBAR 渋谷区恵比寿西1丁目8-2ウエストパレスビルB1-B": {
    "lat": 35.647768,
    "lng": 139.7082756,
    "place_id": "ChIJgZXtEkGLGGARcMDryGDezGk"
  },
  "place:CALLASTOKYO 渋谷区富ヶ谷2-45-21": {
    "lat": 35.6676518,
    "lng": 139.6875572,
    "place_id": "ChIJVVX0bUzzGGARCHzccdcghCk"
  },
  "place:CAMELBACK RICH VALLEY 渋谷区富ヶ谷1-9-23服部ビル102": {
    "lat": 35.668732,
    "lng": 139.68987199999998,
    "place_id": "ChIJhRCh413zGGARPp4ypMo_zH8"
  },
  "place:CAMELOT 渋谷区神南1丁目18番2号フレーム神南坂B1～B3": {
    "lat": 35.662659999999995,
    "lng": 139.70003699999998,
    "place_id": "ChIJu5JQ66iMGGARx4LoABnQNPU"
  },
  "place:CANTINA REGALO 渋谷区代々木4-6-2宍戸ビルB1F": {
    "lat": 35.6782744,
    "lng": 139.6928724,
    "place_id": "ChIJb6uJvSaNGGAR47zwOKFfhr4"
  },
  "place:CARAVAN TORANOMON 〒105-6490 東京都港区虎ノ門1丁目17−1 虎ノ門ヒルズ ビジネスタワー 3F 横丁": {
    "lat": 35.6678876,
    "lng": 139.7500507,
    "place_id": "ChIJATj-NeGLGGARZkCAJ4isfxg"
  },
  "place:CARIMELLO 渋谷区富ヶ谷1-8-7飯島ビル1階": {
    "lat": 35.6686318,
    "lng": 139.6908516,
    "place_id": "ChIJ1WgftEzzGGAR20GteNWhF-M"
  },
  "place:CASE広尾 渋谷区広尾5-18-2": {
    "lat": 35.649439099999995,
    "lng": 139.7206651,
    "place_id": "ChIJ-2BLZTKLGGARv32rZCYI5cQ"
  },
  "place:CEN CAFE & BAR 〒169-0073 東京都新宿区百人町1-5-19": {
    "lat": 35.699219899999996,
    "lng": 139.7013445,
    "place_id": "ChIJ25HyKSaNGGARsjnA0MQuXbE"
  },
  "place:CHACOあめみや 渋谷区千駄ヶ谷1-7-12": {
    "lat": 35.6786023,
    "lng": 139.710098,
    "place_id": "ChIJJ-BPQL6MGGARkAhYq-0roAw"
  },
  "place:CHOCOLATIER PALET D'OR 〒100-6501 東京都千代田区丸の内1-5-1新丸の内ビルディング１F": {
    "lat": 35.6827314,
    "lng": 139.7639987,
    "place_id": "ChIJN4zgs_mLGGARXqUyHIyqsUs"
  },
  "place:CHURRASCO GANG 渋谷本店 渋谷区宇田川町31-1HULIC & New Shibuya　6F": {
    "lat": 35.661555,
    "lng": 139.6976588,
    "place_id": "ChIJk25jnamNGGAR79xCZ_reUgE"
  },
  "place:CIDER SHACK 渋谷区東1-27-9奥山ビル1F": {
    "lat": 35.6540969,
    "lng": 139.7075387,
    "place_id": "ChIJcfDRZiKLGGARJ5Gfres2sc0"
  },
  "place:CIMI restorant 渋谷区代々木3-9-5": {
    "lat": 35.683585099999995,
    "lng": 139.69598969999998,
    "place_id": "ChIJWww3qXCNGGARzDkx3Wb7OH0"
  },
  "place:CLIMB 渋谷区神宮前1-8-5メナー4F": {
    "lat": 35.6702106,
    "lng": 139.7064647,
    "place_id": "ChIJnb6bX6OMGGARVG3eFLrFg_g"
  },
  "place:CLUB HEAVY SICK 渋谷区西原2-27-4升本ビルB1": {
    "lat": 35.67523510000001,
    "lng": 139.6783561,
    "place_id": "ChIJNb5PszvzGGAR-9rYwTFLxBY"
  },
  "place:COCO-agepan 渋谷区神宮前5-17-16101": {
    "lat": 35.665511699999996,
    "lng": 139.7046737,
    "place_id": "ChIJDzrZmaaMGGARZum15NbOe6o"
  },
  "place:COFFEE KIOSK ROASTER 渋谷区千駄ヶ谷5-6-7トーエイハイツ1C": {
    "lat": 35.6818036,
    "lng": 139.70634189999998,
    "place_id": "ChIJiY597zGNGGARbpxe_i1XorM"
  },
  "place:COMEDOR MONRICO （モンリコ） 〒108-0014 東京都港区芝5-22-1 アモールデマドレ1F": {
    "lat": 35.6483778,
    "lng": 139.7464105,
    "place_id": "ChIJDZjQJrGLGGARvjbXbvIOdTA"
  },
  "place:CONCENT 渋谷区本町6-34-8": {
    "lat": 35.6802722,
    "lng": 139.6774939,
    "place_id": "ChIJcUyYWCTzGGARPZ2hfTt_03A"
  },
  "place:COPPIE 京都市中心部 京都": {
    "lat": 34.999235399999996,
    "lng": 135.7504405,
    "place_id": "ChIJS0lpjHwHAWARdtbUDZQ1qUs"
  },
  "place:COSMOS JUICE TOMIGAYA 渋谷区富ヶ谷2-23-5富ヶ谷アルコーブ1F": {
    "lat": 35.6631688,
    "lng": 139.68290159999998,
    "place_id": "ChIJn6DMeJHzGGAR6kr-cTs7xvg"
  },
  "place:COYORI 渋谷区広尾5-14-4広尾SKビル2F": {
    "lat": 35.6504141,
    "lng": 139.7216464,
    "place_id": "ChIJw8F3s5mLGGARYzDMZmWHJrI"
  },
  "place:COZYHOUSE 渋谷区道玄坂2-19-11FABRIC渋谷5F": {
    "lat": 35.6594177,
    "lng": 139.6961088,
    "place_id": "ChIJs3tY7YeNGGARkqWvd1aPFnw"
  },
  "place:CREAM PAND BAKERs 渋谷区恵比寿西2-14-10TWONE代官山1F-B": {
    "lat": 35.6500207,
    "lng": 139.7052779,
    "place_id": "ChIJIQNXUQ2LGGARVzg_itcKoS0"
  },
  "place:CUCINA DIESEL FARM 渋谷区渋谷1-23-16cocoti 1F": {
    "lat": 35.6620432,
    "lng": 139.702579,
    "place_id": "ChIJ25QMB_mNGGARVlbp10ZJIg0"
  },
  "place:CUJORL 渋谷区桜丘町22-8縣ビル1F": {
    "lat": 35.654221199999995,
    "lng": 139.6999325,
    "place_id": "ChIJxX0txlCLGGARCLDKN-s51ko"
  },
  "place:CURALUCE 〒170-0005 東京都豊島区南大塚2丁目35-11 アーバングリーン1階": {
    "lat": 35.7286242,
    "lng": 139.73001929999998,
    "place_id": "ChIJa7x2MACNGGARhJDEpVmYOOk"
  },
  "place:CURRY&SPICE 青い鳥 渋谷区幡ヶ谷2丁目47-12ハウス満盛 2F": {
    "lat": 35.6792223,
    "lng": 139.6770909,
    "place_id": "ChIJORVd6yTzGGARHNRDc8VmmKU"
  },
  "place:Cabotte 渋谷区桜丘町12-5桜丘Kビル　地下1階": {
    "lat": 35.654241,
    "lng": 139.701216,
    "place_id": "ChIJ_9VJoFCLGGARaTJWqPf3IZc"
  },
  "place:Cafe Midori 渋谷区神宮前2-3-28": {
    "lat": 35.6738232,
    "lng": 139.7110336,
    "place_id": "ChIJDzACFwCNGGARoQtIqwaQvX8"
  },
  "place:Cafe and Bar Margarita 渋谷区幡ヶ谷2-5-4セイジョービル2F": {
    "lat": 35.678461299999995,
    "lng": 139.6776306,
    "place_id": "ChIJm1n_JKrzGGARhBsEh6Sq8gw"
  },
  "place:Cafe tomarigi 渋谷区大山町46番12号THEONETHIRD大山町401号室": {
    "lat": 35.6684704,
    "lng": 139.67785809999998,
    "place_id": "ChIJY65pLpDzGGARpuPockylacc"
  },
  "place:Cafe ミカエル 渋谷区代々木5-55-5 2F「隠れのみ処諸星」内": {
    "lat": 35.677987699999996,
    "lng": 139.69165759999998,
    "place_id": "ChIJTyaqTgCNGGARsCjDemzLxBk"
  },
  "place:Cafe&Bar 渋谷ゴルフクラブ 〒150-0044 東京都渋谷区円山町25-7 ファザーランド渋谷Ⅲ 5階": {
    "lat": 35.6558814,
    "lng": 139.6935595,
    "place_id": "ChIJKe9VcCqLGGARElgzOyRa_sY"
  },
  "place:Cafe&bar The4th EBISU 渋谷区恵比寿南2-3-12je1ビル2F": {
    "lat": 35.6454841,
    "lng": 139.70733629999998,
    "place_id": "ChIJsb2XxkCLGGARifaQ8H9ratk"
  },
  "place:Cafe1008 渋谷区神宮前1-1-10SCC千駄ヶ谷コミュニティセンター内": {
    "lat": 35.6740783,
    "lng": 139.7066542,
    "place_id": "ChIJuVNUnI2NGGARej5seo8iO5I"
  },
  "place:Cafe＆Bar1985 渋谷区道玄坂2-22-6CREA道玄坂1F": {
    "lat": 35.659569999999995,
    "lng": 139.6955491,
    "place_id": "ChIJtZvlMaqMGGARAUhjw0GdMpI"
  },
  "place:Cafe＆Bar　753～nagomi～ 渋谷区笹塚2-14-6ディアレストケイオーB1F": {
    "lat": 35.674566000000006,
    "lng": 139.66679589999998,
    "place_id": "ChIJV6vewRnzGGAR7SIMPoyvOlI"
  },
  "place:Carasawagi Bar 渋谷区笹塚1-57-10笹塚駅前ビル2F": {
    "lat": 35.6739368,
    "lng": 139.6669728,
    "place_id": "ChIJjc_13RnzGGARIQRe0bR5UH0"
  },
  "place:Casa Vinitalia （カーザヴィニタリア） 〒106-0047 東京都港区南麻布1-7-31 Mタワー2F": {
    "lat": 35.6512177,
    "lng": 139.7370928,
    "place_id": "ChIJz0ToAaSLGGARXmjGaPhv5AI"
  },
  "place:CasaBella 〒150-0001 東京都渋谷区神宮前2-3-30第二竹上ビルB1F": {
    "lat": 35.6744537,
    "lng": 139.7134121,
    "place_id": "ChIJpTbzA-GNGGARVeibvhoU90o"
  },
  "place:Cassolo 〒105-0004 東京都港区新橋4-1-1 新虎通りCORE2F": {
    "lat": 35.665276,
    "lng": 139.7540675,
    "place_id": "ChIJkdNFqiGLGGARJzY9nE_OxxU"
  },
  "place:Cheval de Hyotan 〒171-0021 東京都豊島区西池袋3-5-7 ウィルコート1F": {
    "lat": 35.7287319,
    "lng": 139.705126,
    "place_id": "ChIJxcsWvVuNGGARsbx4kA__DhA"
  },
  "place:Chiles Mexican Grill 渋谷区神宮前1-8-24OZ原宿ビル1-A": {
    "lat": 35.670376499999996,
    "lng": 139.705599,
    "place_id": "ChIJUd36uqSMGGARIkBBHqsDtdQ"
  },
  "place:Chocolate Pocket 渋谷区笹塚2-12-13Y2ビル1F": {
    "lat": 35.675339699999995,
    "lng": 139.6679432,
    "place_id": "ChIJXzfGtRnzGGARLYGNAmxDOlA"
  },
  "place:Cidernaut 渋谷区神山町16-4堀内ビル": {
    "lat": 35.6632797,
    "lng": 139.69403459999998,
    "place_id": "ChIJzWcmWqyMGGAR0QDj9fTGvQs"
  },
  "place:CoffeeCrevice 渋谷区代々木4-2-9ピーズビル2F": {
    "lat": 35.6787279,
    "lng": 139.69326859999998,
    "place_id": "ChIJP2mGesuMGGARUxTbKm-YKEA"
  },
  "place:Concerto 渋谷区上原1-29-5BIT代々木上原B1": {
    "lat": 35.6683333,
    "lng": 139.6798911,
    "place_id": "ChIJ8ZpWwUfzGGARvtQTZU20JP4"
  },
  "place:Convivio 〒151-0051 東京都渋谷区千駄ヶ谷3-17-12": {
    "lat": 35.6759166,
    "lng": 139.7080277,
    "place_id": "ChIJB1ZQ86a7JhURpb6TfiSk_vM"
  },
  "place:Convivio 渋谷区千駄ヶ谷3-17-12カミムラビル1F": {
    "lat": 35.6759166,
    "lng": 139.7080277,
    "place_id": "ChIJB1ZQ86a7JhURpb6TfiSk_vM"
  },
  "place:Cosmologia 〒160-0007 東京都新宿区荒木町23-15アケボノ大鉄ビル1F": {
    "lat": 35.691742999999995,
    "lng": 139.7232187,
    "place_id": "ChIJe32CIPKMGGARhBV4LPzBM40"
  },
  "place:Counter Sharing imantokoro 渋谷区宇田川町37-15ARISTO渋谷 Le Comptoir 内": {
    "lat": 35.662558,
    "lng": 139.6951351,
    "place_id": "ChIJ9TAb1VSNGGARgyfr6e63gQE"
  },
  "place:Craft Beer Tap FAM333 渋谷区千駄ヶ谷3-3-3エグゼクティブ原宿 B1F": {
    "lat": 35.6767287,
    "lng": 139.7061989,
    "place_id": "ChIJIUDl3-SNGGAR0eLJJ2eUeno"
  },
  "place:Craft Curry Brothers BASE 代々木 渋谷区代々木3丁目13-1Smi:re Yoyogi 1階": {
    "lat": 35.6838833,
    "lng": 139.69498489999998,
    "place_id": "ChIJWZxVb_KNGGARe_aFROh5Fdk"
  },
  "place:Craftbeer gau's 渋谷区神山町16-4ヴィラメトロポリス2A": {
    "lat": 35.6632797,
    "lng": 139.69403459999998,
    "place_id": "ChIJFRUpWqyMGGARyaIux2hURhE"
  },
  "place:Crowny cafe Stand 渋谷区代々木1-38-6星野ビル1階": {
    "lat": 35.6724628,
    "lng": 139.6860696,
    "place_id": "ChIJe14Zv2DzGGAR5pe50H1r-LE"
  },
  "place:Curry Leaves（カレーリーブス） 〒130-0013 東京都墨田区錦糸3-13-1": {
    "lat": 35.6993633,
    "lng": 139.8141268,
    "place_id": "ChIJuYRacpyTGGARI7P22YrduYk"
  },
  "place:Cyodo 渋谷区本町6-37-10": {
    "lat": 35.6809057,
    "lng": 139.67668129999998,
    "place_id": "ChIJw37Yz0rzGGARiRBxSrTTW1c"
  },
  "place:DA HOUSE 渋谷区恵比寿南2-3-15cocospace恵比寿南2階": {
    "lat": 35.6456613,
    "lng": 139.7077069,
    "place_id": "ChIJafzzjgOLGGARCbPQw8ATIKc"
  },
  "place:DADA　-DARTS AND KARAOKE- 渋谷区代官山町13-4セレサ代官山　地下一階": {
    "lat": 35.6498437,
    "lng": 139.70448,
    "place_id": "ChIJYxoi4WyLGGARdiaKkfqnf5Y"
  },
  "place:DAMカラ生バンドLIVE Bar BippAra 渋谷区恵比寿南1-4-7シエルブルー恵比寿南B1F": {
    "lat": 35.646161,
    "lng": 139.708833,
    "place_id": "ChIJufFx9kCLGGARzOTCjMkO7_c"
  },
  "place:DELIZIOSO FIRENZE 〒100-0005 東京都千代田区丸の内1-5-1 新丸の内ビルディング 5F": {
    "lat": 35.682345,
    "lng": 139.7639517,
    "place_id": "ChIJN4zgs_mLGGARvvHxkE9qUBk"
  },
  "place:DENKUSHIFLORI（デンクシフロリ） 〒150-0001 東京都渋谷区神宮前5丁目46番7号 GEMS青山CROSS B1A": {
    "lat": 35.6639239,
    "lng": 139.70893329999998,
    "place_id": "ChIJaavk9JeNGGARiR_VC8ekgdg"
  },
  "place:DINING & BAR TABLE 9 TOKYO（品川プリンスホテル内） 〒108-8611 東京都港区高輪4-10-30": {
    "lat": 35.6278479,
    "lng": 139.73641,
    "place_id": "ChIJy-3031mKGGARL09IUiB7ZgE"
  },
  "place:DINING BAR SCUBA 渋谷区幡ヶ谷1-1-5第一岩田ビル　B1F": {
    "lat": 35.6775826,
    "lng": 139.6789025,
    "place_id": "ChIJ____PyPzGGARLkzkGpGvANo"
  },
  "place:DIRITTO 〒162-0825 東京都新宿区神楽坂5-30-4 4F": {
    "lat": 35.7018651,
    "lng": 139.7385718,
    "place_id": "ChIJNXhMWCHzGGARrGznMYwN4Ak"
  },
  "place:DIYA 東京ミッドタウン日比谷店 〒100-0006 東京都千代田区有楽町1-1-2 東京ミッドタウン日比谷2F": {
    "lat": 35.673665299999996,
    "lng": 139.75937,
    "place_id": "ChIJR2YbJO6LGGARccKCHxe0ecg"
  },
  "place:DRAWING HOUSE OF HIBIYA 〒100-0066 東京都千代田区有楽町1-1-2 東京ミッドタウン日比谷6F": {
    "lat": 35.6736991,
    "lng": 139.75887559999998,
    "place_id": "ChIJ9yEjreuLGGARZA6MoC9T6Do"
  },
  "place:Da-ism 渋谷区千駄ヶ谷3-16-17NOCE KITASANDO102": {
    "lat": 35.6761503,
    "lng": 139.7073681,
    "place_id": "ChIJLXwZBfuNGGARu4Epp9TGaVE"
  },
  "place:Dan de CHAYA　だんで茶屋 渋谷区代々木5-2-52F": {
    "lat": 35.6708791,
    "lng": 139.6890821,
    "place_id": "ChIJJ4UEcjjzGGARvA8_wwWuI3I"
  },
  "place:Dear All 渋谷区笹塚1-59-5バンブー皐月101": {
    "lat": 35.6734323,
    "lng": 139.6647649,
    "place_id": "ChIJ2fI6DhrzGGARZj0_mog88HU"
  },
  "place:Debut icci 代官山 〒150-0034 東京都渋谷区代官山町12-3 1F": {
    "lat": 35.6506629,
    "lng": 139.7039548,
    "place_id": "ChIJVfCjYRyLGGARWqo_lE64r4M"
  },
  "place:Delcharlro 渋谷区恵比寿4-4-14イナビル1階": {
    "lat": 35.645471,
    "lng": 139.71143179999999,
    "place_id": "ChIJQY1e_j-LGGAR1N3MR2W4X9c"
  },
  "place:Dining & Bar TENQOO（ホテルメトロポリタン丸の内27階） 〒100-0005 東京都千代田区丸の内1-7-12 サピアタワー27階": {
    "lat": 35.6837867,
    "lng": 139.76834309999998,
    "place_id": "ChIJkwDaxf6LGGAR099fEcJTt1I"
  },
  "place:Dining Café HARU 〒135-0016 東京都江東区東陽4-11-33サンイースト21-1F": {
    "lat": 35.6737311,
    "lng": 139.81641009999998,
    "place_id": "ChIJ4xKT_h6JGGARjTkn1jnlwDk"
  },
  "place:Dining bar ROOT 〒160-0021 東京都新宿区歌舞伎町2-11-2 良川ビルⅢ 1F": {
    "lat": 35.6958446,
    "lng": 139.70490669999998,
    "place_id": "ChIJT3al4miNGGARW3E1EGbqyCA"
  },
  "place:Dining bar Riso 住吉店 〒135-0003 東京都江東区猿江2-13-3 1F": {
    "lat": 35.6865434,
    "lng": 139.8160686,
    "place_id": "ChIJreJPBZ2JGGARqe9orp-b7mo"
  },
  "place:District ブラッスリー・バー・ラウンジ（キンプトン新宿東京内） 〒160-0023 東京都新宿区西新宿3丁目4-7": {
    "lat": 35.685583,
    "lng": 139.6922749,
    "place_id": "ChIJH8sxL6KNGGARSpCZ89NgUX8"
  },
  "place:Drogheria Sancricca 〒108-0072 東京都港区白金1-5-7": {
    "lat": 35.6467308,
    "lng": 139.7332214,
    "place_id": "ChIJjY7NmhmLGGARVxDXQFQ_UCw"
  },
  "place:Dubois(デュボワ) 渋谷区西原2-20-8コーポ小沢1階 Dubois": {
    "lat": 35.6746889,
    "lng": 139.6794622,
    "place_id": "ChIJ3fkvIzrzGGARITu3kynhNH8"
  },
  "place:EBISU SIX 渋谷区恵比寿3-3-2ニューケイクレセント2f": {
    "lat": 35.6452664,
    "lng": 139.71795649999999,
    "place_id": "ChIJp3SBcQCLGGARBakHz-J_JN4"
  },
  "place:EBISUBASHI珊瑚 渋谷区恵比寿1-16-18": {
    "lat": 35.6478124,
    "lng": 139.7149365,
    "place_id": "ChIJA5KqO2uLGGARQBsWbaMtbfw"
  },
  "place:EBIZO 渋谷区道玄坂2丁目19-3ライオンズマンション104": {
    "lat": 35.6590833,
    "lng": 139.6963801,
    "place_id": "ChIJyWc59amMGGARoBACEVNF45U"
  },
  "place:EIGHT COFFEE 渋谷区恵比寿1-11-8TCビル1階": {
    "lat": 35.6463594,
    "lng": 139.7115954,
    "place_id": "ChIJARoKkxKLGGARy_fPMGYSnRg"
  },
  "place:ELMO+ 渋谷区笹塚1-56-18京王クラウン街笹塚A-2東": {
    "lat": 35.673797799999996,
    "lng": 139.6673562,
    "place_id": "ChIJWd3oMZLzGGARgcOLggK4r5M"
  },
  "place:EMME エンメ 〒150-0002 東京都渋谷区渋谷2-3-19 ローゼ青山1階": {
    "lat": 35.660053600000005,
    "lng": 139.70884429999998,
    "place_id": "ChIJQ_I_2zCLGGARXoFoIph8NZw"
  },
  "place:ENRICO 渋谷区松濤2-14-5ヴィラ松濤1F": {
    "lat": 35.6586028,
    "lng": 139.6924685,
    "place_id": "ChIJU2qp_siNGGARMOSxL7Lbb8c"
  },
  "place:ESOLA 新宿店 〒160-0023 東京都新宿区歌舞伎町1-16-3 セレサ陽栄新宿ビル5F": {
    "lat": 35.693753199999996,
    "lng": 139.7019257,
    "place_id": "ChIJnRCAewCNGGAR-CbhSNsPpH8"
  },
  "place:EXCITE LUCKY 渋谷区笹塚3-31-10笹塚サンハイツ": {
    "lat": 35.67551840000001,
    "lng": 139.6623123,
    "place_id": "ChIJn-3ObRvzGGARjgEwKkJMwo8"
  },
  "place:Empire Steak House Roppongi 〒106-0032 東京都港区六本木6-7-11-1F": {
    "lat": 35.6620419,
    "lng": 139.7326824,
    "place_id": "ChIJl_GVaJ2LGGARpKYvM-_z_eE"
  },
  "place:Etape 〒130-0005 東京都墨田区東駒形2-21-6 ディアウぃステリア102": {
    "lat": 35.7074535,
    "lng": 139.7999643,
    "place_id": "ChIJD34kbjGPGGARrfsQXkKOwzM"
  },
  "place:Ethnic Dining TSUBAKI GARDEN 渋谷区東1-3-1カミニート1F 4号": {
    "lat": 35.6574026,
    "lng": 139.7081907,
    "place_id": "ChIJH0EnJVyLGGARd7XWS7A_Qhw"
  },
  "place:E・A・T GRILL＆BAR 渋谷区千駄ヶ谷4丁目10番4号千駄ヶ谷グリーンランドビル1階": {
    "lat": 35.6799126,
    "lng": 139.70638499999998,
    "place_id": "ChIJw4NWZpKNGGARMqOwDWjOm34"
  },
  "place:FERMiNTXO（フェルミンチョ） 〒106-0031 東京都港区西麻布1-8-13": {
    "lat": 35.660807999999996,
    "lng": 139.7247912,
    "place_id": "ChIJYc2lenqLGGARAstZ83KH_qM"
  },
  "place:FFF yoyogipark 渋谷区富ヶ谷1-2-8スタジオリオネビルB1": {
    "lat": 35.66979,
    "lng": 139.6896373,
    "place_id": "ChIJ1yMkSsHzGGARFB1Ohkhh_os"
  },
  "place:FIL# 渋谷区西原1-7-8ツインパレスk.i103": {
    "lat": 35.6738417,
    "lng": 139.68173009999998,
    "place_id": "ChIJe5iJbhvzGGARmsLdYELFgHY"
  },
  "place:FLORA BOX 85 渋谷区渋谷1-24-5ドクターズビルB1": {
    "lat": 35.6608385,
    "lng": 139.70203039999998,
    "place_id": "ChIJhQgD8KeMGGARgNo2H-nuE6Y"
  },
  "place:FLOTO 〒151-0053 東京都渋谷区代々木4-12-6 1F": {
    "lat": 35.679179999999995,
    "lng": 139.69189,
    "place_id": "ChIJW_Z0p8yMGGARGKLxL3ZwC40"
  },
  "place:FOODISKOREA原宿店 渋谷区神宮前1-15-4Barbizon1階B号室": {
    "lat": 35.6710469,
    "lng": 139.7043325,
    "place_id": "ChIJ_3gRbumNGGARdeuIz3QU8Ug"
  },
  "place:FREAKY 渋谷区神山町43-2神山町ビル1F": {
    "lat": 35.665661899999996,
    "lng": 139.692343,
    "place_id": "ChIJSRBroLKMGGARBh5y3zVThR8"
  },
  "place:FRUITSONO 渋谷区広尾5-25-6シャトー広尾1F": {
    "lat": 35.64781190000001,
    "lng": 139.7214659,
    "place_id": "ChIJMYm23IyLGGARULimmy3oLhA"
  },
  "place:FULLMOoN 渋谷本店 渋谷区渋谷1-13-5大協渋谷ビル 7F": {
    "lat": 35.6600776,
    "lng": 139.7036475,
    "place_id": "ChIJu9wVUExfGGARo8Q8Ff9rdNY"
  },
  "place:FURUYA-augastoronome 〒107-0052 東京都港区赤坂4-3-9 赤坂藤マンション1F": {
    "lat": 35.674232599999996,
    "lng": 139.73584409999998,
    "place_id": "ChIJAQCMXX-MGGARa6epKGzHXL8"
  },
  "place:FUSOU 〒150-0031 東京都渋谷区桜丘町1-11-1 sakurastage ShibuyaTower 38階 manoma": {
    "lat": 35.656978699999996,
    "lng": 139.7018986,
    "place_id": "ChIJ40GKTLyLGGARoEOWbdUe_Sk"
  },
  "place:FabuDine. 渋谷区広尾5-19-12広尾テラス1階": {
    "lat": 35.6484585,
    "lng": 139.7205308,
    "place_id": "ChIJ377_IVSLGGAR5AGLqOGweEI"
  },
  "place:Famiglia 渋谷区神宮前2-19-15コーポ松園202": {
    "lat": 35.6738029,
    "lng": 139.7105861,
    "place_id": "ChIJwTxZQb2MGGARaccbtwfXwbY"
  },
  "place:FiGARO原宿H-14 渋谷区神宮前2丁目19番13号J2ビル1F": {
    "lat": 35.673690199999996,
    "lng": 139.7103435,
    "place_id": "ChIJQ0AiR72MGGAR7pouTdx4SMc"
  },
  "place:First Penguin IL Teatrino 〒130-0011 東京都墨田区石原3丁目18-5": {
    "lat": 35.700427999999995,
    "lng": 139.803114,
    "place_id": "ChIJs5dqrjKJGGARYHuH9doLIl8"
  },
  "place:Foods bar 栞屋 伏見・山科 京都": {
    "lat": 34.9323678,
    "lng": 135.76202139999998,
    "place_id": "ChIJe1RdBZIPAWARQ-Ug3BSSJMY"
  },
  "place:FoxTrot 渋谷区恵比寿南2-2-8神山ビル3階": {
    "lat": 35.646431,
    "lng": 139.70921859999999,
    "place_id": "ChIJxaKiVACLGGARxvyESV_Qgc0"
  },
  "place:Fra 〒171-0044 東京都豊島区千早1丁目15-16 興輝ビル1F": {
    "lat": 35.7306919,
    "lng": 139.6979163,
    "place_id": "ChIJv2xJiUSNGGAR64h-GT2F1qk"
  },
  "place:GARA スパイスレストラン 池袋店 〒171-0021 東京都豊島区西池袋5-13-10": {
    "lat": 35.7327446,
    "lng": 139.7030576,
    "place_id": "ChIJMb0SRFiNGGARCUUAqhrggkE"
  },
  "place:GARB CENTRAL 〒102-0094 東京都千代田区紀尾井町1-3東京ガーデンテラス紀尾井町1F": {
    "lat": 35.6794071,
    "lng": 139.7367593,
    "place_id": "ChIJ4Z9j7XuMGGAREA1Xl-Jm4Rk"
  },
  "place:GARB Tokyo 〒100-0005 東京都千代田区丸の内2-2-3 丸の内仲通りビル1F": {
    "lat": 35.680480599999996,
    "lng": 139.7628139,
    "place_id": "ChIJd8vf__mLGGARrpXsrJ1aDFI"
  },
  "place:GARB pintino 〒101-0054 東京都千代田区神田錦町3丁目22 テラススクエア 2F": {
    "lat": 35.6934032,
    "lng": 139.7600221,
    "place_id": "ChIJm465MhCMGGARwiSrvbH-YVE"
  },
  "place:GATO 渋谷区本町6-38-3松島ビル1階": {
    "lat": 35.680775,
    "lng": 139.6761473,
    "place_id": "ChIJC9Ttxt6NGGARWqOI2ocgMVg"
  },
  "place:GELATO BRAVO 渋谷区恵比寿西1-33-18コート代官山102": {
    "lat": 35.646771699999995,
    "lng": 139.7029412,
    "place_id": "ChIJs_mKwqCLGGARW6vELZOQFzE"
  },
  "place:GET BETTERcoffee&sandwich 渋谷区本町2-7-9": {
    "lat": 35.6836882,
    "lng": 139.6827325,
    "place_id": "ChIJOc6BNEfzGGAR0ssArvYXmG0"
  },
  "place:GOFUKU 〒136-0073 東京都江東区北砂3-32-18 岩崎ビル1F": {
    "lat": 35.67950400000001,
    "lng": 139.8288447,
    "place_id": "ChIJvSlOV_GIGGARlIO_P-Z5-1g"
  },
  "place:GOOD MORNING CAFÉ 錦町 〒101-0054 東京都千代田区神田錦町3-20 錦町トラッドスクエア 1F": {
    "lat": 35.6932687,
    "lng": 139.76081539999998,
    "place_id": "ChIJOSGdOhCMGGARPL4uA3Xt4b0"
  },
  "place:GRATIALLIGO 渋谷区代々木1-45-10NJビル1F": {
    "lat": 35.682231699999996,
    "lng": 139.6981405,
    "place_id": "ChIJ-etR0M6MGGARfArVDa9iNo0"
  },
  "place:GRILL UKAI MARUNOUCHI 〒100-6902 東京都千代田区丸の内2-6-1 丸の内ブリックスクエア 2F": {
    "lat": 35.678704499999995,
    "lng": 139.7628152,
    "place_id": "ChIJewLRDPqLGGARURymBGhdyIk"
  },
  "place:GRILL&Bar Hanaya 〒160-0021 東京都新宿区歌舞伎町2-45-4 若月ビル B1F": {
    "lat": 35.6965848,
    "lng": 139.700461,
    "place_id": "ChIJrWCZBnaNGGAR-ccKRf7KPio"
  },
  "place:GRIP 〒171-0022 東京都豊島区南池袋2-11-1": {
    "lat": 35.7254937,
    "lng": 139.71394279999998,
    "place_id": "ChIJCfGynWmNGGARN3kcePh81NA"
  },
  "place:Gallery Bar 余白 渋谷区本町2-1-7フォレスト初台102": {
    "lat": 35.6843925,
    "lng": 139.68517509999998,
    "place_id": "ChIJnc1F5hHzGGAROrZcs8E0UEc"
  },
  "place:GatemoTabum　ガテモタブン 渋谷区上原1-22-5": {
    "lat": 35.668420999999995,
    "lng": 139.68261959999998,
    "place_id": "ChIJO5QH9kjzGGARroZFocXbHLc"
  },
  "place:Green Sloth 渋谷区神泉町8-12ザ・シティ渋谷神泉3F": {
    "lat": 35.6557391,
    "lng": 139.6933991,
    "place_id": "ChIJl5UcqZiLGGAR42rwN_wsgD8"
  },
  "place:Grunge 渋谷区西原2-28-4宮嶋ビルB1-1": {
    "lat": 35.6752945,
    "lng": 139.6782364,
    "place_id": "ChIJ3QdesjvzGGARvccrgrlS3vY"
  },
  "place:HABURASHIBEERANDPOTATO 渋谷区道玄坂2-9-4道玄坂LEE-ONEビル3階": {
    "lat": 35.6587813,
    "lng": 139.6980754,
    "place_id": "ChIJvzKVcQmLGGARjips3CTbjf4"
  },
  "place:HACHI 渋谷区富ヶ谷1丁目53の2辰美ビル2階": {
    "lat": 35.6692294,
    "lng": 139.68820599999998,
    "place_id": "ChIJzcWIm0vzGGAR6AxNkdwz9H8"
  },
  "place:HACHIYAcurry 渋谷区神山町10-8グランドゥール101": {
    "lat": 35.6634732,
    "lng": 139.6945576,
    "place_id": "ChIJ4SDlonaNGGARmvqiY1tep20"
  },
  "place:HASABON 〒162-0831 東京都新宿区横寺町30神楽坂茶ノ木テラス101": {
    "lat": 35.7031231,
    "lng": 139.734999,
    "place_id": "ChIJKek8Ie-NGGAR7U9AvRsfZJ4"
  },
  "place:HASUO 渋谷区広尾5-10-3フロストバード広尾1階": {
    "lat": 35.649496,
    "lng": 139.7210467,
    "place_id": "ChIJsbfaq2uLGGAR0RygA6m_kqw"
  },
  "place:HATO 渋谷区初台1-9-7T&Tビル101": {
    "lat": 35.6781169,
    "lng": 139.6871292,
    "place_id": "ChIJ1-9tYynzGGARE8641vv_J1Y"
  },
  "place:HATTO COFFEE 渋谷区神宮前2-18-19the Folks SHOP2": {
    "lat": 35.6730908,
    "lng": 139.7098336,
    "place_id": "ChIJBUsSSZ2NGGARoTHF_D5f2tc"
  },
  "place:HAUS 渋谷区神宮前2-14-5HAUS": {
    "lat": 35.6739311,
    "lng": 139.7117111,
    "place_id": "ChIJOxFjY1-NGGAR1XTyyXndTyM"
  },
  "place:HEAVENLY Island Lifestyle 代官山 〒150-0033 東京都渋谷区猿楽町24-7 代官山プラザ2F": {
    "lat": 35.6484026,
    "lng": 139.7015819,
    "place_id": "ChIJEbTGGf6LGGARp6x3eQyXuIA"
  },
  "place:HERO 渋谷区道玄坂2-8-8コスモ渋谷会館103号": {
    "lat": 35.661066399999996,
    "lng": 139.69721579999998,
    "place_id": "ChIJr7PXc6mMGGARP3105KKCqh0"
  },
  "place:HIDEAWAY 渋谷区千駄ヶ谷4-29-11玉造ビル2　B1F": {
    "lat": 35.6812124,
    "lng": 139.70378599999998,
    "place_id": "ChIJzxvutoeNGGARxIHcffJv3HA"
  },
  "place:HOFF 渋谷区初台2-11-11ステータスヒル初台1F": {
    "lat": 35.6759288,
    "lng": 139.6836801,
    "place_id": "ChIJn6r_KjHzGGARxlDEumMYVOY"
  },
  "place:HORAIYA 渋谷区神宮前2-19-10原電ビル1F-C": {
    "lat": 35.673258499999996,
    "lng": 139.7100371,
    "place_id": "ChIJe8hP7leNGGAR-oBsEJzc9iM"
  },
  "place:HOT SAKE Lab 〒130-0001 東京都墨田区吾妻橋2丁目9-8 町田第二ファミール": {
    "lat": 35.7093896,
    "lng": 139.8029215,
    "place_id": "ChIJlyO0yv-PGGAR7lK2w0YN710"
  },
  "place:HOTEL CEN 〒169-0073 東京都新宿区百人町1-5-19": {
    "lat": 35.6992323,
    "lng": 139.70129939999998,
    "place_id": "ChIJt-IhlvSNGGARfMVrwXejxJ4"
  },
  "place:HOTSAND CAFE Forest DAIKANYAMA 渋谷区代官山町16-2": {
    "lat": 35.6498075,
    "lng": 139.7027683,
    "place_id": "ChIJn4BKJHSLGGARdD6SEkJDRkg"
  },
  "place:HOW'z 〒150-0001 東京都渋谷区神宮前6丁目31-21 東急プラザ原宿ハラカド3階": {
    "lat": 35.6684807,
    "lng": 139.7049423,
    "place_id": "ChIJbd28zs2NGGAR9ylKuVvzNqc"
  },
  "place:HUIT 渋谷区道玄坂2-17-1渋谷野武士ビル1F": {
    "lat": 35.6585374,
    "lng": 139.69654359999998,
    "place_id": "ChIJ6annXKSNGGAR0D2HWHc73HQ"
  },
  "place:Harmonie agreable 〒150-0002 東京都渋谷区渋谷4-1-13": {
    "lat": 35.65992,
    "lng": 139.7130711,
    "place_id": "ChIJxxf0zcWLGGARjcV1RE0iE4k"
  },
  "place:HauS Bake&Cafe 渋谷区広尾5-17-6河上ビル1F": {
    "lat": 35.6494472,
    "lng": 139.720475,
    "place_id": "ChIJMWyytxKLGGARqq-r8ti7Ll8"
  },
  "place:Henderson 渋谷区宇田川町41-28茂木ビル101": {
    "lat": 35.6629515,
    "lng": 139.6950661,
    "place_id": "ChIJhQEqWwCNGGARrRQoE3VDAoM"
  },
  "place:Hotel Tanzer 渋谷区道玄坂2-29-18清水ビル7階": {
    "lat": 35.6586607,
    "lng": 139.6985762,
    "place_id": "ChIJIbjK1xyLGGAR-9IQVsUIv48"
  },
  "place:ICON 渋谷区代々木代々木1-41-4": {
    "lat": 35.6826878,
    "lng": 139.6997519,
    "place_id": "ChIJyc9j_M6MGGARwYUNTTlDJRA"
  },
  "place:ITACHI 渋谷区円山町1-3skビル　2F": {
    "lat": 35.6596791,
    "lng": 139.6954125,
    "place_id": "ChIJWcfFM6qMGGARSD4frANvMiw"
  },
  "place:InG 渋谷区本町2-43-4ヴァーチェストーンハウス1A": {
    "lat": 35.684608499999996,
    "lng": 139.6840186,
    "place_id": "ChIJN-2MNLXzGGARb7BLKpE9sus"
  },
  "place:Irish Pub Banshee 渋谷区宇田川町33-8エミリアビル1階": {
    "lat": 35.66080850000001,
    "lng": 139.6968652,
    "place_id": "ChIJSzfzlAKNGGARpzGesUScayQ"
  },
  "place:Italian bar Riso 〒135-0004 東京都江東区森下2-20-11 鎌田ビル1F": {
    "lat": 35.6883173,
    "lng": 139.7998431,
    "place_id": "ChIJZ4GTSTqJGGARaU0IIBNgwUA"
  },
  "place:JAPANESE GELATERIA & CAFE ASANOHA 渋谷区恵比寿西1-8-11昴Aビル1階": {
    "lat": 35.6474526,
    "lng": 139.7083498,
    "place_id": "ChIJ_bF7BxKLGGARNF6MW8jQt7w"
  },
  "place:JB's TOKYO ミヤシタパーク店 渋谷区神宮前6-20-10MIYASHITA PARK SOUTH 2F": {
    "lat": 35.6614109,
    "lng": 139.7018728,
    "place_id": "ChIJ7QxD9QeNGGAR-OlXihUc_Rg"
  },
  "place:JB’s TOKYO 代々木本店 渋谷区代々木1-33-3": {
    "lat": 35.682799200000005,
    "lng": 139.7021823,
    "place_id": "ChIJI42jra-NGGARz8-Vdy1WPx4"
  },
  "place:JOE TALK COFFEE 〒150-0011 東京都渋谷区東3丁目16-10 三浦ビル": {
    "lat": 35.6489028,
    "lng": 139.7107336,
    "place_id": "ChIJzR-UeV6LGGARe0j_OeIaENE"
  },
  "place:Japanese Soba Noodles 蔦 〒151-0066 東京都渋谷区西原3-2-4 B1F": {
    "lat": 35.6703963,
    "lng": 139.6824758,
    "place_id": "ChIJVVVVVZiNGGAR_Dkw0TJHoN4"
  },
  "place:Jfree 〒162-0825 東京都新宿区神楽坂2-11-7 エーワイツービルディング2F": {
    "lat": 35.701186199999995,
    "lng": 139.7419712,
    "place_id": "ChIJB_eofbCNGGAR9irnB79qoD0"
  },
  "place:KAMERA 〒150-0043 東京都渋谷区道玄坂2-20-5 1F": {
    "lat": 35.6593136,
    "lng": 139.6965419,
    "place_id": "ChIJm9M9-SuNGGAR2h6uPiFdvFs"
  },
  "place:KEBAB CAFE 渋谷区道玄坂2-25-10ベニー道玄坂ビル1階": {
    "lat": 35.660271699999996,
    "lng": 139.6971457,
    "place_id": "ChIJUTbpm6mMGGAR2VuGBpsiHEY"
  },
  "place:KITASANDO COFFEE 渋谷区千駄ヶ谷4丁目12-8SSUビル1F": {
    "lat": 35.678944,
    "lng": 139.7064308,
    "place_id": "ChIJuziVM6KNGGARf8D_CEUyVFI"
  },
  "place:KKW.softcream 渋谷区富ヶ谷1-8-2代々木ホームズ1階": {
    "lat": 35.6692256,
    "lng": 139.69035929999998,
    "place_id": "ChIJxdhi1-bzGGARHDWXvRpXzFU"
  },
  "place:KOBAYASHI 〒106-0032 東京都港区六本木3-3-29 六本木アーバンレックス B1F": {
    "lat": 35.6631,
    "lng": 139.7366066,
    "place_id": "ChIJp-hvPQCLGGARNPxzJV8A2rY"
  },
  "place:KOBUSHI BEER LOUNGE & BAR 渋谷区道玄坂2-17-2トップ美奄 2F": {
    "lat": 35.658662199999995,
    "lng": 139.6965895,
    "place_id": "ChIJEcEPQ7iNGGARyZFxDXAqf_c"
  },
  "place:KO‐KO 渋谷区道玄坂2-26-5ひまわりビル2F": {
    "lat": 35.6593018,
    "lng": 139.697113,
    "place_id": "ChIJT7fq7KmMGGARNFsnaDyno-M"
  },
  "place:KUKUTANA 渋谷区桜丘町23番17号シティコート桜丘408": {
    "lat": 35.6556571,
    "lng": 139.6997131,
    "place_id": "ChIJXXEcPFeLGGAR9AqLXxKqrCI"
  },
  "place:KURA 渋谷店 渋谷区渋谷1-24-7渋谷フラットビル1F": {
    "lat": 35.6606112,
    "lng": 139.7021072,
    "place_id": "ChIJ2Umo8KeMGGAR1y1xt1BiXWM"
  },
  "place:KYOYA　THE　KIYOMIZU　御幸町 京都市中心部 京都": {
    "lat": 35.0045935,
    "lng": 135.7699264,
    "place_id": "ChIJG3YaPZUIAWARtX_jIz0BZII"
  },
  "place:Kouji＆ko ITALIAN 渋谷区桜丘町16-13桜丘フロントⅡビル2F": {
    "lat": 35.6567807,
    "lng": 139.7012255,
    "place_id": "ChIJjSlZgTOLGGARcyrpVlhXtqk"
  },
  "place:Kumar Dhaba（クマールダバ） 〒170-0001 東京都豊島区西巣鴨4-13-14": {
    "lat": 35.7441682,
    "lng": 139.72892389999998,
    "place_id": "ChIJVfehHL-NGGARsxPY_4vJqy4"
  },
  "place:L'ESSOR 〒107-0062 東京都港区南青山3-3-3 リビエラ南青山ビル1F": {
    "lat": 35.6683679,
    "lng": 139.7168249,
    "place_id": "ChIJO8RuTXmLGGARU4MjadPau6o"
  },
  "place:L'Octave Hayato KOBAYASHI 〒151-0051 東京都渋谷区千駄ヶ谷3-30-9 モデリアブリュット101": {
    "lat": 35.6775801,
    "lng": 139.7077013,
    "place_id": "ChIJ02olwL6MGGARuo9YSm0tcnE"
  },
  "place:L.C.d.B 渋谷区代官山町15-8": {
    "lat": 35.6499813,
    "lng": 139.70291749999998,
    "place_id": "ChIJZdq9E0WLGGARzpkWSap-7uc"
  },
  "place:LA BRETXA 〒150-0013 東京都渋谷区恵比寿4-10-8 エビスビル 1F": {
    "lat": 35.6454844,
    "lng": 139.7147176,
    "place_id": "ChIJJ_wHGQCLGGARAg-3YyGSLvI"
  },
  "place:LA JUICE&BAR 渋谷区広尾5-1-40プラスリノ広尾3F": {
    "lat": 35.648938,
    "lng": 139.7178936,
    "place_id": "ChIJA93U-ZWLGGARe3NYYjiJ-sE"
  },
  "place:LA17 渋谷区道玄坂1-19-8斉丸道玄坂ビル2階": {
    "lat": 35.656697,
    "lng": 139.695819,
    "place_id": "ChIJjwkUE1yLGGARpRTaZcHdSGU"
  },
  "place:LAITIER 〒151-0051 東京都渋谷区千駄ヶ谷1-22-7 1F": {
    "lat": 35.6791346,
    "lng": 139.7087681,
    "place_id": "ChIJbfvLAb-MGGARZ420NprWoao"
  },
  "place:LAITIER(レティエ) 渋谷区千駄ヶ谷1-22-7Sビル1F": {
    "lat": 35.6791346,
    "lng": 139.7087681,
    "place_id": "ChIJbfvLAb-MGGARZ420NprWoao"
  },
  "place:LATTEST OMOTESANDO Espresso Bar 渋谷区神宮前3丁目5番2号EFビルディング1F": {
    "lat": 35.6691612,
    "lng": 139.7069181,
    "place_id": "ChIJWUDqTxSNGGARDaX-601m1VM"
  },
  "place:LATTEST SENDAGAYA 渋谷区千駄ヶ谷3-16-9": {
    "lat": 35.676163599999995,
    "lng": 139.7066934,
    "place_id": "ChIJkdE8XQCNGGARChwLv3rxLGg"
  },
  "place:LATURE French Restaurant 渋谷区渋谷2丁目2番2号青山ルカビルB1F": {
    "lat": 35.660762,
    "lng": 139.708599,
    "place_id": "ChIJ5S6oA1-LGGAREG-V6VQQP_0"
  },
  "place:LATURE 〒150-0002 東京都渋谷区渋谷2-2-2 青山ルカビルB1F": {
    "lat": 35.660762,
    "lng": 139.708599,
    "place_id": "ChIJ5S6oA1-LGGAREG-V6VQQP_0"
  },
  "place:LOCAVORE 渋谷区上原1-35-6水上ビル1-C": {
    "lat": 35.669475,
    "lng": 139.681671,
    "place_id": "ChIJVVVxFEjzGGAROmKOcr3L25k"
  },
  "place:LOCUS 渋谷区渋谷2-11-14ステージ青山　2階": {
    "lat": 35.6601364,
    "lng": 139.7071828,
    "place_id": "ChIJ3UTsCHyLGGARtn_VqgGBYhw"
  },
  "place:LOKAHi 〒170-0004 東京都豊島区北大塚2-8-8 北大塚ビル102": {
    "lat": 35.732785799999995,
    "lng": 139.7297401,
    "place_id": "ChIJ47cFB7uNGGAR4UwxvB3axo8"
  },
  "place:LOU 〒164-0001 東京都中野区中野5-53-4": {
    "lat": 35.7091706,
    "lng": 139.666534,
    "place_id": "ChIJ9djaMKPzGGARu0f-pQBMN6Q"
  },
  "place:LUCEROKARAOKE＆BAR 渋谷区恵比寿南2-3-15ココスペース7F": {
    "lat": 35.6456541,
    "lng": 139.7077114,
    "place_id": "ChIJrWWfqYqLGGARjmpc8ge1IO0"
  },
  "place:LUCIAN 渋谷区代々木2-5-1羽田ビル 1F": {
    "lat": 35.687272899999996,
    "lng": 139.6974227,
    "place_id": "ChIJsVYNwNGMGGARCTSCtTPxShQ"
  },
  "place:LUXE DINING HAPUNA（品川プリンスホテル内） 〒108-8611 東京都港区高輪4-10-30": {
    "lat": 35.627534,
    "lng": 139.7366216,
    "place_id": "ChIJ4b5wY1eKGGAROWC-Tv8aYKw"
  },
  "place:L`Orangerie 光庵（ザ・キタノホテル東京内） 〒102-0093 東京都千代田区平河町2-16-15 ザ・キタノホテル東京2階": {
    "lat": 35.6792278,
    "lng": 139.74113979999998,
    "place_id": "ChIJF5kkfgCNGGARqvnZKmwmOvA"
  },
  "place:La BOMBANCE 〒106-0031 東京都港区西麻布2-26-21-B1": {
    "lat": 35.659790099999995,
    "lng": 139.7203532,
    "place_id": "ChIJd2xOFGWLGGARkGNzKFqqZzE"
  },
  "place:La Fede 〒136-0073 東京江東区北砂7-5-14 1F": {
    "lat": 35.6796492,
    "lng": 139.8350596,
    "place_id": "ChIJgcCtEY2IGGARqDfbJ0xvSCs"
  },
  "place:La Padella d'Oro.1 〒131-0045 東京都墨田区押上1-22-1 スカイグランデ押上 1F": {
    "lat": 35.7107454,
    "lng": 139.8150461,
    "place_id": "ChIJ5_ANA9ePGGARLp41Gt0dBbQ"
  },
  "place:La Scène（ラ・セヌ）（メルキュール東京日比谷内） 〒100-0011 東京都千代田区内幸町1-5-2": {
    "lat": 35.6695893,
    "lng": 139.758043,
    "place_id": "ChIJIcyVYACLGGAR4EGpV7RmtHM"
  },
  "place:La Tourelle 〒162-0825 東京都新宿区神楽坂6-8 ボルゴ大〆2F": {
    "lat": 35.703226300000004,
    "lng": 139.7378909,
    "place_id": "ChIJV4u3sFCMGGARi6Qz_T07PHs"
  },
  "place:La Trattoriaccia 〒106-0047 東京都港区南麻布4-2-49 麻布サンパレス203号": {
    "lat": 35.6490601,
    "lng": 139.722893,
    "place_id": "ChIJd46kwm2LGGAR8LXicYicsKM"
  },
  "place:LaCave 渋谷区西原1-50-8Grandstory代々木上原B1F": {
    "lat": 35.6744397,
    "lng": 139.6852288,
    "place_id": "ChIJdwlIAR3zGGARfTyR42XVSl0"
  },
  "place:LaLaChai 渋谷区幡ヶ谷2-18-4カナデール幡ヶ谷1F": {
    "lat": 35.6768522,
    "lng": 139.67479419999998,
    "place_id": "ChIJ6X72uNvzGGARJSacCZdGN60"
  },
  "place:Lasebiラセビ 渋谷区西原3丁目17番4号星と月と空とビル101": {
    "lat": 35.6700866,
    "lng": 139.68087549999998,
    "place_id": "ChIJVXYGZADzGGAR78n7UdXTHko"
  },
  "place:Laundry 渋谷区本町6-37-10": {
    "lat": 35.6809552,
    "lng": 139.6766862,
    "place_id": "ChIJM64TCuvzGGARTOW4lyFDVU4"
  },
  "place:Le Comptoirル・コントワール渋谷店チーズ・ナチュラルワイン 渋谷区宇田川町37-15": {
    "lat": 35.662569,
    "lng": 139.69513949999998,
    "place_id": "ChIJ7cZHD5yNGGARv1H-q60NKoE"
  },
  "place:LedianLounge 渋谷区恵比寿南2-3-14キュープラザ恵比寿南7F": {
    "lat": 35.645457,
    "lng": 139.707532,
    "place_id": "ChIJN4WSfuyLGGAR1f3V2UciAno"
  },
  "place:Les amis d'Ami 渋谷区広尾5-19-11U-Branch広尾": {
    "lat": 35.6485048,
    "lng": 139.7205303,
    "place_id": "ChIJ8xSJZ3uLGGARASYvXxpjmjE"
  },
  "place:Les dés (レデ) 〒106-0031 東京都港区西麻布2-8-11 西麻布ビル2F": {
    "lat": 35.6621637,
    "lng": 139.7205502,
    "place_id": "ChIJ2WPpYnCLGGAREbnMnvsMICc"
  },
  "place:Lib 渋谷区恵比寿1-25-112F": {
    "lat": 35.64656,
    "lng": 139.71607,
    "place_id": "ChIJZxEwoxSLGGAR8MNfIw5eJ0s"
  },
  "place:Lien Toranomon Hills 〒105-0001 東京都港区虎ノ門2丁目6-1 虎ノ門ヒルズステーションタワー4F": {
    "lat": 35.667367999999996,
    "lng": 139.74732989999998,
    "place_id": "ChIJScUFaZ2LGGARS05SdaUbiXs"
  },
  "place:Life son 渋谷区代々木4-5-13レインボービル1階": {
    "lat": 35.6786806,
    "lng": 139.6924757,
    "place_id": "ChIJByYdbcuMGGARSyzMHXdXLGw"
  },
  "place:Lino 京都市中心部 京都": {
    "lat": 35.013142699999996,
    "lng": 135.7574449,
    "place_id": "ChIJT8RML4cIAWARGJ8c_dRAQrU"
  },
  "place:Living　 渋谷区富ヶ谷1-9-14堀口ビル102": {
    "lat": 35.667750399999996,
    "lng": 139.690779,
    "place_id": "ChIJt3Fxe3zzGGARcQOM5VvT-NU"
  },
  "place:Louis Hamburger Restaurant 〒136-0076 東京都江東区南砂2-3-11": {
    "lat": 35.671154099999995,
    "lng": 139.8212471,
    "place_id": "ChIJdcRFMBuJGGARdqoWU9enJ0c"
  },
  "place:Lounge Momiji（グランドプリンスホテル新高輪1F） 〒108-8612 東京都港区高輪3-13-1": {
    "lat": 35.6301632,
    "lng": 139.7336282,
    "place_id": "ChIJ0XwEQlaKGGAR5QbF7kHjIWY"
  },
  "place:Luna piena 渋谷区千駄ヶ谷4ー19ー12モンパルテ北参道 B1": {
    "lat": 35.6810531,
    "lng": 139.70790100000002,
    "place_id": "ChIJJwdVYdyNGGARzgber1NtnIA"
  },
  "place:L’EAU（ロー） 〒107-0062 東京都港区南青山2-14-14 南青山KFKビル B1F": {
    "lat": 35.6701414,
    "lng": 139.720257,
    "place_id": "ChIJmbr8FaONGGARoqF6ut2IopQ"
  },
  "place:L’alba 〒162-0821 東京都新宿区津久戸町3-19 DeLCCS神楽坂津久戸町B1階": {
    "lat": 35.7029833,
    "lng": 139.7406883,
    "place_id": "ChIJsYOumyeNGGARkkNW6ZrAd0s"
  },
  "place:M&Maison KYOTO Jr. 京都市中心部 京都": {
    "lat": 34.993663500000004,
    "lng": 135.7610334,
    "place_id": "ChIJD-j9uaQIAWARzCf1fEbIPSY"
  },
  "place:M&Maison KYOTO 京都市中心部 京都": {
    "lat": 34.993663500000004,
    "lng": 135.7610334,
    "place_id": "ChIJD-j9uaQIAWARzCf1fEbIPSY"
  },
  "place:MAEN Sake pairing restaurant 〒150-0012 東京都渋谷区広尾1-16-1 EBISUHIROOSQUERE7F": {
    "lat": 35.648536899999996,
    "lng": 139.7110727,
    "place_id": "ChIJWzMTComLGGARmAJ1Ys2aLNg"
  },
  "place:MAGICAMENTE 渋谷区恵比寿3-41-9恵比寿台ハイツ102": {
    "lat": 35.643906,
    "lng": 139.719083,
    "place_id": "ChIJ183CfhGLGGARlponaJK_qzE"
  },
  "place:MAISON BIEN-ETRE 渋谷区上原1-17-11-3F": {
    "lat": 35.669215699999995,
    "lng": 139.68233,
    "place_id": "ChIJhUm8tMPzGGARvLgUMcKAHSQ"
  },
  "place:MANSALVA 〒150-0013 東京都渋谷区恵比寿4-23-7 恵比寿レーベン2階": {
    "lat": 35.6447583,
    "lng": 139.71572229999998,
    "place_id": "ChIJw97h5hSLGGAROhRt1oORIH8"
  },
  "place:MARCO 〒135-0048 東京都江東区門前仲町1-12-7 佐野ビル1F": {
    "lat": 35.673437899999996,
    "lng": 139.7946963,
    "place_id": "ChIJrSDzahOJGGARVzqI4boJAyY"
  },
  "place:MATAHARI 渋谷区恵比寿南1-1-3マツダイビル3階": {
    "lat": 35.6465452,
    "lng": 139.7087138,
    "place_id": "ChIJdbBE-UCLGGARPsTsbwTcp7w"
  },
  "place:MATOIYA　表参道店 渋谷区神宮前5-50-6中島ビルB1F": {
    "lat": 35.6629471,
    "lng": 139.7098957,
    "place_id": "ChIJF3Jzjl-LGGARp9SoidQ44yk"
  },
  "place:MEAT＆OYSTER kairi 渋谷区道玄坂1-11-1第二大番ビル203": {
    "lat": 35.6577505,
    "lng": 139.69867589999998,
    "place_id": "ChIJOe-kSlaLGGARzaA8GgVqXs8"
  },
  "place:MEXIPON TOKYO 渋谷区幡ヶ谷2-47-1ダイショービル1F": {
    "lat": 35.6791589,
    "lng": 139.6772396,
    "place_id": "ChIJ99zQcGvzGGARU80LDA0s7ME"
  },
  "place:MIGO Daikanyama 渋谷区代官山町13-8": {
    "lat": 35.6504243,
    "lng": 139.7048989,
    "place_id": "ChIJQQYJWF-LGGARtRhIUIA_RrA"
  },
  "place:MIL TACOS 笹塚店 渋谷区笹塚3-17-4": {
    "lat": 35.6769381,
    "lng": 139.6676464,
    "place_id": "ChIJkfAsHX7zGGAR3jWuen4uJQQ"
  },
  "place:MISOYA. 渋谷区西原3-1-1": {
    "lat": 35.668345599999995,
    "lng": 139.6829277,
    "place_id": "ChIJj7PAM-HzGGARboVnkM3sTaI"
  },
  "place:MIYASHITA CAFE +softcream 渋谷区神宮前6-20-10MIYASHITA PARK  South 2F 20200": {
    "lat": 35.6608798,
    "lng": 139.70172,
    "place_id": "ChIJQTkMFplFGGAR_BXksLzcmyE"
  },
  "place:MK  snack & bar 渋谷区桜丘町16-8アトラス桜丘ビル2階": {
    "lat": 35.6564506,
    "lng": 139.7009297,
    "place_id": "ChIJ-bziJACLGGARL-wrIcA0Ns0"
  },
  "place:MOKUBAZA 渋谷区神宮前2-28-12一階": {
    "lat": 35.6745677,
    "lng": 139.709485,
    "place_id": "ChIJwQ9ZBr2MGGARgdl94kw6eYI"
  },
  "place:MOMINOKI HOUSE 渋谷区神宮前2-18-5大網ビル1f": {
    "lat": 35.6725262,
    "lng": 139.7098164,
    "place_id": "ChIJx_3ezKKMGGARQEOKPcBptaE"
  },
  "place:MOMO Stand Tokyo 渋谷区広尾5-18-8-1F": {
    "lat": 35.649022599999995,
    "lng": 139.7205141,
    "place_id": "ChIJK9LnanCLGGARb8JkcRynMJk"
  },
  "place:MONTEMEAT 渋谷区代々木2-14-1新宿松本ビル地下1F": {
    "lat": 35.686855,
    "lng": 139.6967414,
    "place_id": "ChIJQe2ulN6NGGAR0_3EHZ8rqj4"
  },
  "place:MONday Apart Premium 秋葉原 〒101-0025 東京都千代田区神田佐久間町4-5": {
    "lat": 35.69726,
    "lng": 139.7790238,
    "place_id": "ChIJLzm16huMGGAR3KpPXa7NQEc"
  },
  "place:MOTOYA Book Cafe Gallery 渋谷区初台2-24-7": {
    "lat": 35.676077,
    "lng": 139.68552,
    "place_id": "ChIJXb6ZrzbzGGARhwu_dy2_UWg"
  },
  "place:MU Coffee 渋谷区猿楽町12-35t+Daikanyama1F": {
    "lat": 35.6487772,
    "lng": 139.7012887,
    "place_id": "ChIJlVmtgE-LGGARjJenom1Dg-M"
  },
  "place:MUGE 渋谷区富ヶ谷1-9-20リンデン代々木公園1F": {
    "lat": 35.668348,
    "lng": 139.6902868,
    "place_id": "ChIJE7T3ygvzGGARCrZijyJ6keU"
  },
  "place:MUJOあさひる 渋谷区富ヶ谷1-3-14": {
    "lat": 35.6694715,
    "lng": 139.68933859999999,
    "place_id": "ChIJT9_2b0vzGGARH3IDeOfTpSQ"
  },
  "place:MUKAN78 渋谷区本町2-7-12キッチンゲートNo3": {
    "lat": 35.683882000000004,
    "lng": 139.6832688,
    "place_id": "ChIJWeLKPwDzGGARYPaqJlmVlsE"
  },
  "place:MUNCH'S BURGER SHACK 〒105-0014 東京都港区芝2丁目26-1 ISMARTビル1F／2F": {
    "lat": 35.6510116,
    "lng": 139.7518307,
    "place_id": "ChIJSdE_xbeLGGARAJ81ubQroH4"
  },
  "place:ManaTee 渋谷区富ヶ谷1-14-169": {
    "lat": 35.6671495,
    "lng": 139.69122969999998,
    "place_id": "ChIJAZeE1LKMGGARQfh6xThzmbo"
  },
  "place:Mareana 渋谷区道玄坂2-18-7ヴィラフルデリ201": {
    "lat": 35.658881699999995,
    "lng": 139.695824,
    "place_id": "ChIJideWGKqMGGAR2HTgkOucvRs"
  },
  "place:Mariposa 渋谷区神山町40-2　2F": {
    "lat": 35.6649816,
    "lng": 139.69277499999998,
    "place_id": "ChIJcz6P53iNGGARsDgadS1Fhbw"
  },
  "place:Matilda coffee&veganbakes 渋谷区神宮前3-42-11ローザビアンカ105": {
    "lat": 35.6718214,
    "lng": 139.7139354,
    "place_id": "ChIJXzhc6amPGGAR4ReEziu1SiE"
  },
  "place:Melt 渋谷区恵比寿西1丁目4番地7号Lier Ebisu 2F": {
    "lat": 35.6483692,
    "lng": 139.7081388,
    "place_id": "ChIJz0CS1ueLGGARuDlrgqeWWNk"
  },
  "place:Mi Choripan 渋谷区上原2-4-8": {
    "lat": 35.6678711,
    "lng": 139.68352199999998,
    "place_id": "ChIJtzu14UjzGGARIOKWezetu5Q"
  },
  "place:Miki’s Art Cafe 渋谷区幡ヶ谷3-16-3コーポ保科1階": {
    "lat": 35.679856699999995,
    "lng": 139.6733682,
    "place_id": "ChIJF1f6yiPzGGARNkW3u6Cff88"
  },
  "place:Minoaka Deli&Cafe 渋谷区神宮前2-6-10COLAL Bldg. 1F": {
    "lat": 35.672760499999995,
    "lng": 139.71154149999998,
    "place_id": "ChIJR-r2iPCNGGARXxwGtcbsIes"
  },
  "place:Modern Thai CIEL 渋谷区千駄ヶ谷4-22-4メゾンドボナール　1F": {
    "lat": 35.68024140000001,
    "lng": 139.70590149999998,
    "place_id": "ChIJUVAvNgCNGGAR5a7t0GOiuFk"
  },
  "place:Mokita 渋谷区西原3-4-5山田ビル101": {
    "lat": 35.6701829,
    "lng": 139.68169600000002,
    "place_id": "ChIJT59KTxXzGGARTrN9uZT-r6Q"
  },
  "place:Ms Bar oeld 渋谷区上原1-1-23ステイエム代々木公園1階": {
    "lat": 35.668658,
    "lng": 139.68764270000003,
    "place_id": "ChIJV2Rs0YTzGGAR-1r9U_gNJb0"
  },
  "place:Munu 渋谷区笹塚3-9-3105": {
    "lat": 35.677377799999995,
    "lng": 139.6695773,
    "place_id": "ChIJcWphFOrzGGARuCHw_dkdkYk"
  },
  "place:MyRoom雲母 渋谷区広尾5-17-4-3F": {
    "lat": 35.6498197,
    "lng": 139.7203635,
    "place_id": "ChIJAQAAAG2LGGARvK8tA-yBrXU"
  },
  "place:N9Y　奥渋店 渋谷区宇田川町37-11大久保ビル　1階": {
    "lat": 35.6622376,
    "lng": 139.6955647,
    "place_id": "ChIJF35m2M-NGGARzYoXaMvoLq0"
  },
  "place:NAKANOブリック 〒164-0001 東京都中野区中野5-61-3": {
    "lat": 35.7068612,
    "lng": 139.6661814,
    "place_id": "ChIJKxlxyJbyGGARTKiEQDGhodA"
  },
  "place:NAPRIMO 中野店 〒164-0001 東京都中野区中野5-60-2 ライオンズプラザ中野1F": {
    "lat": 35.7070995,
    "lng": 139.666325,
    "place_id": "ChIJb8iGxJbyGGARxEtNkLWsBlY"
  },
  "place:NEW LIGHT 〒150-0001 東京都渋谷区神宮前6-20-10 MIYASHITA PARK North 3F 301": {
    "lat": 35.6622585,
    "lng": 139.70190159999999,
    "place_id": "ChIJsdwdZBiNGGARhX_johrQbyg"
  },
  "place:NIKI BAKERY 駒込店 〒170-0003 東京都豊島区駒込1丁目42-1 第三米山ビル 1階": {
    "lat": 35.735453,
    "lng": 139.747266,
    "place_id": "ChIJ_VTyfYONGGARGFiGOeaRi04"
  },
  "place:NINJA TOKYO 〒100-0004 東京都千代田区大手町2丁目2-1 新大手町ビル地下1階": {
    "lat": 35.6843901,
    "lng": 139.76748569999998,
    "place_id": "ChIJTWMULnmMGGARNNsNKxPR_Uk"
  },
  "place:NOGI 〒106-0031 東京都港区西麻布2-24-9 須藤ビル1F": {
    "lat": 35.660928399999996,
    "lng": 139.72199559999999,
    "place_id": "ChIJ69TEg_OLGGAR4yaAKql9AEA"
  },
  "place:NUTS&MILK 渋谷区本町6-38-4-1階店舗": {
    "lat": 35.6808131,
    "lng": 139.6760774,
    "place_id": "ChIJxVy0dCTzGGARjqCOC9Mrb58"
  },
  "place:NachuRa 渋谷区富ヶ谷1-17-7第二山栄ビル1階": {
    "lat": 35.66637720000001,
    "lng": 139.6919251,
    "place_id": "ChIJh2ai81GNGGARQyX2os2OAow"
  },
  "place:Newzea Platform 渋谷区神山町42-3 3FNewzea Platform": {
    "lat": 35.6655022,
    "lng": 139.6923819,
    "place_id": "ChIJk17AoLKMGGARsZOcw9SnCxI"
  },
  "place:Niku gang 渋谷店 渋谷区道玄坂2-25-10ベニー清建ビル 5F": {
    "lat": 35.660271,
    "lng": 139.6971402,
    "place_id": "ChIJt65S4A2NGGARR4d5x6P4X9k"
  },
  "place:Niru 〒150-0011 東京都渋谷区東1-25-5 1F": {
    "lat": 35.654320999999996,
    "lng": 139.7080693,
    "place_id": "ChIJjRj-YlCLGGARh-TFUYhk3yM"
  },
  "place:NoEscape新宿店 〒151-0053 東京都渋谷区代々木3丁目46-16 小野木ビル5F": {
    "lat": 35.6819367,
    "lng": 139.69522659999998,
    "place_id": "ChIJO89SOcyMGGAR4-c9m546RiQ"
  },
  "place:NoEscape池袋店 〒170-0012 東京都豊島区上池袋2丁目8-6 NoEscapeビル": {
    "lat": 35.7352091,
    "lng": 139.71562749999998,
    "place_id": "ChIJc3u9RqiNGGARLb_THSyAN38"
  },
  "place:Noir 渋谷区恵比寿南3-1-25Ice Cube 5F": {
    "lat": 35.6460884,
    "lng": 139.7063143,
    "place_id": "ChIJ81oC1UaLGGARG0gLO-uDBvs"
  },
  "place:NéMo 〒107-0062 東京都港区南青山6-15-4 B1": {
    "lat": 35.659448499999996,
    "lng": 139.7141548,
    "place_id": "ChIJYZOf1P2LGGARI2qUrl8L2Ac"
  },
  "place:Nœud. TOKYO 〒102-0093 東京都千代田区平河町2-5-7 ヒルクレスト平河町B1F": {
    "lat": 35.6797293,
    "lng": 139.7387309,
    "place_id": "ChIJt5zGCmWNGGARxzZXLKI63i8"
  },
  "place:O'denbarうまみ代官山店 渋谷区代官山町13-8キャッスルマンション代官山104": {
    "lat": 35.6503144,
    "lng": 139.7046763,
    "place_id": "ChIJj59YUg-LGGARwIgcL33UqX8"
  },
  "place:OBENKEI 京都祇園店 祇園・東山 京都": {
    "lat": 35.005655,
    "lng": 135.7740566,
    "place_id": "ChIJJ_hinKAJAWARQY2NF1nZ7bU"
  },
  "place:OBUCAFE 嵐山 京都": {
    "lat": 35.015249499999996,
    "lng": 135.6775011,
    "place_id": "ChIJL6ftzf-pAWAR9OR2wUFqILQ"
  },
  "place:OHARA ET CIE 〒106-0031 東京都港区西麻布1-11-15 西麻布Y-FLAT B1F": {
    "lat": 35.6607582,
    "lng": 139.7243344,
    "place_id": "ChIJQ3UsiHqLGGARgrwp9OVKFlc"
  },
  "place:OKEI TAPROOM オケタプ 渋谷区代々木一丁目52-4ベルテ南新宿B1階": {
    "lat": 35.6834655,
    "lng": 139.6994542,
    "place_id": "ChIJy99POwCNGGARvCXWU_jsMaU"
  },
  "place:OLIM 〒150-0042 東京都渋谷区宇田川町33-10 J+RビルサイドJ 3FB室": {
    "lat": 35.6610002,
    "lng": 139.69670589999998,
    "place_id": "ChIJ02Yue6mMGGAR-U6sx4DTMX4"
  },
  "place:ONZE 渋谷区笹塚3-19-2": {
    "lat": 35.67731,
    "lng": 139.66697299999998,
    "place_id": "ChIJtVJ1PxnzGGARLXqAMODIeH4"
  },
  "place:ONZS 渋谷区猿楽町2-14プラスリノ猿楽町3F": {
    "lat": 35.653448999999995,
    "lng": 139.7048697,
    "place_id": "ChIJtz68fhqLGGARkfUXnmZxhg4"
  },
  "place:OOTONG RUM HALL 渋谷区幡ヶ谷2-47-11田口ビル1階": {
    "lat": 35.679221399999996,
    "lng": 139.6771499,
    "place_id": "ChIJAdDczKjzGGAR_L6O3eg9ntg"
  },
  "place:ORANGUTAN 〒164-0001 東京都中野区中野5-53-4": {
    "lat": 35.7091707,
    "lng": 139.66652399999998,
    "place_id": "ChIJW415PwDzGGARECr7Y3F1TpQ"
  },
  "place:OTOTOJET 京都市中心部 京都": {
    "lat": 35.043541,
    "lng": 135.7508952,
    "place_id": "ChIJ22h1PF0HAWARbIQog7gGl8Q"
  },
  "place:OURDAYS 渋谷区笹塚3-40-1": {
    "lat": 35.678869899999995,
    "lng": 139.6683333,
    "place_id": "ChIJG772VOTzGGARE3mnva07IUE"
  },
  "place:Ocho Taqueria Mexican オーチョ タケリア メキシカン 渋谷区神宮前2丁目3-30 B1F第2竹上ビル": {
    "lat": 35.6744445,
    "lng": 139.7134171,
    "place_id": "ChIJ6eaeAxONGGARgptO3QDkcUw"
  },
  "place:On The Wine 渋谷区桜丘町30-9桜丘芳和ビルB1": {
    "lat": 35.6551682,
    "lng": 139.69814399999998,
    "place_id": "ChIJQRxmrN6LGGARA0sDQuWM5SM"
  },
  "place:One Trick Pony 渋谷区道玄坂1-11-1第二大番ビル502": {
    "lat": 35.6577505,
    "lng": 139.69867589999998,
    "place_id": "ChIJ7fFZQPCLGGARlJW8CLu2LaQ"
  },
  "place:Orchestra 〒151-0053 東京都渋谷区代々木4丁目1-7 森田ビル 1F": {
    "lat": 35.6792752,
    "lng": 139.69362999999998,
    "place_id": "ChIJYzjJRviNGGARED_2EvyYdRM"
  },
  "place:Osteria NORA（ホテルマイステイズ御茶ノ水コンファレンスセンター内） 〒101-0063 東京都千代田区神田淡路町2-10-6 ホテルマイステイズ御茶ノ水コンファレンスセンター1F": {
    "lat": 35.697344099999995,
    "lng": 139.7683729,
    "place_id": "ChIJjdmff6KNGGARf1NV0O_Nmug"
  },
  "place:Osteria Ricco 渋谷区幡ヶ谷1-33-6ビューハイム幡ヶ谷102": {
    "lat": 35.6764145,
    "lng": 139.6765442,
    "place_id": "ChIJ00mvQjvzGGARjr9Xa79r4dY"
  },
  "place:Ostü 〒151-0053 東京都渋谷区代々木5-67-6 代々木松浦ビル1F": {
    "lat": 35.6704619,
    "lng": 139.6905591,
    "place_id": "ChIJ-W5jSEvzGGARzIjNAowKt90"
  },
  "place:PDX TAPROOM 渋谷区神宮前5-30-2第一タカラビル202": {
    "lat": 35.664169,
    "lng": 139.703528,
    "place_id": "ChIJEb8zXKaMGGARd7wrrtISQGo"
  },
  "place:PIZZA SLICE 渋谷区猿楽町1-3 1F": {
    "lat": 35.6535158,
    "lng": 139.7051046,
    "place_id": "ChIJQ9wNFVuLGGARwWj00x_zdGc"
  },
  "place:POPOPEKU 渋谷区本町2-43-4ヴァーチェストーンハウス1A": {
    "lat": 35.684608499999996,
    "lng": 139.6840186,
    "place_id": "ChIJN-2MNLXzGGARb7BLKpE9sus"
  },
  "place:PORT TOMIGAYA 渋谷区富ヶ谷2-20-1Luisd.T.Bldg. 1F": {
    "lat": 35.6625672,
    "lng": 139.6873287,
    "place_id": "ChIJwXZepXrzGGARpQKv7LbPxXk"
  },
  "place:POTSUNTO 渋谷区広尾1-15-5": {
    "lat": 35.6484671,
    "lng": 139.7121529,
    "place_id": "ChIJewb6LwCLGGARkLq9_89nQXs"
  },
  "place:PUBLIC HOUSE EPILOGUE 渋谷区恵比寿南恵比寿1-6-3ゼネラルビル恵比寿イーストB1": {
    "lat": 35.647863699999995,
    "lng": 139.7111894,
    "place_id": "ChIJ9bIu00GLGGARG_vgPZpOpR4"
  },
  "place:PUERTAsakuragaoka 渋谷区桜丘17-12ジョンソンビル2F-R": {
    "lat": 35.6560878,
    "lng": 139.7028545,
    "place_id": "ChIJGyRcEwCLGGARqsP0XkZ5n7s"
  },
  "place:PUPU MARUCO 渋谷区富ヶ谷1-2-15代々木八幡ビル": {
    "lat": 35.6693249,
    "lng": 139.6886748,
    "place_id": "ChIJ0cIIVoHzGGARHtgBQwnOQEU"
  },
  "place:PURPLE COFFEE 渋谷区神宮前1-20-4AXIA原宿1F 103A区画": {
    "lat": 35.6714291,
    "lng": 139.7048065,
    "place_id": "ChIJDazj9kKNGGARRbPt1oO9EpI"
  },
  "place:PerrosPerras 渋谷区元代々木町9番6号1階": {
    "lat": 35.669950199999995,
    "lng": 139.68579839999998,
    "place_id": "ChIJMR9lNyPzGGARPD_MVrfl_mg"
  },
  "place:Peter（ザ・ペニンシュラ東京内） 〒100-0006 東京都千代田区有楽町1-8-1 ザ・ペニンシュラ東京24F": {
    "lat": 35.674554199999996,
    "lng": 139.7607306,
    "place_id": "ChIJ55FqKPCLGGARoZjC7ygFsoE"
  },
  "place:Petit à petit l'oiseau fait son nid 渋谷区西原3-17-4星と月と空とビル302": {
    "lat": 35.67010320000001,
    "lng": 139.68079079999998,
    "place_id": "ChIJbf9lHibzGGARUkC17XPrISk"
  },
  "place:PiNCHO! 渋谷区桜丘町1-4渋谷サクラステージ　SHIBUYAサイド　1階": {
    "lat": 35.6568664,
    "lng": 139.70187049999998,
    "place_id": "ChIJSeBSOwCLGGARWM-8X2_hBPk"
  },
  "place:Pieni Joki Coffee 渋谷区笹塚3-14-1荻野荘1F": {
    "lat": 35.677310999999996,
    "lng": 139.667205,
    "place_id": "ChIJ76Z6PhnzGGARWybbW1W_hpI"
  },
  "place:Pigeon 渋谷区上原3-1-3タカダビル1F": {
    "lat": 35.6677902,
    "lng": 139.6816389,
    "place_id": "ChIJeQqldj2NGGAR9ASSfpwPy0Y"
  },
  "place:Pintology 渋谷区笹塚1-33-10香樹ハイツ101": {
    "lat": 35.672486600000006,
    "lng": 139.6659961,
    "place_id": "ChIJazH_iKTzGGARpfd5ZzKaH34"
  },
  "place:Poker Room P3 渋谷区恵比寿西1-33-25コリーヌ代官山2階": {
    "lat": 35.6467688,
    "lng": 139.70316359999998,
    "place_id": "ChIJn476-SSLGGARfb53iVAKyvA"
  },
  "place:Principio（プリンチピオ） 〒106-0045 東京都港区麻布十番2丁目4-8 麻布十番館 2階": {
    "lat": 35.6557455,
    "lng": 139.7348429,
    "place_id": "ChIJLWwrcZ-LGGARhK4iBOp8WWQ"
  },
  "place:Préférence 〒164-0012 東京都中野区本町4-6-20 K's新中野 1F": {
    "lat": 35.697386699999996,
    "lng": 139.67315259999998,
    "place_id": "ChIJsSQYa6zzGGARH3YuFey6AqA"
  },
  "place:Prévenance 〒107-0062 東京都港区南青山2-13-7 マトリス1F": {
    "lat": 35.6706258,
    "lng": 139.7204074,
    "place_id": "ChIJ46BM6JyMGGARJxU412-iNik"
  },
  "place:QUEEN MAJESTEA 渋谷区幡ヶ谷3-16-7Repia-M102": {
    "lat": 35.6801131,
    "lng": 139.6735282,
    "place_id": "ChIJibb89nbzGGAR7nPYcEVhpaw"
  },
  "place:Queen's Collection Chocolate Cafe 渋谷区猿楽町25-3": {
    "lat": 35.648724,
    "lng": 139.7015008,
    "place_id": "ChIJx3HggUWLGGAR3b4HPMc2hyU"
  },
  "place:R.O.STAR（ ロースター） 本店 〒135-0061 東京都江東区豊洲3丁目2-20 豊洲フロント1F": {
    "lat": 35.656422899999995,
    "lng": 139.7953877,
    "place_id": "ChIJvbeLhqGJGGAR1hQFynE4KFs"
  },
  "place:RACCOS　BAR 渋谷区幡ヶ谷1丁目7佐藤ビル1階": {
    "lat": 35.6776941,
    "lng": 139.6791079,
    "place_id": "ChIJ4xZpwzrzGGAROuOOhx_UgY0"
  },
  "place:RACINES (麻布台ヒルズ) 〒106​-0041 東京都港区麻布台1-3-1 麻布台ヒルズ タワープラザ 3F": {
    "lat": 35.6611522,
    "lng": 139.74027909999998,
    "place_id": "ChIJacczWrOLGGAR94x0Y8U-xE4"
  },
  "place:RACINES AOYAMA 〒107​-0061 東京都港区北青山3-4-3 ののあおやま 1F": {
    "lat": 35.667736,
    "lng": 139.7130751,
    "place_id": "ChIJJbufz6yNGGAR_kygJ4pnLRQ"
  },
  "place:RACINES ORGANIC 〒171​-0031 東京都豊島区目白2-39-1 トラッド目白 2F": {
    "lat": 35.721668199999996,
    "lng": 139.70728219999998,
    "place_id": "ChIJ_7wpaAyNGGAR24ybOpUsSa0"
  },
  "place:RAJA 渋谷区代々木4-2-8ピースビル1階": {
    "lat": 35.678734399999996,
    "lng": 139.6932812,
    "place_id": "ChIJAQAAAM2MGGARzTGgCRUC1p4"
  },
  "place:REI 渋谷区元代々木町10-8関ビル1階": {
    "lat": 35.670140499999995,
    "lng": 139.68449719999998,
    "place_id": "ChIJuYMf-2_zGGARwqRg25zjQpo"
  },
  "place:REST 渋谷区代々木3-6-7": {
    "lat": 35.6831636,
    "lng": 139.6952109,
    "place_id": "ChIJ3UAwwdSNGGAR1LRoIqHRVkw"
  },
  "place:RESTAURANT L’ESPRIT DE CHEVALIER 〒164-0003 東京都中野区東中野1-57-7 鈴木ビルB1F": {
    "lat": 35.7058165,
    "lng": 139.6841781,
    "place_id": "ChIJef0MCMnyGGARghDXfHtZcKY"
  },
  "place:RESTAURANT かみくら 〒162-0825 東京都新宿区神楽坂3-1": {
    "lat": 35.701960299999996,
    "lng": 139.7409123,
    "place_id": "ChIJjdT5wlqMGGAR-X1whq1quWM"
  },
  "place:RIMSHOT ETHEREAL 渋谷区笹塚2-41-17滝沢ビルB1": {
    "lat": 35.676196399999995,
    "lng": 139.667776,
    "place_id": "ChIJowfE7lnzGGARDRrD9PGh5RU"
  },
  "place:RISTORANTE CHAILLY 〒101-0047 東京都千代田区内神田2丁目10-2 Uビル 1F": {
    "lat": 35.6906676,
    "lng": 139.76764559999998,
    "place_id": "ChIJy65GrQaMGGARMBALI0bVdmU"
  },
  "place:RISTORANTE YAGI 〒153-0035 東京都渋谷区鉢山町15-2 プラザ1000代官山B1": {
    "lat": 35.651455399999996,
    "lng": 139.6957927,
    "place_id": "ChIJX4uG2lOLGGARSHhulqcxQiI"
  },
  "place:ROSTRO 渋谷区富ヶ谷1-14-20サウスピア1階": {
    "lat": 35.667043199999995,
    "lng": 139.6917939,
    "place_id": "ChIJAQD8z7KMGGAR6rUl3gbCh_I"
  },
  "place:RUSTEAKS 〒150-0012 東京都渋谷区広尾5-22-3 広尾西川ビル B1F": {
    "lat": 35.6486762,
    "lng": 139.71796129999998,
    "place_id": "ChIJf1sMtmyLGGARR9PL4QSN9s8"
  },
  "place:Rainbow Art Salon Tokyo 〒150-0013 東京都渋谷区恵比寿4-5-13 カーサ恵比寿壱番館201号": {
    "lat": 35.644964699999996,
    "lng": 139.71248319999998,
    "place_id": "ChIJlSD7ZACLGGARICA954qVgIY"
  },
  "place:Raindrop 〒171​-0022 東京都豊島区南池袋2-10-1 2F": {
    "lat": 35.7253325,
    "lng": 139.7141648,
    "place_id": "ChIJGcNFc2WNGGARrWUI26O68A4"
  },
  "place:Rayons de soleil 〒105-0001 東京都港区虎ノ門1-11-13": {
    "lat": 35.668706799999995,
    "lng": 139.75004579999998,
    "place_id": "ChIJhwBov7SLGGARXhH8lw-bqAw"
  },
  "place:Re:boot 渋谷区本町2-39-2サワハウス1F": {
    "lat": 35.683969000000005,
    "lng": 139.6831245,
    "place_id": "ChIJQ-DychXzGGARHvZdrQeTJtA"
  },
  "place:Restaurant DA CIRO 祇園・東山 京都": {
    "lat": 35.0040681,
    "lng": 135.77485199999998,
    "place_id": "ChIJC4NukjgJAWARLBNmT00DjX8"
  },
  "place:Restaurant Koke 京都市中心部 京都": {
    "lat": 35.0125637,
    "lng": 135.75822639999998,
    "place_id": "ChIJaaNHaXMJAWARrWc6YuCKh7Y"
  },
  "place:Restaurant La Chambre 渋谷区西原3-7-5渡部ビル2F": {
    "lat": 35.669891799999995,
    "lng": 139.6808598,
    "place_id": "ChIJtyAS_kfzGGARE6I-lBjgamQ"
  },
  "place:Restaurant MOTOI 京都市中心部 京都": {
    "lat": 35.0127239,
    "lng": 135.7648125,
    "place_id": "ChIJ3Xhn6Y4IAWAR_sP7HsRz7ws"
  },
  "place:Restaurant Ryuzu レストラン リューズ 〒106-0032 東京都港区六本木4-2-35 VORT六本木DUAL'S B1F": {
    "lat": 35.6647551,
    "lng": 139.7334715,
    "place_id": "ChIJGcAHwYKLGGARdXaJAZ9g4S4"
  },
  "place:Restaurant TOYO 〒100-0006 東京都千代田区有楽町1-1-2ミッドタウン日比谷 3F31300": {
    "lat": 35.6739622,
    "lng": 139.7596299,
    "place_id": "ChIJq_OOJO6LGGARM4tNfUzmBC4"
  },
  "place:Restaurant＆Bar TIDE TABLE Shiomi （東京ベイ潮見プリンスホテル内） 〒135-0052 東京都江東区潮見2-8-16 東京ベイ潮見プリンスホテル1F": {
    "lat": 35.659900500000006,
    "lng": 139.8167478,
    "place_id": "ChIJS3P1jCWJGGARV32embXKySY"
  },
  "place:Risosteria Trentatre 〒135-0033 東京都江東区深川2-19-1": {
    "lat": 35.6771297,
    "lng": 139.7972959,
    "place_id": "ChIJvwOyvuOJGGARTzvhDgu03uo"
  },
  "place:Rossi 〒102-0085 東京都千代田区六番町1-2 B1F": {
    "lat": 35.687756,
    "lng": 139.735659,
    "place_id": "ChIJ7xURYWGMGGARlvFiPcSnXpE"
  },
  "place:Ryuda 渋谷区千駄ヶ谷4-29-12北参道ダイヤモンドパレス111": {
    "lat": 35.681039399999996,
    "lng": 139.7038643,
    "place_id": "ChIJSbuGFwKNGGARJjeRBJl7uS8"
  },
  "place:Ryukyu Chinese Dining TAMA 渋谷区渋谷2-3-2藤本ビル　2F": {
    "lat": 35.659822999999996,
    "lng": 139.70878779999998,
    "place_id": "ChIJez-B9l6LGGARI1lGInrBLEI"
  },
  "place:S spiral 〒150-0044 東京都渋谷区円山町2-14メゾン美幸1階": {
    "lat": 35.658047599999996,
    "lng": 139.6949725,
    "place_id": "ChIJvR2nM_uNGGAR-mhZhdxfjfA"
  },
  "place:SAKUU 渋谷区千駄ヶ谷3-55-18REALGATE Bldg. 1F": {
    "lat": 35.675356,
    "lng": 139.7058705,
    "place_id": "ChIJhUihdjiNGGAR908KHWVBnSI"
  },
  "place:SALA ridente 渋谷区恵比寿西2-17-22アプリュスII 一階": {
    "lat": 35.6490454,
    "lng": 139.70626529999998,
    "place_id": "ChIJLbV3CUSLGGAR8f5MqyW0xXw"
  },
  "place:SALONE TOKYO （サローネ トウキョウ） 〒100-0006 東京都千代田区有楽町1-1-2 東京ミッドタウン日比谷 3F 316": {
    "lat": 35.6739622,
    "lng": 139.7596299,
    "place_id": "ChIJq_OOJO6LGGAR0fbaEf8NyU4"
  },
  "place:SAM 渋谷区代々木4-45-5パークテラス参宮橋101": {
    "lat": 35.6793842,
    "lng": 139.69063889999998,
    "place_id": "ChIJ-7m1KTXzGGARguKxMxod8e8"
  },
  "place:SASASA dining 渋谷区笹塚3-19-5大泉商店ビル102": {
    "lat": 35.6770213,
    "lng": 139.66736659999998,
    "place_id": "ChIJe7bFFhnzGGARamh3e3SnSfY"
  },
  "place:SCARLET 渋谷区上原2-42-17": {
    "lat": 35.6670746,
    "lng": 139.68116179999998,
    "place_id": "ChIJcWFMTWTzGGAR5bwrFs7XnTo"
  },
  "place:SCOO 渋谷区神宮前2-18-7フードビル103": {
    "lat": 35.6723889,
    "lng": 139.7096564,
    "place_id": "ChIJoRNTwVSNGGAR9-NI3k_luwU"
  },
  "place:SEN 渋谷区神泉町8番地13号アーガス霜田ビル101号室": {
    "lat": 35.6557368,
    "lng": 139.6934782,
    "place_id": "ChIJd6PZEbaLGGARDGUOMLH2TM0"
  },
  "place:SENNE 渋谷区幡ヶ谷2-47-1ダイショービル1F及びB1F": {
    "lat": 35.6791589,
    "lng": 139.6772396,
    "place_id": "ChIJ3SwazWzzGGAR-oSv2YiWpSA"
  },
  "place:SERENDIPITY FARMERS  SOFTCREAM 渋谷区代々木5-55-5": {
    "lat": 35.6779882,
    "lng": 139.6916745,
    "place_id": "ChIJK02zDxyNGGARWS0a_8lfiow"
  },
  "place:SF-BAR 神田FLUX 〒101-0047 東京都千代田区内神田3-16-10-B1": {
    "lat": 35.6919456,
    "lng": 139.76949439999999,
    "place_id": "ChIJwY32YgGMGGARgAwIEtPAeko"
  },
  "place:SHARK COFFEE 渋谷区宇田川町2-1渋谷ホームズ1F": {
    "lat": 35.663663,
    "lng": 139.6987557,
    "place_id": "ChIJob9XVR2NGGARMH-_uhd9apc"
  },
  "place:SHIBUYA BALL 渋谷区宇田川町4番9号くれたけビル 4階": {
    "lat": 35.6624804,
    "lng": 139.6977086,
    "place_id": "ChIJFci2OamMGGAREDy3h6WKd0g"
  },
  "place:SHIBUYA BREWERY 〒150-0031 東京都渋谷区桜丘町1-4 Shibuya Sakura Stage 4F": {
    "lat": 35.6560878,
    "lng": 139.7028545,
    "place_id": "ChIJGyRcEwCLGGARqsP0XkZ5n7s"
  },
  "place:SHIGE tei 〒162-0825 東京都新宿区神楽坂4丁目2-27": {
    "lat": 35.7019981,
    "lng": 139.73959299999999,
    "place_id": "ChIJW7FqxoONGGARQk1z-r_6Czk"
  },
  "place:SHUTTERS表参道 渋谷区神宮前6-28-6キュープラザ原宿3F": {
    "lat": 35.6669378,
    "lng": 139.70408659999998,
    "place_id": "ChIJA5VbSqSMGGARaHgYVx1yC8s"
  },
  "place:SHUWASHUWA PEACE 渋谷区幡ヶ谷3-16-3幡ヶ谷ハウス102": {
    "lat": 35.6797599,
    "lng": 139.6734495,
    "place_id": "ChIJTa2GFwjzGGAR0T0vcoSrc00"
  },
  "place:SICO 〒130-0021 東京都墨田区緑1丁目19-9": {
    "lat": 35.694943599999995,
    "lng": 139.7985619,
    "place_id": "ChIJXV-jKFCJGGARKhfaXaU4Tsc"
  },
  "place:SOLEIL 日比谷OKUROJI 〒100-0011 東京都千代田区内幸町1-7-1 日比谷OKUROJI H8": {
    "lat": 35.6707727,
    "lng": 139.7593838,
    "place_id": "ChIJe85CX16LGGARXwZQ9qTmfmk"
  },
  "place:SOTARTE 代々木上原 渋谷区上原1-18-7第五大貴ビル1階": {
    "lat": 35.6685489,
    "lng": 139.6827226,
    "place_id": "ChIJiZmEpwTzGGARYo5EWAVBnoY"
  },
  "place:SOWAT 渋谷区千駄ヶ谷3-36-2アトラス原宿1階": {
    "lat": 35.6923402,
    "lng": 139.70919580000003,
    "place_id": "ChIJaS6eXv2NGGAR_SiHycLFvos"
  },
  "place:SPACE&CAFE BANKSIA 渋谷区神宮前3-20-3石井ビル1F": {
    "lat": 35.6704126,
    "lng": 139.7084066,
    "place_id": "ChIJvTShGqOMGGARfRuig0WOrFs"
  },
  "place:SPLASH 渋谷区笹塚3-19-6萩原ビル2F": {
    "lat": 35.6769217,
    "lng": 139.66741919999998,
    "place_id": "ChIJMe_mEBnzGGARGxFbjYwgtOY"
  },
  "place:SRY+ IZAKAYA French Italian Creation とうきょうスカイツリー駅前店 〒131-0045 東京都墨田区押上2-1-1 107": {
    "lat": 35.7109035,
    "lng": 139.8090057,
    "place_id": "ChIJN8LZWZSPGGARqvxhx6DeY8Q"
  },
  "place:STAND BY Mi （スタンドバイミー） 〒105-0004 東京都港区新橋2丁目9-13": {
    "lat": 35.6667427,
    "lng": 139.7563874,
    "place_id": "ChIJ1X8fEsmLGGARr1xQ-D_VjMA"
  },
  "place:STUNNER 渋谷区神宮前3-42-2VORT外苑前3 B1": {
    "lat": 35.670541899999996,
    "lng": 139.7139958,
    "place_id": "ChIJNe2WMgCNGGAR2Hwn0qA7XQU"
  },
  "place:SUNNY LOT 渋谷区神宮前1-1-8-102": {
    "lat": 35.673870199999996,
    "lng": 139.7067126,
    "place_id": "ChIJ235dKoyNGGARxcsD_r7fd5E"
  },
  "place:SUPPLY 渋谷区幡ヶ谷1-5-6金井ビル　1階": {
    "lat": 35.6764498,
    "lng": 139.6749369,
    "place_id": "ChIJucqVLGvzGGAR2TOFK2JSt_Y"
  },
  "place:Salt恵比寿 渋谷区恵比寿南1-3-2エルスタンザ恵比寿B1F": {
    "lat": 35.645669000000005,
    "lng": 139.708188,
    "place_id": "ChIJuy_57ECLGGARi8l9OsgQP5s"
  },
  "place:San. 渋谷区上原1-2-1": {
    "lat": 35.668104899999996,
    "lng": 139.6872589,
    "place_id": "ChIJ8cPCtSDzGGARP34-R2COxA4"
  },
  "place:SandoSando 渋谷区代々木4-50-8参宮橋ゲストハウス1階": {
    "lat": 35.678169,
    "lng": 139.691776,
    "place_id": "ChIJ_3QgRsuMGGAR60Uta0kkRfk"
  },
  "place:SeRieUX（セリュー） 〒106-0032 東京都港区六本木7-4-4": {
    "lat": 35.665588199999995,
    "lng": 139.72878359999999,
    "place_id": "ChIJXYjU76mLGGARsSmSze9eFg0"
  },
  "place:Series 〒106-0041 東京都港区麻布台3丁目4-11 麻布エスビル1F": {
    "lat": 35.6605992,
    "lng": 139.73899459999998,
    "place_id": "ChIJcRghh6aLGGARO-6JpGPVY-Y"
  },
  "place:Sevres Cafe 渋谷区神宮前4丁目-11-2高野ビルB1F": {
    "lat": 35.666786099999996,
    "lng": 139.7101521,
    "place_id": "ChIJVWXnSQCNGGARtY5a2oRs8AQ"
  },
  "place:She お肉とお野菜 〒100​-0006 東京都千代田区有楽町1-2-2 日比谷シャンテ B2F": {
    "lat": 35.6734758,
    "lng": 139.7600148,
    "place_id": "ChIJEQ2YNO6LGGAR4i2Db3Zk18E"
  },
  "place:Shi-Fan 〒106-0045 東京都港区麻布十番1-9-2 ユニマット麻布十番ビル5階": {
    "lat": 35.656445999999995,
    "lng": 139.735405,
    "place_id": "ChIJAQDMbJ-LGGARCzk-s4mldLg"
  },
  "place:Shibuya　Fromage　倶楽部　 渋谷区道玄坂2-10-1": {
    "lat": 35.6577542,
    "lng": 139.6965223,
    "place_id": "ChIJofuZBlaLGGARtgVnKRqDZQQ"
  },
  "place:Shisha bar Lilac 渋谷区円山町5-14スタービル3階": {
    "lat": 35.657106000000006,
    "lng": 139.69488339999998,
    "place_id": "ChIJI3wfskqLGGARp21wCdCFpJg"
  },
  "place:Shrimp Garden（シュリンプガーデン） 〒100-0011 東京都千代田区内幸町2-1-1飯野ﾋﾞﾙﾃﾞｨﾝｸﾞ1F": {
    "lat": 35.6708825,
    "lng": 139.75275689999998,
    "place_id": "ChIJbaPtUe2LGGAR3cQKlYfYKuo"
  },
  "place:Sky Gallery Lounge Levita / The Bar illumiid（ザ・プリンスギャラリー 東京紀尾井町内） 〒102-8585 東京都千代田区紀尾井町1-2 ザ・プリンスギャラリー東京紀尾井町,ラグジュアリーコレクションホテル35F": {
    "lat": 35.6794453,
    "lng": 139.737261,
    "place_id": "ChIJzWznB3yMGGARnKMob1oUQ8g"
  },
  "place:Smokers 渋谷区円山町10番11号THE　CITY　SHIBUYA5F": {
    "lat": 35.6588853,
    "lng": 139.69447209999998,
    "place_id": "ChIJa63bxYSNGGAR5J8_fmhFHtg"
  },
  "place:Spice and Vegetable 夢民 〒105-0003 東京都港区西新橋2-13-3 西新橋2丁目ビル 1F": {
    "lat": 35.6670245,
    "lng": 139.751836,
    "place_id": "ChIJs5y_n6GLGGARgZ6nEqTHFek"
  },
  "place:Spice　Chill 渋谷区恵比寿1-20-1コンフォート恵比寿3F": {
    "lat": 35.6460873,
    "lng": 139.7091477,
    "place_id": "ChIJq3hLRf-LGGARgvm5sWhSfFE"
  },
  "place:Spicy Flower 渋谷区本町2-46-1第三市田ビル": {
    "lat": 35.684629699999995,
    "lng": 139.6852748,
    "place_id": "ChIJU01hiNzzGGAR7E2eMDNWs0Y"
  },
  "place:Spirare Ebisu 渋谷区東3-24-7EBIS EAST GALLERY": {
    "lat": 35.648983199999996,
    "lng": 139.7095267,
    "place_id": "ChIJV3RN-mmLGGARaIXmAn7Mjew"
  },
  "place:Sputnik 渋谷区恵比寿西2-18-6代官山ウイング101": {
    "lat": 35.6495971,
    "lng": 139.7052249,
    "place_id": "ChIJC5TbTkqLGGARjYucEKoTfOw"
  },
  "place:Stars☆Tokyo 渋谷区広尾1-15-6ヒーロービル一階": {
    "lat": 35.6484496,
    "lng": 139.7124148,
    "place_id": "ChIJP-j0XtiLGGARiTLxw5cNyUc"
  },
  "place:Sudachi 〒107-0062 東京都港区南青山7-12-12-B1": {
    "lat": 35.6578271,
    "lng": 139.7183953,
    "place_id": "ChIJq3-_iWWLGGARAh1xm66RrjQ"
  },
  "place:T's tea 渋谷区西原2-28-4宮嶋ビル102": {
    "lat": 35.6753079,
    "lng": 139.6782603,
    "place_id": "ChIJZVU-8p3zGGARcD88CL0jghU"
  },
  "place:T4KITCHEN 渋谷区神南1-12-16ASIABUILDING 1F": {
    "lat": 35.662679,
    "lng": 139.7005906,
    "place_id": "ChIJWQ5gkKiMGGAR4aCFNceg_A0"
  },
  "place:TAKASEGAWA 京都市中心部 京都": {
    "lat": 35.00146,
    "lng": 135.7694127,
    "place_id": "ChIJ14qZKfYJAWARyy-a8MwLh18"
  },
  "place:TAKESUE 渋谷区幡ヶ谷2-9-12コートリーブル105": {
    "lat": 35.6789957,
    "lng": 139.6772795,
    "place_id": "ChIJGbiT_UXzGGARN9KKG1oPgKE"
  },
  "place:TANA diner 渋谷区元代々木町 9-6TANA diner": {
    "lat": 35.669910300000005,
    "lng": 139.6858469,
    "place_id": "ChIJETjHgUnzGGARALWI-QwSFyk"
  },
  "place:TANTO TANTO OSTERIA　アトレ恵比寿 渋谷区恵比寿南1-5-5アトレ恵比寿店6F": {
    "lat": 35.6470553,
    "lng": 139.70958560000003,
    "place_id": "ChIJSdVkP0CLGGARQufLFk8bI2c"
  },
  "place:TAS YARD 渋谷区千駄ヶ谷3-3-14メゾンブランシュ101": {
    "lat": 35.6755886,
    "lng": 139.70573299999998,
    "place_id": "ChIJuW1uWLmMGGAR9vxc5gsmk5A"
  },
  "place:THAI THAN 渋谷区恵比寿1-22-10GranDuo恵比寿3 1階": {
    "lat": 35.647198599999996,
    "lng": 139.7073823,
    "place_id": "ChIJhZFRiO-LGGAR7ehPbiwQvcQ"
  },
  "place:THAうちあげ 渋谷区笹塚2-7-9ライブイン笹塚1階": {
    "lat": 35.6751758,
    "lng": 139.669104,
    "place_id": "ChIJewI61N3zGGARUq4K7AdgRf4"
  },
  "place:THE ALDGATE British Pub 渋谷区宇田川町30-4新岩崎ビル3F": {
    "lat": 35.6607614,
    "lng": 139.6979594,
    "place_id": "ChIJ9XzDpqmMGGARhPWN1LP_S8A"
  },
  "place:THE BLUE POSTS 渋谷区恵比寿1-8-14大黒ビル1階 28": {
    "lat": 35.647701399999995,
    "lng": 139.7099313,
    "place_id": "ChIJmcw7E9uLGGARCK4FyUbqpyU"
  },
  "place:THE COFFEESHOP ROAST WORKS 渋谷区富ヶ谷2-22-12Vitre Yoyogi Park 1F": {
    "lat": 35.6840123,
    "lng": 139.6949486,
    "place_id": "ChIJTWusCl-NGGARiiUnot6mN88"
  },
  "place:THE GRUB 代々木上原 渋谷区上原1-32-15第二小林ビル2階": {
    "lat": 35.668791399999996,
    "lng": 139.67992619999998,
    "place_id": "ChIJQZqW60fzGGARGLgGI3Rlw4Y"
  },
  "place:THE LINKING アメリカンダイナー 渋谷区神南1-14-9 第7FMGビル　1F": {
    "lat": 35.6638452,
    "lng": 139.7000589,
    "place_id": "ChIJtW3NR-2NGGARS4hCOy4PllE"
  },
  "place:THE NOTE BAR 表参道店 〒150-0001 東京都渋谷区神宮前3-4-7 エルム青山1階": {
    "lat": 35.6687388,
    "lng": 139.7124728,
    "place_id": "ChIJSY1HcpyNGGARYJxPwmyAux8"
  },
  "place:THE OAK LEAF 渋谷区東2-17-12十一ビル　1階": {
    "lat": 35.6527151,
    "lng": 139.7091394,
    "place_id": "ChIJXcT54EKLGGARNcjxhgZgW18"
  },
  "place:THE TEST KITCHEN 渋谷区恵比寿4丁目20-4恵比寿ガーデンプレイス グラススクエア B1F POTAL POINT Ebisu E": {
    "lat": 35.6426363,
    "lng": 139.71290059999998,
    "place_id": "ChIJRyUuS5WLGGARVWkWVFycIMo"
  },
  "place:THE THEATRE TABLE 渋谷区渋谷2-21-1渋谷ヒカリエ 11F": {
    "lat": 35.659055099999996,
    "lng": 139.7035292,
    "place_id": "ChIJ43YiUFiLGGARlsXC9pTlrlA"
  },
  "place:TOKYO KAKI STAND 渋谷道玄坂 渋谷区道玄坂2-16-1ミノハナビル1F": {
    "lat": 35.6589724,
    "lng": 139.6969757,
    "place_id": "ChIJw6sMdTWNGGARLtNXugQ3AcU"
  },
  "place:TOKYO-CURRY-BUCCI 〒102-0072 東京都千代田区飯田橋1-10-1 六川ビル101": {
    "lat": 35.699519699999996,
    "lng": 139.7479054,
    "place_id": "ChIJv7kHCJGNGGARYhZEBCYJTFQ"
  },
  "place:TOKYO隅田川ブルーイング BEER&GRILL 〒130-0001 東京都墨田区吾妻橋1-23-36 アサヒビールアネックス2F": {
    "lat": 35.7094829,
    "lng": 139.8005408,
    "place_id": "ChIJf0MqhcWOGGARvM-ByztZ5t4"
  },
  "place:TOMATO 渋谷区恵比寿西2-8-9代官山宝ビル3階": {
    "lat": 35.6492406,
    "lng": 139.7075888,
    "place_id": "ChIJF6-PMeqLGGAR4vuZAIO9Ps8"
  },
  "place:TOMBOY円山町店 渋谷区円山町10-13": {
    "lat": 35.6591295,
    "lng": 139.694388,
    "place_id": "ChIJWfXGT6qMGGARIdq1-1DfUEI"
  },
  "place:TORIPLETTA 渋谷区上原1-33-16オーツカビル201": {
    "lat": 35.6693479,
    "lng": 139.6810636,
    "place_id": "ChIJn-spCkjzGGAR8OjTRyN-Lzg"
  },
  "place:TOUMIN 〒106-0031 東京都港区西麻布2丁目24-14 バルビゾン73 2F": {
    "lat": 35.6601523,
    "lng": 139.72247439999998,
    "place_id": "ChIJxf0mvZ-LGGARbmsHO0tbEL8"
  },
  "place:TRAD WHISKY BOTTLE BAR DEN TORANOMON 〒105-5590 東京都港区虎ノ門2-6-1 虎ノ門ヒルズステーションタワー B2F": {
    "lat": 35.667871,
    "lng": 139.7467193,
    "place_id": "ChIJh-8B3E2LGGARoyMDJQVRjiI"
  },
  "place:TRATTORIA TREVALLI 伏見・山科 京都": {
    "lat": 34.9350926,
    "lng": 135.7610574,
    "place_id": "ChIJVVUV0Y8PAWARtHjH4X39Rwg"
  },
  "place:TREEbyNAKEDyoyogipark 渋谷区富ヶ谷1丁目10-2CITTA代々木公園1F": {
    "lat": 35.6682768,
    "lng": 139.69127699999999,
    "place_id": "ChIJw6V9M7OMGGARcNj1PoXV6o4"
  },
  "place:TUTTI 渋谷区上原2-42-17": {
    "lat": 35.6671273,
    "lng": 139.68119249999998,
    "place_id": "ChIJl4-DeqjzGGAR1eCmEaw-Nd4"
  },
  "place:TWELVE On The Park 〒150-0001 東京都渋谷区神宮前6-20-10 MIYASHITA PARK North sequence MIYASHITA PARK 5F": {
    "lat": 35.6633382,
    "lng": 139.7018487,
    "place_id": "ChIJ5Y13vL6NGGARWOvS9OltpN8"
  },
  "place:Ta-im丸の内店 〒100-0005 東京都千代田区丸の内3-2-3丸の内二重橋ビルB1F": {
    "lat": 35.6776993,
    "lng": 139.7617349,
    "place_id": "ChIJQ-WhpXOLGGARQdk3ueBDfBg"
  },
  "place:Table by S 渋谷区西原3-23-6プラド2F": {
    "lat": 35.670473900000005,
    "lng": 139.6831785,
    "place_id": "ChIJwZMrLEjzGGAR3W05GVrHeX8"
  },
  "place:Taki AKANE 渋谷区道玄坂1-11-1第2大番ビル404": {
    "lat": 35.6577505,
    "lng": 139.69867589999998,
    "place_id": "ChIJOxlo0vuLGGARB8W_cFOtMG8"
  },
  "place:Taki 渋谷区桜丘町17-12渋谷ジョンソンビル3F": {
    "lat": 35.6577505,
    "lng": 139.69867589999998,
    "place_id": "ChIJOxlo0vuLGGARB8W_cFOtMG8"
  },
  "place:Takumi 〒106-0031 東京都港区西麻布1丁目11-10 ビルマーサ1F": {
    "lat": 35.6604228,
    "lng": 139.7243101,
    "place_id": "ChIJVVVhh3qLGGARGTE1PDL6pck"
  },
  "place:Tas Yard 〒151-0051 東京都渋谷区千駄ケ谷3丁目3-14 メゾンブランシュ 101": {
    "lat": 35.6755886,
    "lng": 139.70573299999998,
    "place_id": "ChIJuW1uWLmMGGAR9vxc5gsmk5A"
  },
  "place:Tasting Bar 柴田屋酒店 本店 〒151-0071 東京都中野区中央5-3-11 1F": {
    "lat": 35.697977099999996,
    "lng": 139.6673518,
    "place_id": "ChIJY2HRuOvyGGARj_FkDphwDRw"
  },
  "place:Taverna ハル 〒100-0004 東京都千代田区大手町1-1-1 大手町パークビルディングB1": {
    "lat": 35.686769999999996,
    "lng": 139.7625965,
    "place_id": "ChIJIzMo196NGGARKZvQrljQcKo"
  },
  "place:TexturA 〒100-0006 東京都千代田区有楽町1-7-1 有楽町電気ビル 1F": {
    "lat": 35.6744106,
    "lng": 139.76124729999998,
    "place_id": "ChIJlSku3LaLGGAR_l1v0ckr97o"
  },
  "place:The Bake 渋谷区鶯谷町7-6磯田ビル1階": {
    "lat": 35.6541113,
    "lng": 139.701199,
    "place_id": "ChIJi0unn1CLGGARPunpdR9dKvc"
  },
  "place:The SG Tavern 〒100-0005 東京都千代田区丸の内1丁目4-1 丸の内永楽ビルディング101": {
    "lat": 35.684496599999996,
    "lng": 139.764489,
    "place_id": "ChIJRVM1RgSLGGARE7ClC8SVWXI"
  },
  "place:The Standard 〒150-0001 東京都渋谷区神宮前2-19-13 J2ビル3階": {
    "lat": 35.6736739,
    "lng": 139.7103698,
    "place_id": "ChIJx94wG7qNGGARCVwf1BaQw-Q"
  },
  "place:The6Market 渋谷区上原1-17-10-101横山アパート": {
    "lat": 35.669056,
    "lng": 139.6824235,
    "place_id": "ChIJdUo2Q0jzGGARIgvcbGSs5Ok"
  },
  "place:TiTi 渋谷区恵比寿2丁目8-13accessBLD恵比寿1階": {
    "lat": 35.6459174,
    "lng": 139.71722839999998,
    "place_id": "ChIJS_0c3rmLGGARhaaXG8GzlgU"
  },
  "place:Tigre Noir 〒105-0001 東京都港区虎ノ門1-7-7": {
    "lat": 35.669479599999995,
    "lng": 139.7497564,
    "place_id": "ChIJHVKSx62LGGAR1xPkApJbbxo"
  },
  "place:Tiki's Tokyo 渋谷区神南1-1-1代々木公園BE STAGE 1F": {
    "lat": 35.6662974,
    "lng": 139.7012947,
    "place_id": "ChIJw_bpeFiNGGARplUqqbNlTwM"
  },
  "place:Tinc gana 〒102-0085 東京都千代田区六番町4-3 GEMS市ヶ谷 1F": {
    "lat": 35.6891599,
    "lng": 139.7352518,
    "place_id": "ChIJF1SZpZmNGGARMpZdBnEELqI"
  },
  "place:ToriiAt 渋谷区鶯谷町1-2パル代官山ビル1F": {
    "lat": 35.6536866,
    "lng": 139.70489999999998,
    "place_id": "ChIJMe6Bd_KLGGAR0MOOO-55HKM"
  },
  "place:Trattoria L'astro 渋谷区恵比寿1-22-13メゾンド・ペルル1階": {
    "lat": 35.646436099999995,
    "lng": 139.71465519999998,
    "place_id": "ChIJ34gdBR6LGGAR1V_aWHnt9es"
  },
  "place:Trattoria La Puglia 〒100-0011 東京都千代田区内幸町1-7-1 日比谷OKUROJI H16": {
    "lat": 35.6697195,
    "lng": 139.758696,
    "place_id": "ChIJRznHnniLGGARNNoOTaHN6u0"
  },
  "place:TreVite/トレヴィーテ 〒151-0053 東京都渋谷区代々木1丁目45−3 セントオフィス代々木 1F": {
    "lat": 35.6822241,
    "lng": 139.6984645,
    "place_id": "ChIJ40ejcSCNGGAR_hD_kqRZQCg"
  },
  "place:TurnTable 〒150-0045 東京都渋谷区神泉町10-3": {
    "lat": 35.655386,
    "lng": 139.692916,
    "place_id": "ChIJ_59qBGKLGGARBFTKojmmESk"
  },
  "place:TurnTableRestaurant 渋谷区神泉町10-3": {
    "lat": 35.655386,
    "lng": 139.692916,
    "place_id": "ChIJ_59qBGKLGGARBFTKojmmESk"
  },
  "place:Twenty eight.st 渋谷区恵比寿西1丁目7‐4エビスファーストビル7F": {
    "lat": 35.6477764,
    "lng": 139.7089284,
    "place_id": "ChIJQSCGCUGLGGAR4CxP1fMlxQo"
  },
  "place:UEHARA PARLOR 渋谷区上原1-36-12内藤ビル2F": {
    "lat": 35.669215699999995,
    "lng": 139.68233,
    "place_id": "ChIJhUm8tMPzGGARvLgUMcKAHSQ"
  },
  "place:ULTIMO 渋谷区西原3-24-1アムール代々木上原 104号": {
    "lat": 35.6712191,
    "lng": 139.683315,
    "place_id": "ChIJE5ElVgDzGGARuM9_o6PjIPs"
  },
  "place:UME SAKURA 着物レンタルサロン 京都市中心部 京都": {
    "lat": 35.014967899999995,
    "lng": 135.7680471,
    "place_id": "ChIJ69J7b5IHAWAR5NjpuzwycX0"
  },
  "place:UNCHAIN DINER 〒130-0002 東京都墨田区業平2丁目5-7 1F": {
    "lat": 35.707340599999995,
    "lng": 139.811649,
    "place_id": "ChIJmdzpsNWOGGARqnl1T_5vy3w"
  },
  "place:UNE IMMERSION 〒151-0071 東京都渋谷区本町1-28-8 DAIM 1F": {
    "lat": 35.680202,
    "lng": 139.6801904,
    "place_id": "ChIJ8Qc0vJfzGGARTFmKJbb74sU"
  },
  "place:UO-SAO 渋谷区上原1丁目17-11": {
    "lat": 35.669192699999996,
    "lng": 139.6823306,
    "place_id": "ChIJu3xkhhHzGGARgwQxuIHsWp0"
  },
  "place:UPLIGHT COFFEE 渋谷区渋谷2-23-16渋谷駅東口地下広場 B2F": {
    "lat": 35.659244799999996,
    "lng": 139.7020918,
    "place_id": "ChIJ-XSO0XOLGGARNGbl37WJx4o"
  },
  "place:USHIHACHI 秋葉原店 〒101-0021 東京都千代田区外神田4-4-2 HULIC&NewAKIHABARA 4F": {
    "lat": 35.7011372,
    "lng": 139.77180239999998,
    "place_id": "ChIJb_jB8U-NGGARVExccrD80Jg"
  },
  "place:Ui食堂 渋谷区神山町9-5ホーリーランドAmi1階": {
    "lat": 35.6642735,
    "lng": 139.6947869,
    "place_id": "ChIJfU5DXgyNGGAR1XUW0tj3dlk"
  },
  "place:Unagi house 志の家 〒130-0012 東京都墨田区太平3-19-3": {
    "lat": 35.702633399999996,
    "lng": 139.8131438,
    "place_id": "ChIJe0m5A8mJGGARUHzfYUWICUM"
  },
  "place:VANNO 〒151-0071 東京都渋谷区本町2-28-4 サンエムマンションIII 101": {
    "lat": 35.683569999999996,
    "lng": 139.681636,
    "place_id": "ChIJ9UjLWi_zGGARS6RxEMIZUGA"
  },
  "place:VANNO 渋谷区本町2-28-4サンエムマンション3-101": {
    "lat": 35.683569999999996,
    "lng": 139.681636,
    "place_id": "ChIJ9UjLWi_zGGARS6RxEMIZUGA"
  },
  "place:VELROSIER 京都市中心部 京都": {
    "lat": 35.0024392,
    "lng": 135.7687511,
    "place_id": "ChIJOYeOxBfzAGARX7Y1d6EOORI"
  },
  "place:VIA DEI PEPI 〒108-0074 東京都港区高輪2-1-62 パネーラ伊皿子 1A": {
    "lat": 35.6407144,
    "lng": 139.7377481,
    "place_id": "ChIJnQ_XUlmLGGARgRZussZX60o"
  },
  "place:VINO 渋谷区渋谷1-11-3正栄ビル": {
    "lat": 35.6609316,
    "lng": 139.7046248,
    "place_id": "ChIJsxA8m1iLGGARyJJQxeEEQFc"
  },
  "place:VIVE LA VIE 渋谷区渋谷2-4-6サンゼンビルB1": {
    "lat": 35.6590893,
    "lng": 139.70838569999998,
    "place_id": "ChIJLxsQkl6LGGAREL9ddFDkvZs"
  },
  "place:VMG CAFE 九段会館テラス Kudan Kaikan Terrace 〒102-0074 東京都千代田区九段南1丁目6番5号": {
    "lat": 35.6946769,
    "lng": 139.75115169999998,
    "place_id": "ChIJAQDAQmuMGGARIyx-VvitiMc"
  },
  "place:Vaji spice 渋谷区代々木5-63-10": {
    "lat": 35.6725461,
    "lng": 139.6907708,
    "place_id": "ChIJOUIqb_vzGGARBdnn5-KiPjA"
  },
  "place:Vegeater 渋谷区東1-14-12常盤松マンション1F": {
    "lat": 35.6562452,
    "lng": 139.7074721,
    "place_id": "ChIJNadJIgCLGGARA3gpEFKCy4E"
  },
  "place:Villaggio 渋谷区幡ヶ谷2-48-1三木ビル1F": {
    "lat": 35.6796185,
    "lng": 139.67701169999998,
    "place_id": "ChIJW-1ajCTzGGARBIqKRVOPbMs"
  },
  "place:VinSanto Bar&Whisky shop 〒150-0021 東京都渋谷区恵比寿西2-1-7": {
    "lat": 35.649506099999996,
    "lng": 139.70813619999998,
    "place_id": "ChIJyY9X2kOLGGAR1Iu3AI46BzY"
  },
  "place:VinSanto 渋谷区恵比寿西2-1-7": {
    "lat": 35.649488399999996,
    "lng": 139.7081446,
    "place_id": "ChIJyY9X2kOLGGAR1Iu3AI46BzY"
  },
  "place:Virgin Swan 渋谷区恵比寿西1丁目14番6号ハギワラビル6地下1階": {
    "lat": 35.6477286,
    "lng": 139.7075731,
    "place_id": "ChIJEbJSQEGLGGARF-zc0yItjz0"
  },
  "place:W TORANOMON -the market- 〒105-5507 東京都港区虎ノ門2丁目6-1 ヒルズステーションタワー B1F": {
    "lat": 35.6673875,
    "lng": 139.7471434,
    "place_id": "ChIJD7Ls5wOLGGAR-u0FQtDD6CA"
  },
  "place:WAGYU YAKINIKU IBUSANA 〒151-0053 東京都渋谷区代々木4-10-7 1F": {
    "lat": 35.6783747,
    "lng": 139.6927428,
    "place_id": "ChIJkWtYa8uMGGAR0qvQUq98nEY"
  },
  "place:WAGYUYAKINIKU IBUSANA 渋谷区代々木4-10-7小淵ビル1F": {
    "lat": 35.6783747,
    "lng": 139.6927428,
    "place_id": "ChIJkWtYa8uMGGAR0qvQUq98nEY"
  },
  "place:WASHOKU 蒼天 SOUTEN（ザ・プリンスギャラリー 東京紀尾井町内） 〒102-8585 東京都千代田区紀尾井町1-2 ザ・プリンスギャラリー東京紀尾井町,ラグジュアリーコレクションホテル35F": {
    "lat": 35.6797366,
    "lng": 139.7380407,
    "place_id": "ChIJ4Z9j7XuMGGARrQzsVSEyAlE"
  },
  "place:WEPwafflefactory 渋谷区神山町25-17UpperHillscourt101": {
    "lat": 35.663101999999995,
    "lng": 139.6880856,
    "place_id": "ChIJ92aN8hzzGGARnQzVmxQe7eA"
  },
  "place:WHY BEER ? 渋谷区上原1-35-5第2上原堂ビル101号室": {
    "lat": 35.669491199999996,
    "lng": 139.6820004,
    "place_id": "ChIJD8PjeXfzGGAR3Fcmvr-PJFc"
  },
  "place:WILD&RAW バーベキュー場 〒136-0076 東京都江東区南砂2丁目6-11 ファミル東陽町 3F": {
    "lat": 35.6732797,
    "lng": 139.81985179999998,
    "place_id": "ChIJX5sDvzSJGGARLvtf16HO-x0"
  },
  "place:WINE SALON R 〒164-0003 東京都中野区東中野1-50-4 日進ビル BF": {
    "lat": 35.7059743,
    "lng": 139.686531,
    "place_id": "ChIJn8P0Z0bzGGARQxbUqXhdhYM"
  },
  "place:WIZ CRAFT BEER and FOOD 〒101-0063 東京都千代田区神田淡路町2-105 ワテラスアネックス108": {
    "lat": 35.6974699,
    "lng": 139.7674042,
    "place_id": "ChIJJ6tEexuMGGARDEcrWig0q68"
  },
  "place:WOODBERRY COFFEE 代官山店 渋谷区恵比寿南3-7-1": {
    "lat": 35.6464411,
    "lng": 139.7022309,
    "place_id": "ChIJvSJ1CUaLGGARdojNN2sp9Ns"
  },
  "place:WOODBERRY COFFEE 渋谷店 渋谷区東2-20-18": {
    "lat": 35.6539429,
    "lng": 139.7094,
    "place_id": "ChIJvbYOsEaLGGARszQEtIIvb54"
  },
  "place:Wailele 渋谷区道玄坂1-7-8 新井ビル2F": {
    "lat": 35.657515499999995,
    "lng": 139.6991565,
    "place_id": "ChIJr_-QsVeLGGARSQLUZZ_D-yQ"
  },
  "place:Wakiya 一笑美茶樓 〒107-0052 東京都港区赤坂6-11-10": {
    "lat": 35.669638899999995,
    "lng": 139.7348472,
    "place_id": "ChIJb5MycYGLGGARo-PWlHv5SmY"
  },
  "place:Wakiya迎賓茶樓 〒107-0052 東京都港区赤坂6丁目16-10": {
    "lat": 35.6684244,
    "lng": 139.73302289999998,
    "place_id": "ChIJGdPg84GLGGARflKzwYq3QDg"
  },
  "place:Whisky Burgers BAR 中野 〒164-0001 東京都中野区中野2丁目30-8 立川ビルB1F": {
    "lat": 35.704799,
    "lng": 139.66566600000002,
    "place_id": "ChIJBybtB5TyGGARF2azCVkG_GI"
  },
  "place:Whisky Gibier 渋谷区西原3-21-1 1F2号": {
    "lat": 35.6707365,
    "lng": 139.6819524,
    "place_id": "ChIJD7rG4zfzGGARSK9h3K96uY0"
  },
  "place:Wild,Bushy 渋谷区西原1-21-16パラスト西原105": {
    "lat": 35.6760485,
    "lng": 139.677506,
    "place_id": "ChIJTTSTDjvzGGARJGmQAvB9OEE"
  },
  "place:Wine Bar ETSUBO 渋谷区恵比寿南2-13-14茶屋坂T&Kビル2F": {
    "lat": 35.6433988,
    "lng": 139.70748179999998,
    "place_id": "ChIJhaN2Qz-LGGAR8KKZEqqrjLo"
  },
  "place:Wine Bar entendu! 渋谷区恵比寿西1-10-14バルビゾン88 9階": {
    "lat": 35.6470373,
    "lng": 139.7073823,
    "place_id": "ChIJZzbbefOLGGARHA3I-CsR5Mg"
  },
  "place:Wine厨房 tamaya suidobashi 〒101-0061 東京都千代田区神田三崎町3丁目6-15 ウィンド水道橋IIビル": {
    "lat": 35.7015512,
    "lng": 139.7515888,
    "place_id": "ChIJ3ZfIkUCMGGARFKQQrQcgYyM"
  },
  "place:Wine蔵しおり 京都駅周辺 京都": {
    "lat": 34.9893967,
    "lng": 135.7586293,
    "place_id": "ChIJqVyHhaUIAWAR3eqMe3TCvvg"
  },
  "place:Wine食堂 久 渋谷区幡ヶ谷2-56-1コーポラス幡ヶ谷101": {
    "lat": 35.6774541,
    "lng": 139.6705972,
    "place_id": "ChIJISJ9gBjzGGARw6pI_58Wy48"
  },
  "place:Wonder YoYogi Park 渋谷区富ヶ谷1-8-7飯島ビル2階": {
    "lat": 35.6686002,
    "lng": 139.6908342,
    "place_id": "ChIJb4AfsuHzGGARNzAvL_Zuq1w"
  },
  "place:Y.Y.G. Brewery & Beer Kitchen 渋谷区代々木2-18-3オーチュー第一ビル1F/7F": {
    "lat": 35.686071399999996,
    "lng": 139.6965782,
    "place_id": "ChIJB-Qr-tGMGGARsyIY2rnSDzs"
  },
  "place:Y.Y.G.Brewery and BeerKitchen 〒151-0053 東京都渋谷区代々木2-18-3オーチュー第1ビル1F／7F": {
    "lat": 35.686071399999996,
    "lng": 139.6965782,
    "place_id": "ChIJB-Qr-tGMGGARsyIY2rnSDzs"
  },
  "place:YAWYE 〒106-0031 東京都港区西麻布1-9-5ARISTO西麻布ⅡB1F": {
    "lat": 35.6611846,
    "lng": 139.72530519999998,
    "place_id": "ChIJZ51CaQCLGGARFrFgoK_zrOY"
  },