{
  "place: Touch wood 渋谷区笹塚3-17-3つるやビル2階": {
    "lat": 35.6768143,
    "lng": 139.6677258,
    "place_id": "ChIJkck5ioXzGGARL5v3JO4Ge6w"
  },
  "place:1500(ミレチンクエチェント) 渋谷区元代々木町4-2": {
    "lat": 35.6699537,
    "lng": 139.68724,
    "place_id": "ChIJyc7W0ZrzGGARjv9J544PESc"
  },
  "place:181cellar北参道 渋谷区千駄ヶ谷3-6-1ガレリア原宿1F": {
    "lat": 35.6761609,
    "lng": 139.7042353,
    "place_id": "ChIJJRifDLmMGGARcN2sIxhKjxw"
  },
  "place:2031 渋谷区神山町16-4ヴィラメトロポリス5A": {
    "lat": 35.6632797,
    "lng": 139.69403459999998,
    "place_id": "ChIJFRUpWqyMGGARyaIux2hURhE"
  },
  "place:418KAMIYAMA 渋谷区神山町4-18セレンディピティ1階": {
    "lat": 35.665126099999995,
    "lng": 139.6928977,
    "place_id": "ChIJ1x_Gb62MGGARLXnmX7Yq3-g"
  },
  "place:6GRAMSstreet 渋谷区恵比寿南2-1-11恵比寿A・Mビル1a": {
    "lat": 35.6460517,
    "lng": 139.70727259999998,
    "place_id": "ChIJGRFoWGyLGGAR0wtKP8GPNPI"
  },
  "place:77696E65626172 渋谷区富ヶ谷1-37-1ロナーYS ビル 1F": {
    "lat": 35.6674661,
    "lng": 139.6896228,
    "place_id": "ChIJr6edFsmrGWARsSb6toOoz-w"
  },
  "place:7CAFE 渋谷区幡ヶ谷2–13-1平沼ビル102": {
    "lat": 35.6776307,
    "lng": 139.6770259,
    "place_id": "ChIJabnvSjvzGGARetPVZXtmh8k"
  },
  "place:A9 渋谷区西原3-22-14西原水垣ビル1階": {
    "lat": 35.6708552,
    "lng": 139.68220720000002,
    "place_id": "ChIJ_xaS4DfzGGARvcM-pTU_jkw"
  },
  "place:ADENIAアデニア 渋谷区鉢山町1番7号": {
    "lat": 35.653414,
    "lng": 139.6988064,
    "place_id": "ChIJQ1CHIFGLGGARItSJudSzi1w"
  },
  "place:AKUBI-台湾火鍋&クラフトビール- 渋谷区猿楽町2-13F93daikanyama 1F": {
    "lat": 35.6587813,
    "lng": 139.6980754,
    "place_id": "ChIJvzKVcQmLGGARjips3CTbjf4"
  },
  "place:ANANAS COFFEE 渋谷区神山町7-15イムーブル渋谷神山町4F": {
    "lat": 35.6645257,
    "lng": 139.6937117,
    "place_id": "ChIJbaRFYkqNGGARP9aV6gCXCKg"
  },
  "place:AND THE FRIET 渋谷区広尾5丁目16番1号": {
    "lat": 35.6500905,
    "lng": 139.7204861,
    "place_id": "ChIJ19KCOG2LGGARpk77jDaoX4w"
  },
  "place:ARALE 渋谷区鶯谷町7-12GranDuo渋谷1F": {
    "lat": 35.6541038,
    "lng": 139.7020724,
    "place_id": "ChIJi8DWNlGLGGARhxbev8vX9Ao"
  },
  "place:ARMS TAKE OUT & DELIVERY 渋谷区富ヶ谷1-9-21レイ上原ビル1階": {
    "lat": 35.6685081,
    "lng": 139.6900651,
    "place_id": "ChIJKdJ0vEzzGGAR7OpuHRNbBM4"
  },
  "place:ARMS 渋谷区代々木5-64-7神宮白鳳マンション1階": {
    "lat": 35.6726062,
    "lng": 139.6910015,
    "place_id": "ChIJX9j_zErzGGARL7ZBBuCM5uQ"
  },
  "place:AYUR CEYLON Shibuya 渋谷区円山町22-15": {
    "lat": 35.6566101,
    "lng": 139.6942133,
    "place_id": "ChIJC8LQVdyLGGAR1N9v-E9YJBA"
  },
  "place:Afterhours 渋谷区富ヶ谷1-7-9": {
    "lat": 35.669103,
    "lng": 139.69006199999998,
    "place_id": "ChIJkc7ioEzzGGARcl5O0gLn_fo"
  },
  "place:Another C 京都市中心部 京都": {
    "lat": 35.0091003,
    "lng": 135.770593,
    "place_id": "ChIJKQUNgYMIAWARL1INgC1-uAc"
  },
  "place:Antelope 渋谷区広尾5-3-15HHBビル2F": {
    "lat": 35.650379199999996,
    "lng": 139.7207755,
    "place_id": "ChIJoX8ITmeLGGAR5W0QsY0bmMo"
  },
  "place:Aquavit 渋谷区宇田川町31-4シノダビルB1": {
    "lat": 35.661286,
    "lng": 139.697868,
    "place_id": "ChIJjQycDqmMGGARU0mHptRtsz8"
  },
  "place:Areva 渋谷区上原二丁目48-12東洋代々木上原コーポ103": {
    "lat": 35.66789200000001,
    "lng": 139.6820247,
    "place_id": "ChIJZ6V9MILzGGARBgad1FxpG-g"
  },
  "place:Asian dining and bar bharat 渋谷区笹塚3丁目9番7号": {
    "lat": 35.6772206,
    "lng": 139.6690837,
    "place_id": "ChIJoxx18RjzGGARbFVAa9xLe9A"
  },
  "place:Asian dining and bar sathi 渋谷区猿楽町23-6Scott side 代官山2f": {
    "lat": 35.648879,
    "lng": 139.701743,
    "place_id": "ChIJb3U9eUWLGGARJOlX-gEfW7o"
  },
  "place:AsianDiningMomoCaveTokyo 渋谷区代々木4-5-1": {
    "lat": 35.6785822,
    "lng": 139.69263519999998,
    "place_id": "ChIJgZWdFMuMGGAR4WHIj4WeV0Y"
  },
  "place:B.M.L 渋谷区宇田川町32-7HULIC &New UDAGAWA11階": {
    "lat": 35.661159,
    "lng": 139.69740059999998,
    "place_id": "ChIJi1dpiamNGGAR48Zo8J0nBGM"
  },
  "place:BAGGAGE CAFEMARKET 渋谷区神宮前3-14-17荻島ビル1F": {
    "lat": 35.6694234,
    "lng": 139.7099634,
    "place_id": "ChIJ88wNf--NGGARK0ZDHm1ifCU"
  },
  "place:BAL HARA 渋谷区恵比寿西2-21-13Fビル　1F": {
    "lat": 35.6480951,
    "lng": 139.70342979999998,
    "place_id": "ChIJk34dfZmLGGARS1p-aTYOYfo"
  },
  "place:BANH MI STAR SHIBUYA by Nha Viet nam 渋谷区渋谷3-21-3渋谷ストリーム 2F": {
    "lat": 35.657362299999996,
    "lng": 139.7026629,
    "place_id": "ChIJF5u_0nOLGGARdSt0zkorIGY"
  },
  "place:BAR 30 CLUB 渋谷区道玄坂2-23-11トウショウビル3F": {
    "lat": 35.6600068,
    "lng": 139.6957621,
    "place_id": "ChIJ81onLaqMGGARyDYwHaLrfYI"
  },
  "place:BAR A seat 渋谷区神泉町1-19美幸ビル1階": {
    "lat": 35.658372899999996,
    "lng": 139.6924259,
    "place_id": "ChIJAZbMUQCNGGARuK7GrKd9iOM"
  },
  "place:BAR CORRYVRECKAN 渋谷区富ヶ谷2丁目43ー11永和ビル富ヶ谷3階": {
    "lat": 35.6675603,
    "lng": 139.6854249,
    "place_id": "ChIJW070q2PzGGARbZCGkO9k4m8"
  },
  "place:BAR EBIS 29 渋谷区恵比寿1-23-10LCUBE EBIS 5F": {
    "lat": 35.6461071,
    "lng": 139.7159457,
    "place_id": "ChIJ3SRTS-eLGGARtoqvaMnMCek"
  },
  "place:BAR FLAT 渋谷区代々木1-54-2小林ビルB1": {
    "lat": 35.6840675,
    "lng": 139.7006206,
    "place_id": "ChIJyc9j_M6MGGARlKe_ah5kA0g"
  },
  "place:BAR KIZUKI 渋谷区渋谷1丁目8番地5号グローリア宮益坂10階": {
    "lat": 35.6602679,
    "lng": 139.7054191,
    "place_id": "ChIJc35nwViLGGARXNpJ7dkMbFg"
  },
  "place:BAR LOUNGE VIVI 渋谷区恵比寿1-12-7三恵31ビル 6階C": {
    "lat": 35.6465253,
    "lng": 139.71213,
    "place_id": "ChIJff5OpGqLGGARM0EA9HUNEig"
  },
  "place:BAR SHIBUYA KALLAS(カラス 渋谷区道玄坂2-23-13渋谷デリタワー10階": {
    "lat": 35.6601085,
    "lng": 139.69613310000003,
    "place_id": "ChIJn9ciT3GNGGARyptq_r_KcTs"
  },
  "place:BAR TAKATSU 渋谷区道玄坂2-20-26藤和エクシール道玄坂B1-03": {
    "lat": 35.6593227,
    "lng": 139.6967756,
    "place_id": "ChIJO1NRhKmMGGARWY0H5eKiq6A"
  },
  "place:BAR TRUST 渋谷区恵比寿1-22-10カマスヤビル地下1階": {
    "lat": 35.6463878,
    "lng": 139.714095,
    "place_id": "ChIJF6fdKRWLGGAROvdQrgwcSrw"
  },
  "place:BAR UIGEADAIL 渋谷区笹塚2-16-2ASP笹塚ビル4F": {
    "lat": 35.674374199999995,
    "lng": 139.66634489999998,
    "place_id": "ChIJAfJ57N7zGGARn9P7A4mFxHI"
  },
  "place:BAR mArs EBISU 渋谷区恵比寿1-22-27マガザン恵比寿9F": {
    "lat": 35.6462289,
    "lng": 139.7128282,
    "place_id": "ChIJ_WV7oTaLGGARdSF412de8k8"
  },
  "place:BAR ŌMORI 渋谷区富ヶ谷1丁目51ー6": {
    "lat": 35.668596799999996,
    "lng": 139.68954549999998,
    "place_id": "ChIJh2CWQHrzGGARZj8SkYX0P34"
  },
  "place:BAR-SARAKA 渋谷区富ヶ谷1-43-23代々木公園ガーデニア104": {
    "lat": 35.6672675,
    "lng": 139.69088969999999,
    "place_id": "ChIJOegOKk3zGGARJb_mISLMui8"
  },
  "place:BAR31° 渋谷区円山町1-18ミネビル3F": {
    "lat": 35.6597903,
    "lng": 139.6951412,
    "place_id": "ChIJk5zWNKqMGGARGpibOigJNgs"
  },
  "place:BARALCOOL 渋谷区渋谷2-8-4東和青山ビルB01": {
    "lat": 35.6604456,
    "lng": 139.7074457,
    "place_id": "ChIJn89ZIV-LGGAR7jD_kkXOAYw"
  },
  "place:BARBUSHITSU 渋谷区恵比寿南1-8-8リアルミホビル3F": {
    "lat": 35.645996,
    "lng": 139.7087784,
    "place_id": "ChIJoZv0ADKLGGARqKBFyqjIDhQ"
  },
  "place:BARDEBIS 渋谷区恵比寿1-22-14石井ビルB1F": {
    "lat": 35.6463319,
    "lng": 139.7146037,
    "place_id": "ChIJiwqJ2hSLGGARoBFXn0jKh3g"
  },
  "place:BARSync 渋谷区恵比寿1-8-7三恵エイトビル102": {
    "lat": 35.647320199999996,
    "lng": 139.71045429999998,
    "place_id": "ChIJ5Y8lNECLGGAR2R-KwV6cUZ0"
  },
  "place:BARU HiLO 渋谷区笹塚1-22-9里テラス1階": {
    "lat": 35.6725846,
    "lng": 139.6685858,
    "place_id": "ChIJPQG0zXbzGGARvdftodnLJRw"
  },
  "place:BAR　andatt 渋谷区恵比寿西1-4-4ルソレイユ地下1階": {
    "lat": 35.6483937,
    "lng": 139.70835069999998,
    "place_id": "ChIJrY3sb0GLGGARjePuDfm8_uo"
  },
  "place:BAR日知屋 渋谷区道玄坂1-17-9ヴェラハイツ道玄坂 1F": {
    "lat": 35.657178,
    "lng": 139.696845,
    "place_id": "ChIJgXL5bFaLGGAR19KX33v5SBE"
  },
  "place:BAR木蓮 渋谷区幡ヶ谷2-8-15KODAビル幡ヶ谷303": {
    "lat": 35.6780195,
    "lng": 139.67708009999998,
    "place_id": "ChIJXwxX51rzGGAR1gl1HlPm6Sk"
  },
  "place:BAR風木 渋谷区恵比寿南1-1-4村田ビル3F": {
    "lat": 35.646501799999996,
    "lng": 139.708639,
    "place_id": "ChIJfamx-0CLGGARZ4GVq7Pn5bc"
  },
  "place:BASE 渋谷区松濤2-14-12シャンボール松涛106": {
    "lat": 35.6584126,
    "lng": 139.6920227,
    "place_id": "ChIJt8-MJ6uMGGARE7P9Hr4Eg0w"
  },
  "place:BASE-CHIC 渋谷区恵比寿2-9-1EBISU FLAT 1-A": {
    "lat": 35.6459741,
    "lng": 139.7170138,
    "place_id": "ChIJgS_e4bGLGGARWopzn-Ni0u0"
  },
  "place:BE A GOOD  NEIGHBOR SENDAGAYA 渋谷区千駄ヶ谷3-51-6": {
    "lat": 35.675036899999995,
    "lng": 139.7061333,
    "place_id": "ChIJkU_L8LuMGGARn12RzR-svSo"
  },
  "place:BEANS&BEANSぽえむ 渋谷区笹塚1-48-14ショッピングモール笹塚21　2F": {
    "lat": 35.6738035,
    "lng": 139.6689606,
    "place_id": "ChIJDd9ixdPzGGARcKAoKog-jD0"
  },
  "place:BHARATIIndianRESTAURANT 渋谷区元代々木町2-9City House Yoyogikoen": {
    "lat": 35.6701201,
    "lng": 139.6873751,
    "place_id": "ChIJjQfptkvzGGAR4DJvW5z4EJY"
  },
  "place:BISTRO SAVEUR　（ビストロサヴェール） 渋谷区恵比寿南1丁目17-17TimeZoneテラスビル3階全号室": {
    "lat": 35.6447804,
    "lng": 139.7104238,
    "place_id": "ChIJ_2KHB7eLGGARXBX2VO6_ZPU"
  },
  "place:BODY&SOUL 渋谷区宇田川町2-1-B15渋谷ホームズB-15": {
    "lat": 35.66379810000001,
    "lng": 139.6989183,
    "place_id": "ChIJPWYRwWaLGGARKYcLXLVXaro"
  },
  "place:BONTA ITALIA 渋谷区猿楽町12番35号t+Daikanyama 1F": {
    "lat": 35.6512825,
    "lng": 139.7012723,
    "place_id": "ChIJrUY5momLGGAR0z_l5iygm-8"
  },
  "place:BOOKS BUNNY 渋谷区神宮前2-31-8": {
    "lat": 35.6730038,
    "lng": 139.7089541,
    "place_id": "ChIJGxR52LyMGGARjjKTYA_yaNA"
  },
  "place:BOTTA COFFEE 渋谷区神宮前3-39-5青山ウエスト1階": {
    "lat": 35.6659179,
    "lng": 139.7175591,
    "place_id": "ChIJHeDRylOLGGARYr6VpYVCUkI"
  },
  "place:BOW 渋谷区宇田川町41-26パピエビル202": {
    "lat": 35.6626894,
    "lng": 139.6953474,
    "place_id": "ChIJJ4hyE6yMGGAR9aqGd8OdzdI"
  },
  "place:BRITISH INDIAN CAFE 1930 渋谷区神宮前3-27-7": null,
  "place:BROWNHORSE 渋谷区神宮前2-22-1神宮前court1F": {
    "lat": 35.6751319,
    "lng": 139.7105836,
    "place_id": "ChIJFVhjSr2MGGARZE86PPPxBDk"
  },
  "place:BW01 渋谷区恵比寿4-27-7S:vort恵比寿 3F": {
    "lat": 35.64559,
    "lng": 139.7158323,
    "place_id": "ChIJH-_YjRSLGGARujyqNzoQMC4"
  },
  "place:Bakery&Cafe Honey 渋谷区代々木1-37-21": {
    "lat": 35.6839645,
    "lng": 139.70066549999999,
    "place_id": "ChIJl7URKwCNGGARzpf51N2zg6U"
  },
  "place:Bar  M13 渋谷区代々木1-32-10ラックビル5階": {
    "lat": 35.6825432,
    "lng": 139.7019569,
    "place_id": "ChIJJRmbGsaMGGAR1EC0dEywm-U"
  },
  "place:Bar & Dining TORRENT（トレント）／SHIBUYA STREAM HOTEL 渋谷区渋谷3-21-3SHIBUYA STREAM HOTEL 4F": {
    "lat": 35.6573615,
    "lng": 139.7031959,
    "place_id": "ChIJIZ_JXi6LGGARUzsctUGoX7k"
  },
  "place:Bar Brown Tokyo 渋谷区恵比寿南2-25-3EBISU HANA BLDG B1": {
    "lat": 35.6434193,
    "lng": 139.710185,
    "place_id": "ChIJn2KLtz-LGGARIeuEosmbjjU"
  },
  "place:Bar CEP・DOR 渋谷区道玄坂1-6-3道玄坂パールビル2F": {
    "lat": 35.6579129,
    "lng": 139.699156,
    "place_id": "ChIJX9ght1eLGGARcHB9pPCdMNA"
  },
  "place:Bar Dragon Fruit 渋谷区西原3-24-12テラ代々木上原103": {
    "lat": 35.67115,
    "lng": 139.6830773,
    "place_id": "ChIJNW5o1jfzGGARegighLVf9wY"
  },
  "place:Bar MIZ 渋谷区渋谷2-2-4青山アルコーブ203": {
    "lat": 35.6604676,
    "lng": 139.7086599,
    "place_id": "ChIJQ9A1_F6LGGARFR3hNJ4hRrg"
  },
  "place:Bar Perche 渋谷区神宮前2-3-30第二竹上ビル101": {
    "lat": 35.674425,
    "lng": 139.7133456,
    "place_id": "ChIJIQ5Fju-NGGARJMoCYZwDzNo"
  },
  "place:Bar Pledge 渋谷区幡ヶ谷1-2-8林ビル2-D": {
    "lat": 35.6771466,
    "lng": 139.6775386,
    "place_id": "ChIJK8_EOzvzGGARlba5FDSSTes"
  },
  "place:Bar PotStill 渋谷区道玄坂1-20-12MT道玄坂ビルB1": {
    "lat": 35.6568378,
    "lng": 139.6964965,
    "place_id": "ChIJ__8bDVaLGGARV7KY_K43KsM"
  },
  "place:Bar QB 渋谷区恵比寿西1-4-8Breeze Ebisu 2階": {
    "lat": 35.6484539,
    "lng": 139.70802179999998,
    "place_id": "ChIJbYo_JF6LGGARL0Vqxb44Z6g"
  },
  "place:Bar Ring… 渋谷区笹塚2-19-1ザ・シティ笹塚8F": {
    "lat": 35.6741349,
    "lng": 139.6654324,
    "place_id": "ChIJ-T0ktvXzGGARyCtZhVQb2-c"
  },
  "place:Bar Table かば山 渋谷区幡ヶ谷3-2-6佐藤ビル　1階": {
    "lat": 35.6803854,
    "lng": 139.6763413,
    "place_id": "ChIJeYN6cCTzGGARAEMWz-RbpZg"
  },
  "place:Bar Tnb 渋谷区千駄ヶ谷エビデンワビル2.5階": {
    "lat": 35.681325699999995,
    "lng": 139.7036705,
    "place_id": "ChIJxdEHHZONGGAReDgw9yC2etc"
  },
  "place:Bar Unkempt 渋谷区富ヶ谷1-14-20代々木公園セレナビル401": {
    "lat": 35.6672108,
    "lng": 139.6913971,
    "place_id": "ChIJIYZYkO6NGGARsUwjq057b9Q"
  },
  "place:Bar Wasabi 渋谷区千駄ヶ谷3ー27ー4 小林ビル 1F": {
    "lat": 35.6813098,
    "lng": 139.6804484,
    "place_id": "ChIJpVYsVADzGGARgmTb5fdNrq8"
  },
  "place:Bar Winny 渋谷区道玄坂2-29-18清水ビル8階": {
    "lat": 35.6599698,
    "lng": 139.6978183,
    "place_id": "ChIJqUFFuamMGGARVObJWFI6yko"
  },
  "place:Bar and Shisha Vedge 渋谷区神南1-20-8パークウェイテラス4F": {
    "lat": 35.6617983,
    "lng": 139.69990719999998,
    "place_id": "ChIJtRVolMiNGGARG9AP5yuoHWg"
  },
  "place:Bar dritt 渋谷区恵比寿西2-2-6恵比寿ファイブビル101号": {
    "lat": 35.6493466,
    "lng": 139.70802659999998,
    "place_id": "ChIJ9zAfbKuLGGARaocbFVosozU"
  },
  "place:Bar 松虎 渋谷区広尾1-16-2VORT恵比寿II 2F": {
    "lat": 35.6486818,
    "lng": 139.711161,
    "place_id": "ChIJVwK620GLGGARhEB-0GuIWB8"
  },
  "place:Bar 糸 渋谷区恵比寿4-11-8グランヌーノ301": {
    "lat": 35.6452551,
    "lng": 139.7147134,
    "place_id": "ChIJmVhl_WWLGGARmjW2ZJdoUCc"
  },
  "place:BarLm. 渋谷区渋谷2丁目12番11号B1F渋谷KKビル": {
    "lat": 35.6586577,
    "lng": 139.7083897,
    "place_id": "ChIJhc9-d9iLGGARdg9djcsBZXA"
  },
  "place:Bar×Grill Lust 渋谷区道玄坂2-23-13渋谷デリタワー8階": {
    "lat": 35.6601085,
    "lng": 139.69613310000003,
    "place_id": "ChIJJ8kOwi6NGGARsjp2SpzgiAU"
  },
  "place:Bar夜行 渋谷区桜丘町16-2サクラブルーム201": {
    "lat": 35.656566,
    "lng": 139.70135439999999,
    "place_id": "ChIJ_7u2FX6LGGARJYiiIIALi0M"
  },
  "place:Bar希望 渋谷区神山町7-8": {
    "lat": 35.6638836,
    "lng": 139.69382579999998,
    "place_id": "ChIJ1zwHcVSNGGARI7wfBR5iljM"
  },
  "place:Be full 渋谷区道玄坂2-8-8コスモ渋谷会館601号": {
    "lat": 35.65853,
    "lng": 139.698362,
    "place_id": "ChIJpV8yKVaLGGAR399_6gDI8bA"
  },
  "place:BeefGarden恵比寿 渋谷区恵比寿4-10-8orange恵比寿1F": {
    "lat": 35.645387500000005,
    "lng": 139.7147221,
    "place_id": "ChIJtUiS5RSLGGARUEfSjYDUgJ0"
  },
  "place:Beer Thirty 京都三条河原町店 京都市中心部 京都": {
    "lat": 35.0083206,
    "lng": 135.7687805,
    "place_id": "ChIJydhUfYMIAWARxq3ewoGD6AU"
  },
  "place:Beer Thirty京都駅前店 京都駅周辺 京都": {
    "lat": 34.9869075,
    "lng": 135.7609098,
    "place_id": "ChIJdwXmPK4IAWARo8VtNbf0xAs"
  },
  "place:Betterave Bistro Jiro 渋谷区富ヶ谷1-10-5パークサイドコグレ1階": {
    "lat": 35.6681242,
    "lng": 139.6909221,
    "place_id": "ChIJcXrIy0zzGGAREN3UO3KMPaY"
  },
  "place:Bet代々木上原 渋谷区西原3-7-5渡部ビル103": {
    "lat": 35.6698616,
    "lng": 139.68095399999999,
    "place_id": "ChIJjY1aJRvzGGARx1Qg3uDcFzQ"
  },
  "place:BioGaia Kafé 渋谷区広尾5-15-1日計広尾コーポ102": {
    "lat": 35.650283699999996,
    "lng": 139.721115,
    "place_id": "ChIJszwxRG2LGGARaCZUG-0TGiw"
  },
  "place:Bistro Horitetsu 渋谷区宇田川町42-15中島ビルB1": {
    "lat": 35.663160999999995,
    "lng": 139.695177,
    "place_id": "ChIJm1fGFayMGGAR7pHYjHey4ro"
  },
  "place:Bistro Kou 渋谷区神宮前3-25-7丹治ビル1F": {
    "lat": 35.6711731,
    "lng": 139.70801110000002,
    "place_id": "ChIJ-a0DHJ2NGGARdijkfl-J1B8"
  },
  "place:Bistro 本当のはじまり 渋谷区代々木1-52-5ベルテ南新宿B1階": {
    "lat": 35.6834655,
    "lng": 139.6994542,
    "place_id": "ChIJsednfx6NGGARziJrGVSj7vU"
  },
  "place:Bistro&Cafe 十字屋　TOMIGAYA 渋谷区富ヶ谷1-14-13メゾンテオブロマ1F": {
    "lat": 35.6667543,
    "lng": 139.6915488,
    "place_id": "ChIJ5VdIcQCNGGARUVPpGI1ZyO8"
  },
  "place:Blau Mohn 渋谷区上原1-40-3ジャルダン上原内101": {
    "lat": 35.6695596,
    "lng": 139.68430139999998,
    "place_id": "ChIJ3XZMpEnzGGARQYgG9Ov0NpY"
  },
  "place:Blue Tokai Coffee Roasters 渋谷区広尾5-3-15サワタカビル1階": {
    "lat": 35.6503663,
    "lng": 139.7207238,
    "place_id": "ChIJFTDuewCLGGAROUVCWDWbgb4"
  },
  "place:Bomb Bar Cafe 渋谷区笹塚2-42-17秋元スペース1F": {
    "lat": 35.6762845,
    "lng": 139.6677919,
    "place_id": "ChIJIXRxierzGGAR23Y1hKmUg6o"
  },
  "place:Bookcafe days 渋谷区鶯谷町15-10ロイヤルパレス渋谷105": {
    "lat": 35.6540976,
    "lng": 139.70083,
    "place_id": "ChIJdQyUolCLGGAREBvx_3aQDLo"
  },
  "place:Botrus 渋谷区千駄ヶ谷4-10-4千駄ヶ谷グリーンランドビル2階": {
    "lat": 35.679915699999995,
    "lng": 139.7064577,
    "place_id": "ChIJwWOcqiCNGGARWQBma5U6mcs"
  },
  "place:British Golf Lounge 渋谷区円山町28-4ObaビルB館B1F": {
    "lat": 35.655682299999995,
    "lng": 139.6943992,
    "place_id": "ChIJAU066KWLGGARVuVzTZULfMo"
  },
  "place:Bubbles 渋谷区円山町7-2EDIFICE渋谷101": {
    "lat": 35.6580116,
    "lng": 139.694885,
    "place_id": "ChIJf7GvbaqMGGAR1brtWYMsyVo"
  },
  "place:BumBleBee 渋谷区恵比寿1-12-5萩原ビル3 地下1階": {
    "lat": 35.6501322,
    "lng": 139.7046675,
    "place_id": "ChIJ8W5vRcSLGGARa7kbr2j6hM8"
  },
  "place:C'sBAR 渋谷区恵比寿西1丁目8-2ウエストパレスビルB1-B": {
    "lat": 35.647768,
    "lng": 139.7082756,
    "place_id": "ChIJgZXtEkGLGGARcMDryGDezGk"
  },
  "place:CALLASTOKYO 渋谷区富ヶ谷2-45-21": {
    "lat": 35.6676518,
    "lng": 139.6875572,
    "place_id": "ChIJVVX0bUzzGGARCHzccdcghCk"
  },
  "place:CAMELBACK RICH VALLEY 渋谷区富ヶ谷1-9-23服部ビル102": {
    "lat": 35.668732,
    "lng": 139.68987199999998,
    "place_id": "ChIJhRCh413zGGARPp4ypMo_zH8"
  },
  "place:CAMELOT 渋谷区神南1丁目18番2号フレーム神南坂B1～B3": {
    "lat": 35.662659999999995,
    "lng": 139.70003699999998,
    "place_id": "ChIJu5JQ66iMGGARx4LoABnQNPU"
  },
  "place:CANTINA REGALO 渋谷区代々木4-6-2宍戸ビルB1F": {
    "lat": 35.6782744,
    "lng": 139.6928724,
    "place_id": "ChIJb6uJvSaNGGAR47zwOKFfhr4"
  },
  "place:CARIMELLO 渋谷区富ヶ谷1-8-7飯島ビル1階": {
    "lat": 35.6686318,
    "lng": 139.6908516,
    "place_id": "ChIJ1WgftEzzGGAR20GteNWhF-M"
  },
  "place:CASE広尾 渋谷区広尾5-18-2": {
    "lat": 35.649439099999995,
    "lng": 139.7206651,
    "place_id": "ChIJ-2BLZTKLGGARv32rZCYI5cQ"
  },
  "place:CHACOあめみや 渋谷区千駄ヶ谷1-7-12": {
    "lat": 35.6786023,
    "lng": 139.710098,
    "place_id": "ChIJJ-BPQL6MGGARkAhYq-0roAw"
  },
  "place:CHURRASCO GANG 渋谷本店 渋谷区宇田川町31-1HULIC & New Shibuya　6F": {
    "lat": 35.661555,
    "lng": 139.6976588,
    "place_id": "ChIJk25jnamNGGAR79xCZ_reUgE"
  },
  "place:CIDER SHACK 渋谷区東1-27-9奥山ビル1F": {
    "lat": 35.6540969,
    "lng": 139.7075387,
    "place_id": "ChIJcfDRZiKLGGARJ5Gfres2sc0"
  },
  "place:CIMI restorant 渋谷区代々木3-9-5": {
    "lat": 35.683585099999995,
    "lng": 139.69598969999998,
    "place_id": "ChIJWww3qXCNGGARzDkx3Wb7OH0"
  },
  "place:CLIMB 渋谷区神宮前1-8-5メナー4F": {
    "lat": 35.6702106,
    "lng": 139.7064647,
    "place_id": "ChIJnb6bX6OMGGARVG3eFLrFg_g"
  },
  "place:CLUB HEAVY SICK 渋谷区西原2-27-4升本ビルB1": {
    "lat": 35.67523510000001,
    "lng": 139.6783561,
    "place_id": "ChIJNb5PszvzGGAR-9rYwTFLxBY"
  },
  "place:COCO-agepan 渋谷区神宮前5-17-16101": {
    "lat": 35.665511699999996,
    "lng": 139.7046737,
    "place_id": "ChIJDzrZmaaMGGARZum15NbOe6o"
  },
  "place:COFFEE KIOSK ROASTER 渋谷区千駄ヶ谷5-6-7トーエイハイツ1C": {
    "lat": 35.6818036,
    "lng": 139.70634189999998,
    "place_id": "ChIJiY597zGNGGARbpxe_i1XorM"
  },
  "place:CONCENT 渋谷区本町6-34-8": {
    "lat": 35.6802722,
    "lng": 139.6774939,
    "place_id": "ChIJcUyYWCTzGGARPZ2hfTt_03A"
  },
  "place:COPPIE 京都市中心部 京都": {
    "lat": 34.999235399999996,
    "lng": 135.7504405,
    "place_id": "ChIJS0lpjHwHAWARdtbUDZQ1qUs"
  },
  "place:COSMOS JUICE TOMIGAYA 渋谷区富ヶ谷2-23-5富ヶ谷アルコーブ1F": {
    "lat": 35.6631688,
    "lng": 139.68290159999998,
    "place_id": "ChIJn6DMeJHzGGAR6kr-cTs7xvg"
  },
  "place:COYORI 渋谷区広尾5-14-4広尾SKビル2F": {
    "lat": 35.6504141,
    "lng": 139.7216464,
    "place_id": "ChIJw8F3s5mLGGARYzDMZmWHJrI"
  },
  "place:COZYHOUSE 渋谷区道玄坂2-19-11FABRIC渋谷5F": {
    "lat": 35.6594177,
    "lng": 139.6961088,
    "place_id": "ChIJs3tY7YeNGGARkqWvd1aPFnw"
  },
  "place:CREAM PAND BAKERs 渋谷区恵比寿西2-14-10TWONE代官山1F-B": {
    "lat": 35.6500207,
    "lng": 139.7052779,
    "place_id": "ChIJIQNXUQ2LGGARVzg_itcKoS0"
  },
  "place:CUCINA DIESEL FARM 渋谷区渋谷1-23-16cocoti 1F": {
    "lat": 35.6620432,
    "lng": 139.702579,
    "place_id": "ChIJ25QMB_mNGGARVlbp10ZJIg0"
  },
  "place:CUJORL 渋谷区桜丘町22-8縣ビル1F": {
    "lat": 35.654221199999995,
    "lng": 139.6999325,
    "place_id": "ChIJxX0txlCLGGARCLDKN-s51ko"
  },
  "place:CURRY&SPICE 青い鳥 渋谷区幡ヶ谷2丁目47-12ハウス満盛 2F": {
    "lat": 35.6792223,
    "lng": 139.6770909,
    "place_id": "ChIJORVd6yTzGGARHNRDc8VmmKU"
  },
  "place:Cabotte 渋谷区桜丘町12-5桜丘Kビル　地下1階": {
    "lat": 35.654241,
    "lng": 139.701216,
    "place_id": "ChIJ_9VJoFCLGGARaTJWqPf3IZc"
  },
  "place:Cafe Midori 渋谷区神宮前2-3-28": {
    "lat": 35.6738232,
    "lng": 139.7110336,
    "place_id": "ChIJDzACFwCNGGARoQtIqwaQvX8"
  },
  "place:Cafe and Bar Margarita 渋谷区幡ヶ谷2-5-4セイジョービル2F": {
    "lat": 35.678461299999995,
    "lng": 139.6776306,
    "place_id": "ChIJm1n_JKrzGGARhBsEh6Sq8gw"
  },
  "place:Cafe tomarigi 渋谷区大山町46番12号THEONETHIRD大山町401号室": {
    "lat": 35.6684704,
    "lng": 139.67785809999998,
    "place_id": "ChIJY65pLpDzGGARpuPockylacc"
  },
  "place:Cafe ミカエル 渋谷区代々木5-55-5 2F「隠れのみ処諸星」内": {
    "lat": 35.677987699999996,
    "lng": 139.69165759999998,
    "place_id": "ChIJTyaqTgCNGGARsCjDemzLxBk"
  },
  "place:Cafe&bar The4th EBISU 渋谷区恵比寿南2-3-12je1ビル2F": {
    "lat": 35.6454841,
    "lng": 139.70733629999998,
    "place_id": "ChIJsb2XxkCLGGARifaQ8H9ratk"
  },
  "place:Cafe1008 渋谷区神宮前1-1-10SCC千駄ヶ谷コミュニティセンター内": {
    "lat": 35.6740783,
    "lng": 139.7066542,
    "place_id": "ChIJuVNUnI2NGGARej5seo8iO5I"
  },
  "place:Cafe＆Bar1985 渋谷区道玄坂2-22-6CREA道玄坂1F": {
    "lat": 35.659569999999995,
    "lng": 139.6955491,
    "place_id": "ChIJtZvlMaqMGGARAUhjw0GdMpI"
  },
  "place:Cafe＆Bar　753～nagomi～ 渋谷区笹塚2-14-6ディアレストケイオーB1F": {
    "lat": 35.674566000000006,
    "lng": 139.66679589999998,
    "place_id": "ChIJV6vewRnzGGAR7SIMPoyvOlI"
  },
  "place:Carasawagi Bar 渋谷区笹塚1-57-10笹塚駅前ビル2F": {
    "lat": 35.6739368,
    "lng": 139.6669728,
    "place_id": "ChIJjc_13RnzGGARIQRe0bR5UH0"
  },
  "place:Chiles Mexican Grill 渋谷区神宮前1-8-24OZ原宿ビル1-A": {
    "lat": 35.670376499999996,
    "lng": 139.705599,
    "place_id": "ChIJUd36uqSMGGARIkBBHqsDtdQ"
  },
  "place:Chocolate Pocket 渋谷区笹塚2-12-13Y2ビル1F": {
    "lat": 35.675339699999995,
    "lng": 139.6679432,
    "place_id": "ChIJXzfGtRnzGGARLYGNAmxDOlA"
  },
  "place:Cidernaut 渋谷区神山町16-4堀内ビル": {
    "lat": 35.6632797,
    "lng": 139.69403459999998,
    "place_id": "ChIJzWcmWqyMGGAR0QDj9fTGvQs"
  },
  "place:CoffeeCrevice 渋谷区代々木4-2-9ピーズビル2F": {
    "lat": 35.6787279,
    "lng": 139.69326859999998,
    "place_id": "ChIJP2mGesuMGGARUxTbKm-YKEA"
  },
  "place:Concerto 渋谷区上原1-29-5BIT代々木上原B1": {
    "lat": 35.6683333,
    "lng": 139.6798911,
    "place_id": "ChIJ8ZpWwUfzGGARvtQTZU20JP4"
  },
  "place:Convivio 渋谷区千駄ヶ谷3-17-12カミムラビル1F": {
    "lat": 35.6759166,
    "lng": 139.7080277,
    "place_id": "ChIJB1ZQ86a7JhURpb6TfiSk_vM"
  },
  "place:Counter Sharing imantokoro 渋谷区宇田川町37-15ARISTO渋谷 Le Comptoir 内": {
    "lat": 35.662558,
    "lng": 139.6951351,
    "place_id": "ChIJ9TAb1VSNGGARgyfr6e63gQE"
  },
  "place:Craft Curry Brothers BASE 代々木 渋谷区代々木3丁目13-1Smi:re Yoyogi 1階": {
    "lat": 35.6838833,
    "lng": 139.69498489999998,
    "place_id": "ChIJWZxVb_KNGGARe_aFROh5Fdk"
  },
  "place:Craftbeer gau's 渋谷区神山町16-4ヴィラメトロポリス2A": {
    "lat": 35.6632797,
    "lng": 139.69403459999998,
    "place_id": "ChIJFRUpWqyMGGARyaIux2hURhE"
  },
  "place:Crowny cafe Stand 渋谷区代々木1-38-6星野ビル1階": {
    "lat": 35.6724628,
    "lng": 139.6860696,
    "place_id": "ChIJe14Zv2DzGGAR5pe50H1r-LE"
  },
  "place:Cyodo 渋谷区本町6-37-10": {
    "lat": 35.6809057,
    "lng": 139.67668129999998,
    "place_id": "ChIJw37Yz0rzGGARiRBxSrTTW1c"
  },
  "place:DA HOUSE 渋谷区恵比寿南2-3-15cocospace恵比寿南2階": {
    "lat": 35.6456613,
    "lng": 139.7077069,
    "place_id": "ChIJafzzjgOLGGARCbPQw8ATIKc"
  },
  "place:DADA　-DARTS AND KARAOKE- 渋谷区代官山町13-4セレサ代官山　地下一階": {
    "lat": 35.6498437,
    "lng": 139.70448,
    "place_id": "ChIJYxoi4WyLGGARdiaKkfqnf5Y"
  },
  "place:DINING BAR SCUBA 渋谷区幡ヶ谷1-1-5第一岩田ビル　B1F": {
    "lat": 35.6775826,
    "lng": 139.6789025,
    "place_id": "ChIJ____PyPzGGARLkzkGpGvANo"
  },
  "place:Da-ism 渋谷区千駄ヶ谷3-16-17NOCE KITASANDO102": {
    "lat": 35.6761503,
    "lng": 139.7073681,
    "place_id": "ChIJLXwZBfuNGGARu4Epp9TGaVE"
  },
  "place:Dan de CHAYA　だんで茶屋 渋谷区代々木5-2-52F": {
    "lat": 35.6708791,
    "lng": 139.6890821,
    "place_id": "ChIJJ4UEcjjzGGARvA8_wwWuI3I"
  },
  "place:Dear All 渋谷区笹塚1-59-5バンブー皐月101": {
    "lat": 35.6734323,
    "lng": 139.6647649,
    "place_id": "ChIJ2fI6DhrzGGARZj0_mog88HU"
  },
  "place:Delcharlro 渋谷区恵比寿4-4-14イナビル1階": {
    "lat": 35.645471,
    "lng": 139.71143179999999,
    "place_id": "ChIJQY1e_j-LGGAR1N3MR2W4X9c"
  },
  "place:Dubois(デュボワ) 渋谷区西原2-20-8コーポ小沢1階 Dubois": {
    "lat": 35.6746889,
    "lng": 139.6794622,
    "place_id": "ChIJ3fkvIzrzGGARITu3kynhNH8"
  },
  "place:EBISU SIX 渋谷区恵比寿3-3-2ニューケイクレセント2f": {
    "lat": 35.6452664,
    "lng": 139.71795649999999,
    "place_id": "ChIJp3SBcQCLGGARBakHz-J_JN4"
  },
  "place:EBISUBASHI珊瑚 渋谷区恵比寿1-16-18": {
    "lat": 35.6478124,
    "lng": 139.7149365,
    "place_id": "ChIJA5KqO2uLGGARQBsWbaMtbfw"
  },
  "place:EBIZO 渋谷区道玄坂2丁目19-3ライオンズマンション104": {
    "lat": 35.6590833,
    "lng": 139.6963801,
    "place_id": "ChIJyWc59amMGGARoBACEVNF45U"
  },
  "place:EIGHT COFFEE 渋谷区恵比寿1-11-8TCビル1階": {
    "lat": 35.6463594,
    "lng": 139.7115954,
    "place_id": "ChIJARoKkxKLGGARy_fPMGYSnRg"
  },
  "place:ELMO+ 渋谷区笹塚1-56-18京王クラウン街笹塚A-2東": {
    "lat": 35.673797799999996,
    "lng": 139.6673562,
    "place_id": "ChIJWd3oMZLzGGARgcOLggK4r5M"
  },
  "place:EXCITE LUCKY 渋谷区笹塚3-31-10笹塚サンハイツ": {
    "lat": 35.67551840000001,
    "lng": 139.6623123,
    "place_id": "ChIJn-3ObRvzGGARjgEwKkJMwo8"
  },
  "place:Ethnic Dining TSUBAKI GARDEN 渋谷区東1-3-1カミニート1F 4号": {
    "lat": 35.6574026,
    "lng": 139.7081907,
    "place_id": "ChIJH0EnJVyLGGARd7XWS7A_Qhw"
  },
  "place:E・A・T GRILL＆BAR 渋谷区千駄ヶ谷4丁目10番4号千駄ヶ谷グリーンランドビル1階": {
    "lat": 35.6799126,
    "lng": 139.70638499999998,
    "place_id": "ChIJw4NWZpKNGGARMqOwDWjOm34"
  },
  "place:FFF yoyogipark 渋谷区富ヶ谷1-2-8スタジオリオネビルB1": {
    "lat": 35.66979,
    "lng": 139.6896373,
    "place_id": "ChIJ1yMkSsHzGGARFB1Ohkhh_os"
  },
  "place:FIL# 渋谷区西原1-7-8ツインパレスk.i103": {
    "lat": 35.6738417,
    "lng": 139.68173009999998,
    "place_id": "ChIJe5iJbhvzGGARmsLdYELFgHY"
  },
  "place:FLORA BOX 85 渋谷区渋谷1-24-5ドクターズビルB1": {
    "lat": 35.6608385,
    "lng": 139.70203039999998,
    "place_id": "ChIJhQgD8KeMGGARgNo2H-nuE6Y"
  },
  "place:FOODISKOREA原宿店 渋谷区神宮前1-15-4Barbizon1階B号室": {
    "lat": 35.6710469,
    "lng": 139.7043325,
    "place_id": "ChIJ_3gRbumNGGARdeuIz3QU8Ug"
  },
  "place:FREAKY 渋谷区神山町43-2神山町ビル1F": {
    "lat": 35.665661899999996,
    "lng": 139.692343,
    "place_id": "ChIJSRBroLKMGGARBh5y3zVThR8"
  },
  "place:FRUITSONO 渋谷区広尾5-25-6シャトー広尾1F": {
    "lat": 35.64781190000001,
    "lng": 139.7214659,
    "place_id": "ChIJMYm23IyLGGARULimmy3oLhA"
  },
  "place:FULLMOoN 渋谷本店 渋谷区渋谷1-13-5大協渋谷ビル 7F": {
    "lat": 35.6600776,
    "lng": 139.7036475,
    "place_id": "ChIJu9wVUExfGGARo8Q8Ff9rdNY"
  },
  "place:FabuDine. 渋谷区広尾5-19-12広尾テラス1階": {
    "lat": 35.6484585,
    "lng": 139.7205308,
    "place_id": "ChIJ377_IVSLGGAR5AGLqOGweEI"
  },
  "place:Famiglia 渋谷区神宮前2-19-15コーポ松園202": {
    "lat": 35.6738029,
    "lng": 139.7105861,
    "place_id": "ChIJwTxZQb2MGGARaccbtwfXwbY"
  },
  "place:FiGARO原宿H-14 渋谷区神宮前2丁目19番13号J2ビル1F": {
    "lat": 35.673690199999996,
    "lng": 139.7103435,
    "place_id": "ChIJQ0AiR72MGGAR7pouTdx4SMc"
  },
  "place:Foods bar 栞屋 伏見・山科 京都": {
    "lat": 34.9323678,
    "lng": 135.76202139999998,
    "place_id": "ChIJe1RdBZIPAWARQ-Ug3BSSJMY"
  },
  "place:FoxTrot 渋谷区恵比寿南2-2-8神山ビル3階": {
    "lat": 35.646431,
    "lng": 139.70921859999999,
    "place_id": "ChIJxaKiVACLGGARxvyESV_Qgc0"
  },
  "place:GATO 渋谷区本町6-38-3松島ビル1階": {
    "lat": 35.680775,
    "lng": 139.6761473,
    "place_id": "ChIJC9Ttxt6NGGARWqOI2ocgMVg"
  },
  "place:GELATO BRAVO 渋谷区恵比寿西1-33-18コート代官山102": {
    "lat": 35.646771699999995,
    "lng": 139.7029412,
    "place_id": "ChIJs_mKwqCLGGARW6vELZOQFzE"
  },
  "place:GET BETTERcoffee&sandwich 渋谷区本町2-7-9": {
    "lat": 35.6836882,
    "lng": 139.6827325,
    "place_id": "ChIJOc6BNEfzGGAR0ssArvYXmG0"
  },
  "place:GRATIALLIGO 渋谷区代々木1-45-10NJビル1F": {
    "lat": 35.682231699999996,
    "lng": 139.6981405,
    "place_id": "ChIJ-etR0M6MGGARfArVDa9iNo0"
  },
  "place:Gallery Bar 余白 渋谷区本町2-1-7フォレスト初台102": {
    "lat": 35.6843925,
    "lng": 139.68517509999998,
    "place_id": "ChIJnc1F5hHzGGAROrZcs8E0UEc"
  },
  "place:GatemoTabum　ガテモタブン 渋谷区上原1-22-5": {
    "lat": 35.668420999999995,
    "lng": 139.68261959999998,
    "place_id": "ChIJO5QH9kjzGGARroZFocXbHLc"
  },
  "place:Green Sloth 渋谷区神泉町8-12ザ・シティ渋谷神泉3F": {
    "lat": 35.6557391,
    "lng": 139.6933991,
    "place_id": "ChIJl5UcqZiLGGAR42rwN_wsgD8"
  },
  "place:Grunge 渋谷区西原2-28-4宮嶋ビルB1-1": {
    "lat": 35.6752945,
    "lng": 139.6782364,
    "place_id": "ChIJ3QdesjvzGGARvccrgrlS3vY"
  },
  "place:HABURASHIBEERANDPOTATO 渋谷区道玄坂2-9-4道玄坂LEE-ONEビル3階": {
    "lat": 35.6587813,
    "lng": 139.6980754,
    "place_id": "ChIJvzKVcQmLGGARjips3CTbjf4"
  },
  "place:HACHI 渋谷区富ヶ谷1丁目53の2辰美ビル2階": {
    "lat": 35.6692294,
    "lng": 139.68820599999998,
    "place_id": "ChIJzcWIm0vzGGAR6AxNkdwz9H8"
  },
  "place:HACHIYAcurry 渋谷区神山町10-8グランドゥール101": {
    "lat": 35.6634732,
    "lng": 139.6945576,
    "place_id": "ChIJ4SDlonaNGGARmvqiY1tep20"
  },
  "place:HASUO 渋谷区広尾5-10-3フロストバード広尾1階": {
    "lat": 35.649496,
    "lng": 139.7210467,
    "place_id": "ChIJsbfaq2uLGGAR0RygA6m_kqw"
  },
  "place:HATO 渋谷区初台1-9-7T&Tビル101": {
    "lat": 35.6781169,
    "lng": 139.6871292,
    "place_id": "ChIJ1-9tYynzGGARE8641vv_J1Y"
  },
  "place:HATTO COFFEE 渋谷区神宮前2-18-19the Folks SHOP2": {
    "lat": 35.6730908,
    "lng": 139.7098336,
    "place_id": "ChIJBUsSSZ2NGGARoTHF_D5f2tc"
  },
  "place:HAUS 渋谷区神宮前2-14-5HAUS": {
    "lat": 35.6739311,
    "lng": 139.7117111,
    "place_id": "ChIJOxFjY1-NGGAR1XTyyXndTyM"
  },
  "place:HERO 渋谷区道玄坂2-8-8コスモ渋谷会館103号": {
    "lat": 35.661066399999996,
    "lng": 139.69721579999998,
    "place_id": "ChIJr7PXc6mMGGARP3105KKCqh0"
  },
  "place:HIDEAWAY 渋谷区千駄ヶ谷4-29-11玉造ビル2　B1F": {
    "lat": 35.6812124,
    "lng": 139.70378599999998,
    "place_id": "ChIJzxvutoeNGGARxIHcffJv3HA"
  },
  "place:HOFF 渋谷区初台2-11-11ステータスヒル初台1F": {
    "lat": 35.6759288,
    "lng": 139.6836801,
    "place_id": "ChIJn6r_KjHzGGARxlDEumMYVOY"
  },
  "place:HORAIYA 渋谷区神宮前2-19-10原電ビル1F-C": {
    "lat": 35.673258499999996,
    "lng": 139.7100371,
    "place_id": "ChIJe8hP7leNGGAR-oBsEJzc9iM"
  },
  "place:HOTSAND CAFE Forest DAIKANYAMA 渋谷区代官山町16-2": {
    "lat": 35.6498075,
    "lng": 139.7027683,
    "place_id": "ChIJn4BKJHSLGGARdD6SEkJDRkg"
  },
  "place:HUIT 渋谷区道玄坂2-17-1渋谷野武士ビル1F": {
    "lat": 35.6585374,
    "lng": 139.69654359999998,
    "place_id": "ChIJ6annXKSNGGAR0D2HWHc73HQ"
  },
  "place:HauS Bake&Cafe 渋谷区広尾5-17-6河上ビル1F": {
    "lat": 35.6494472,
    "lng": 139.720475,
    "place_id": "ChIJMWyytxKLGGARqq-r8ti7Ll8"
  },
  "place:Henderson 渋谷区宇田川町41-28茂木ビル101": {
    "lat": 35.6629515,
    "lng": 139.6950661,
    "place_id": "ChIJhQEqWwCNGGARrRQoE3VDAoM"
  },
  "place:Hotel Tanzer 渋谷区道玄坂2-29-18清水ビル7階": {
    "lat": 35.6586607,
    "lng": 139.6985762,
    "place_id": "ChIJIbjK1xyLGGAR-9IQVsUIv48"
  },
  "place:ICON 渋谷区代々木代々木1-41-4": {
    "lat": 35.6826878,
    "lng": 139.6997519,
    "place_id": "ChIJyc9j_M6MGGARwYUNTTlDJRA"
  },
  "place:ITACHI 渋谷区円山町1-3skビル　2F": {
    "lat": 35.6596791,
    "lng": 139.6954125,
    "place_id": "ChIJWcfFM6qMGGARSD4frANvMiw"
  },
  "place:InG 渋谷区本町2-43-4ヴァーチェストーンハウス1A": {
    "lat": 35.684608499999996,
    "lng": 139.6840186,
    "place_id": "ChIJN-2MNLXzGGARb7BLKpE9sus"
  },
  "place:Irish Pub Banshee 渋谷区宇田川町33-8エミリアビル1階": {
    "lat": 35.66080850000001,
    "lng": 139.6968652,
    "place_id": "ChIJSzfzlAKNGGARpzGesUScayQ"
  },
  "place:JAPANESE GELATERIA & CAFE ASANOHA 渋谷区恵比寿西1-8-11昴Aビル1階": {
    "lat": 35.6474526,
    "lng": 139.7083498,
    "place_id": "ChIJ_bF7BxKLGGARNF6MW8jQt7w"
  },
  "place:JB's TOKYO ミヤシタパーク店 渋谷区神宮前6-20-10MIYASHITA PARK SOUTH 2F": {
    "lat": 35.6614109,
    "lng": 139.7018728,
    "place_id": "ChIJ7QxD9QeNGGAR-OlXihUc_Rg"
  },
  "place:JB’s TOKYO 代々木本店 渋谷区代々木1-33-3": {
    "lat": 35.682799200000005,
    "lng": 139.7021823,
    "place_id": "ChIJI42jra-NGGARz8-Vdy1WPx4"
  },
  "place:KEBAB CAFE 渋谷区道玄坂2-25-10ベニー道玄坂ビル1階": {
    "lat": 35.660271699999996,
    "lng": 139.6971457,
    "place_id": "ChIJUTbpm6mMGGAR2VuGBpsiHEY"
  },
  "place:KITASANDO COFFEE 渋谷区千駄ヶ谷4丁目12-8SSUビル1F": {
    "lat": 35.678944,
    "lng": 139.7064308,
    "place_id": "ChIJuziVM6KNGGARf8D_CEUyVFI"
  },
  "place:KKW.softcream 渋谷区富ヶ谷1-8-2代々木ホームズ1階": {
    "lat": 35.6692256,
    "lng": 139.69035929999998,
    "place_id": "ChIJxdhi1-bzGGARHDWXvRpXzFU"
  },
  "place:KOBUSHI BEER LOUNGE & BAR 渋谷区道玄坂2-17-2トップ美奄 2F": {
    "lat": 35.658662199999995,
    "lng": 139.6965895,
    "place_id": "ChIJEcEPQ7iNGGARyZFxDXAqf_c"
  },
  "place:KO‐KO 渋谷区道玄坂2-26-5ひまわりビル2F": {
    "lat": 35.6593018,
    "lng": 139.697113,
    "place_id": "ChIJT7fq7KmMGGARNFsnaDyno-M"
  },
  "place:KUKUTANA 渋谷区桜丘町23番17号シティコート桜丘408": {
    "lat": 35.6556571,
    "lng": 139.6997131,
    "place_id": "ChIJXXEcPFeLGGAR9AqLXxKqrCI"
  },
  "place:KURA 渋谷店 渋谷区渋谷1-24-7渋谷フラットビル1F": {
    "lat": 35.6606112,
    "lng": 139.7021072,
    "place_id": "ChIJ2Umo8KeMGGAR1y1xt1BiXWM"
  },
  "place:KYOYA　THE　KIYOMIZU　御幸町 京都市中心部 京都": {
    "lat": 35.0045935,
    "lng": 135.7699264,
    "place_id": "ChIJG3YaPZUIAWARtX_jIz0BZII"
  },
  "place:Kouji＆ko ITALIAN 渋谷区桜丘町16-13桜丘フロントⅡビル2F": {
    "lat": 35.6567807,
    "lng": 139.7012255,
    "place_id": "ChIJjSlZgTOLGGARcyrpVlhXtqk"
  },
  "place:L.C.d.B 渋谷区代官山町15-8": {
    "lat": 35.6499813,
    "lng": 139.70291749999998,
    "place_id": "ChIJZdq9E0WLGGARzpkWSap-7uc"
  },
  "place:LA JUICE&BAR 渋谷区広尾5-1-40プラスリノ広尾3F": {
    "lat": 35.648938,
    "lng": 139.7178936,
    "place_id": "ChIJA93U-ZWLGGARe3NYYjiJ-sE"
  },
  "place:LA17 渋谷区道玄坂1-19-8斉丸道玄坂ビル2階": {
    "lat": 35.656697,
    "lng": 139.695819,
    "place_id": "ChIJjwkUE1yLGGARpRTaZcHdSGU"
  },
  "place:LAITIER(レティエ) 渋谷区千駄ヶ谷1-22-7Sビル1F": {
    "lat": 35.6791346,
    "lng": 139.7087681,
    "place_id": "ChIJbfvLAb-MGGARZ420NprWoao"
  },
  "place:LATTEST OMOTESANDO Espresso Bar 渋谷区神宮前3丁目5番2号EFビルディング1F": {
    "lat": 35.6691612,
    "lng": 139.7069181,
    "place_id": "ChIJWUDqTxSNGGARDaX-601m1VM"
  },
  "place:LATTEST SENDAGAYA 渋谷区千駄ヶ谷3-16-9": {
    "lat": 35.676163599999995,
    "lng": 139.7066934,
    "place_id": "ChIJkdE8XQCNGGARChwLv3rxLGg"
  },
  "place:LATURE French Restaurant 渋谷区渋谷2丁目2番2号青山ルカビルB1F": {
    "lat": 35.660762,
    "lng": 139.708599,
    "place_id": "ChIJ5S6oA1-LGGAREG-V6VQQP_0"
  },
  "place:LOCAVORE 渋谷区上原1-35-6水上ビル1-C": {
    "lat": 35.669475,
    "lng": 139.681671,
    "place_id": "ChIJVVVxFEjzGGAROmKOcr3L25k"
  },
  "place:LOCUS 渋谷区渋谷2-11-14ステージ青山　2階": {
    "lat": 35.6601364,
    "lng": 139.7071828,
    "place_id": "ChIJ3UTsCHyLGGARtn_VqgGBYhw"
  },
  "place:LUCEROKARAOKE＆BAR 渋谷区恵比寿南2-3-15ココスペース7F": {
    "lat": 35.6456541,
    "lng": 139.7077114,
    "place_id": "ChIJrWWfqYqLGGARjmpc8ge1IO0"
  },
  "place:LUCIAN 渋谷区代々木2-5-1羽田ビル 1F": {
    "lat": 35.687272899999996,
    "lng": 139.6974227,
    "place_id": "ChIJsVYNwNGMGGARCTSCtTPxShQ"
  },
  "place:LaCave 渋谷区西原1-50-8Grandstory代々木上原B1F": {
    "lat": 35.6744397,
    "lng": 139.6852288,
    "place_id": "ChIJdwlIAR3zGGARfTyR42XVSl0"
  },
  "place:LaLaChai 渋谷区幡ヶ谷2-18-4カナデール幡ヶ谷1F": {
    "lat": 35.6768522,
    "lng": 139.67479419999998,
    "place_id": "ChIJ6X72uNvzGGARJSacCZdGN60"
  },
  "place:Lasebiラセビ 渋谷区西原3丁目17番4号星と月と空とビル101": {
    "lat": 35.6700866,
    "lng": 139.68087549999998,
    "place_id": "ChIJVXYGZADzGGAR78n7UdXTHko"
  },
  "place:Laundry 渋谷区本町6-37-10": {
    "lat": 35.6809552,
    "lng": 139.6766862,
    "place_id": "ChIJM64TCuvzGGARTOW4lyFDVU4"
  },
  "place:Le Comptoirル・コントワール渋谷店チーズ・ナチュラルワイン 渋谷区宇田川町37-15": {
    "lat": 35.662569,
    "lng": 139.69513949999998,
    "place_id": "ChIJ7cZHD5yNGGARv1H-q60NKoE"
  },
  "place:LedianLounge 渋谷区恵比寿南2-3-14キュープラザ恵比寿南7F": {
    "lat": 35.645457,
    "lng": 139.707532,
    "place_id": "ChIJN4WSfuyLGGAR1f3V2UciAno"
  },
  "place:Les amis d'Ami 渋谷区広尾5-19-11U-Branch広尾": {
    "lat": 35.6485048,
    "lng": 139.7205303,
    "place_id": "ChIJ8xSJZ3uLGGARASYvXxpjmjE"
  },
  "place:Lib 渋谷区恵比寿1-25-112F": {
    "lat": 35.64656,
    "lng": 139.71607,
    "place_id": "ChIJZxEwoxSLGGAR8MNfIw5eJ0s"
  },
  "place:Life son 渋谷区代々木4-5-13レインボービル1階": {
    "lat": 35.6786806,
    "lng": 139.6924757,
    "place_id": "ChIJByYdbcuMGGARSyzMHXdXLGw"
  },
  "place:Lino 京都市中心部 京都": {
    "lat": 35.013142699999996,
    "lng": 135.7574449,
    "place_id": "ChIJT8RML4cIAWARGJ8c_dRAQrU"
  },
  "place:Living　 渋谷区富ヶ谷1-9-14堀口ビル102": {
    "lat": 35.667750399999996,
    "lng": 139.690779,
    "place_id": "ChIJt3Fxe3zzGGARcQOM5VvT-NU"
  },
  "place:Luna piena 渋谷区千駄ヶ谷4ー19ー12モンパルテ北参道 B1": {
    "lat": 35.6810531,
    "lng": 139.70790100000002,
    "place_id": "ChIJJwdVYdyNGGARzgber1NtnIA"
  },
  "place:M&Maison KYOTO Jr. 京都市中心部 京都": {
    "lat": 34.993663500000004,
    "lng": 135.7610334,
    "place_id": "ChIJD-j9uaQIAWARzCf1fEbIPSY"
  },
  "place:M&Maison KYOTO 京都市中心部 京都": {
    "lat": 34.993663500000004,
    "lng": 135.7610334,
    "place_id": "ChIJD-j9uaQIAWARzCf1fEbIPSY"
  },
  "place:MAGICAMENTE 渋谷区恵比寿3-41-9恵比寿台ハイツ102": {
    "lat": 35.643906,
    "lng": 139.719083,
    "place_id": "ChIJ183CfhGLGGARlponaJK_qzE"
  },
  "place:MAISON BIEN-ETRE 渋谷区上原1-17-11-3F": {
    "lat": 35.669215699999995,
    "lng": 139.68233,
    "place_id": "ChIJhUm8tMPzGGARvLgUMcKAHSQ"
  },
  "place:MATAHARI 渋谷区恵比寿南1-1-3マツダイビル3階": {
    "lat": 35.6465452,
    "lng": 139.7087138,
    "place_id": "ChIJdbBE-UCLGGARPsTsbwTcp7w"
  },
  "place:MATOIYA　表参道店 渋谷区神宮前5-50-6中島ビルB1F": {
    "lat": 35.6629471,
    "lng": 139.7098957,
    "place_id": "ChIJF3Jzjl-LGGARp9SoidQ44yk"
  },
  "place:MEAT＆OYSTER kairi 渋谷区道玄坂1-11-1第二大番ビル203": {
    "lat": 35.6577505,
    "lng": 139.69867589999998,
    "place_id": "ChIJOe-kSlaLGGARzaA8GgVqXs8"
  },
  "place:MEXIPON TOKYO 渋谷区幡ヶ谷2-47-1ダイショービル1F": {
    "lat": 35.6791589,
    "lng": 139.6772396,
    "place_id": "ChIJ99zQcGvzGGARU80LDA0s7ME"
  },
  "place:MIGO Daikanyama 渋谷区代官山町13-8": {
    "lat": 35.6504243,
    "lng": 139.7048989,
    "place_id": "ChIJQQYJWF-LGGARtRhIUIA_RrA"
  },
  "place:MIL TACOS 笹塚店 渋谷区笹塚3-17-4": {
    "lat": 35.6769381,
    "lng": 139.6676464,
    "place_id": "ChIJkfAsHX7zGGAR3jWuen4uJQQ"
  },
  "place:MISOYA. 渋谷区西原3-1-1": {
    "lat": 35.668345599999995,
    "lng": 139.6829277,
    "place_id": "ChIJj7PAM-HzGGARboVnkM3sTaI"
  },
  "place:MIYASHITA CAFE +softcream 渋谷区神宮前6-20-10MIYASHITA PARK  South 2F 20200": {
    "lat": 35.6608798,
    "lng": 139.70172,
    "place_id": "ChIJQTkMFplFGGAR_BXksLzcmyE"
  },
  "place:MK  snack & bar 渋谷区桜丘町16-8アトラス桜丘ビル2階": {
    "lat": 35.6564506,
    "lng": 139.7009297,
    "place_id": "ChIJ-bziJACLGGARL-wrIcA0Ns0"
  },
  "place:MOKUBAZA 渋谷区神宮前2-28-12一階": {
    "lat": 35.6745677,
    "lng": 139.709485,
    "place_id": "ChIJwQ9ZBr2MGGARgdl94kw6eYI"
  },
  "place:MOMINOKI HOUSE 渋谷区神宮前2-18-5大網ビル1f": {
    "lat": 35.6725262,
    "lng": 139.7098164,
    "place_id": "ChIJx_3ezKKMGGARQEOKPcBptaE"
  },
  "place:MOMO Stand Tokyo 渋谷区広尾5-18-8-1F": {
    "lat": 35.649022599999995,
    "lng": 139.7205141,
    "place_id": "ChIJK9LnanCLGGARb8JkcRynMJk"
  },
  "place:MONTEMEAT 渋谷区代々木2-14-1新宿松本ビル地下1F": {
    "lat": 35.686855,
    "lng": 139.6967414,
    "place_id": "ChIJQe2ulN6NGGAR0_3EHZ8rqj4"
  },
  "place:MOTOYA Book Cafe Gallery 渋谷区初台2-24-7": {
    "lat": 35.676077,
    "lng": 139.68552,
    "place_id": "ChIJXb6ZrzbzGGARhwu_dy2_UWg"
  },
  "place:MU Coffee 渋谷区猿楽町12-35t+Daikanyama1F": {
    "lat": 35.6487772,
    "lng": 139.7012887,
    "place_id": "ChIJlVmtgE-LGGARjJenom1Dg-M"
  },
  "place:MUGE 渋谷区富ヶ谷1-9-20リンデン代々木公園1F": {
    "lat": 35.668348,
    "lng": 139.6902868,
    "place_id": "ChIJE7T3ygvzGGARCrZijyJ6keU"
  },
  "place:MUJOあさひる 渋谷区富ヶ谷1-3-14": {
    "lat": 35.6694715,
    "lng": 139.68933859999999,
    "place_id": "ChIJT9_2b0vzGGARH3IDeOfTpSQ"
  },
  "place:MUKAN78 渋谷区本町2-7-12キッチンゲートNo3": {
    "lat": 35.683882000000004,
    "lng": 139.6832688,
    "place_id": "ChIJWeLKPwDzGGARYPaqJlmVlsE"
  },
  "place:ManaTee 渋谷区富ヶ谷1-14-169": {
    "lat": 35.6671495,
    "lng": 139.69122969999998,
    "place_id": "ChIJAZeE1LKMGGARQfh6xThzmbo"
  },
  "place:Mareana 渋谷区道玄坂2-18-7ヴィラフルデリ201": {
    "lat": 35.658881699999995,
    "lng": 139.695824,
    "place_id": "ChIJideWGKqMGGAR2HTgkOucvRs"
  },
  "place:Mariposa 渋谷区神山町40-2　2F": {
    "lat": 35.6649816,
    "lng": 139.69277499999998,
    "place_id": "ChIJcz6P53iNGGARsDgadS1Fhbw"
  },
  "place:Matilda coffee&veganbakes 渋谷区神宮前3-42-11ローザビアンカ105": {
    "lat": 35.6718214,
    "lng": 139.7139354,
    "place_id": "ChIJXzhc6amPGGAR4ReEziu1SiE"
  },
  "place:Melt 渋谷区恵比寿西1丁目4番地7号Lier Ebisu 2F": {
    "lat": 35.6483692,
    "lng": 139.7081388,
    "place_id": "ChIJz0CS1ueLGGARuDlrgqeWWNk"
  },
  "place:Mi Choripan 渋谷区上原2-4-8": {
    "lat": 35.6678711,
    "lng": 139.68352199999998,
    "place_id": "ChIJtzu14UjzGGARIOKWezetu5Q"
  },
  "place:Miki’s Art Cafe 渋谷区幡ヶ谷3-16-3コーポ保科1階": {
    "lat": 35.679856699999995,
    "lng": 139.6733682,
    "place_id": "ChIJF1f6yiPzGGARNkW3u6Cff88"
  },
  "place:Minoaka Deli&Cafe 渋谷区神宮前2-6-10COLAL Bldg. 1F": {
    "lat": 35.672760499999995,
    "lng": 139.71154149999998,
    "place_id": "ChIJR-r2iPCNGGARXxwGtcbsIes"
  },
  "place:Modern Thai CIEL 渋谷区千駄ヶ谷4-22-4メゾンドボナール　1F": {
    "lat": 35.68024140000001,
    "lng": 139.70590149999998,
    "place_id": "ChIJUVAvNgCNGGAR5a7t0GOiuFk"
  },
  "place:Mokita 渋谷区西原3-4-5山田ビル101": {
    "lat": 35.6701829,
    "lng": 139.68169600000002,
    "place_id": "ChIJT59KTxXzGGARTrN9uZT-r6Q"
  },
  "place:Ms Bar oeld 渋谷区上原1-1-23ステイエム代々木公園1階": {
    "lat": 35.668658,
    "lng": 139.68764270000003,
    "place_id": "ChIJV2Rs0YTzGGAR-1r9U_gNJb0"
  },
  "place:Munu 渋谷区笹塚3-9-3105": {
    "lat": 35.677377799999995,
    "lng": 139.6695773,
    "place_id": "ChIJcWphFOrzGGARuCHw_dkdkYk"
  },
  "place:MyRoom雲母 渋谷区広尾5-17-4-3F": {
    "lat": 35.6498197,
    "lng": 139.7203635,
    "place_id": "ChIJAQAAAG2LGGARvK8tA-yBrXU"
  },
  "place:N9Y　奥渋店 渋谷区宇田川町37-11大久保ビル　1階": {
    "lat": 35.6622376,
    "lng": 139.6955647,
    "place_id": "ChIJF35m2M-NGGARzYoXaMvoLq0"
  },
  "place:NUTS&MILK 渋谷区本町6-38-4-1階店舗": {
    "lat": 35.6808131,
    "lng": 139.6760774,
    "place_id": "ChIJxVy0dCTzGGARjqCOC9Mrb58"
  },
  "place:NachuRa 渋谷区富ヶ谷1-17-7第二山栄ビル1階": {
    "lat": 35.66637720000001,
    "lng": 139.6919251,
    "place_id": "ChIJh2ai81GNGGARQyX2os2OAow"
  },
  "place:Newzea Platform 渋谷区神山町42-3 3FNewzea Platform": {
    "lat": 35.6655022,
    "lng": 139.6923819,
    "place_id": "ChIJk17AoLKMGGARsZOcw9SnCxI"
  },
  "place:Niku gang 渋谷店 渋谷区道玄坂2-25-10ベニー清建ビル 5F": {
    "lat": 35.660271,
    "lng": 139.6971402,
    "place_id": "ChIJt65S4A2NGGARR4d5x6P4X9k"
  },
  "place:Noir 渋谷区恵比寿南3-1-25Ice Cube 5F": {
    "lat": 35.6460884,
    "lng": 139.7063143,
    "place_id": "ChIJ81oC1UaLGGARG0gLO-uDBvs"
  },
  "place:O'denbarうまみ代官山店 渋谷区代官山町13-8キャッスルマンション代官山104": {
    "lat": 35.6503144,
    "lng": 139.7046763,
    "place_id": "ChIJj59YUg-LGGARwIgcL33UqX8"
  },
  "place:OBENKEI 京都祇園店 祇園・東山 京都": {
    "lat": 35.005655,
    "lng": 135.7740566,
    "place_id": "ChIJJ_hinKAJAWARQY2NF1nZ7bU"
  },
  "place:OBUCAFE 嵐山 京都": {
    "lat": 35.015249499999996,
    "lng": 135.6775011,
    "place_id": "ChIJL6ftzf-pAWAR9OR2wUFqILQ"
  },
  "place:OKEI TAPROOM オケタプ 渋谷区代々木一丁目52-4ベルテ南新宿B1階": {
    "lat": 35.6834655,
    "lng": 139.6994542,
    "place_id": "ChIJy99POwCNGGARvCXWU_jsMaU"
  },
  "place:ONZE 渋谷区笹塚3-19-2": {
    "lat": 35.67731,
    "lng": 139.66697299999998,
    "place_id": "ChIJtVJ1PxnzGGARLXqAMODIeH4"
  },
  "place:ONZS 渋谷区猿楽町2-14プラスリノ猿楽町3F": {
    "lat": 35.653448999999995,
    "lng": 139.7048697,
    "place_id": "ChIJtz68fhqLGGARkfUXnmZxhg4"
  },
  "place:OOTONG RUM HALL 渋谷区幡ヶ谷2-47-11田口ビル1階": {
    "lat": 35.679221399999996,
    "lng": 139.6771499,
    "place_id": "ChIJAdDczKjzGGAR_L6O3eg9ntg"
  },
  "place:OTOTOJET 京都市中心部 京都": {
    "lat": 35.043541,
    "lng": 135.7508952,
    "place_id": "ChIJ22h1PF0HAWARbIQog7gGl8Q"
  },
  "place:OURDAYS 渋谷区笹塚3-40-1": {
    "lat": 35.678869899999995,
    "lng": 139.6683333,
    "place_id": "ChIJG772VOTzGGARE3mnva07IUE"
  },
  "place:Ocho Taqueria Mexican オーチョ タケリア メキシカン 渋谷区神宮前2丁目3-30 B1F第2竹上ビル": {
    "lat": 35.6744445,
    "lng": 139.7134171,
    "place_id": "ChIJ6eaeAxONGGARgptO3QDkcUw"
  },
  "place:On The Wine 渋谷区桜丘町30-9桜丘芳和ビルB1": {
    "lat": 35.6551682,
    "lng": 139.69814399999998,
    "place_id": "ChIJQRxmrN6LGGARA0sDQuWM5SM"
  },
  "place:One Trick Pony 渋谷区道玄坂1-11-1第二大番ビル502": {
    "lat": 35.6577505,
    "lng": 139.69867589999998,
    "place_id": "ChIJ7fFZQPCLGGARlJW8CLu2LaQ"
  },
  "place:Osteria Ricco 渋谷区幡ヶ谷1-33-6ビューハイム幡ヶ谷102": {
    "lat": 35.6764145,
    "lng": 139.6765442,
    "place_id": "ChIJ00mvQjvzGGARjr9Xa79r4dY"
  },
  "place:PDX TAPROOM 渋谷区神宮前5-30-2第一タカラビル202": {
    "lat": 35.664169,
    "lng": 139.703528,
    "place_id": "ChIJEb8zXKaMGGARd7wrrtISQGo"
  },
  "place:PIZZA SLICE 渋谷区猿楽町1-3 1F": {
    "lat": 35.6535158,
    "lng": 139.7051046,
    "place_id": "ChIJQ9wNFVuLGGARwWj00x_zdGc"
  },
  "place:POPOPEKU 渋谷区本町2-43-4ヴァーチェストーンハウス1A": {
    "lat": 35.684608499999996,
    "lng": 139.6840186,
    "place_id": "ChIJN-2MNLXzGGARb7BLKpE9sus"
  },
  "place:PORT TOMIGAYA 渋谷区富ヶ谷2-20-1Luisd.T.Bldg. 1F": {
    "lat": 35.6625672,
    "lng": 139.6873287,
    "place_id": "ChIJwXZepXrzGGARpQKv7LbPxXk"
  },
  "place:POTSUNTO 渋谷区広尾1-15-5": {
    "lat": 35.6484671,
    "lng": 139.7121529,
    "place_id": "ChIJewb6LwCLGGARkLq9_89nQXs"
  },
  "place:PUBLIC HOUSE EPILOGUE 渋谷区恵比寿南恵比寿1-6-3ゼネラルビル恵比寿イーストB1": {
    "lat": 35.647863699999995,
    "lng": 139.7111894,
    "place_id": "ChIJ9bIu00GLGGARG_vgPZpOpR4"
  },
  "place:PUERTAsakuragaoka 渋谷区桜丘17-12ジョンソンビル2F-R": {
    "lat": 35.6560878,
    "lng": 139.7028545,
    "place_id": "ChIJGyRcEwCLGGARqsP0XkZ5n7s"
  },
  "place:PUPU MARUCO 渋谷区富ヶ谷1-2-15代々木八幡ビル": {
    "lat": 35.6693249,
    "lng": 139.6886748,
    "place_id": "ChIJ0cIIVoHzGGARHtgBQwnOQEU"
  },
  "place:PerrosPerras 渋谷区元代々木町9番6号1階": {
    "lat": 35.669950199999995,
    "lng": 139.68579839999998,
    "place_id": "ChIJMR9lNyPzGGARPD_MVrfl_mg"
  },
  "place:PiNCHO! 渋谷区桜丘町1-4渋谷サクラステージ　SHIBUYAサイド　1階": {
    "lat": 35.6568664,
    "lng": 139.70187049999998,
    "place_id": "ChIJSeBSOwCLGGARWM-8X2_hBPk"
  },
  "place:Pieni Joki Coffee 渋谷区笹塚3-14-1荻野荘1F": {
    "lat": 35.677310999999996,
    "lng": 139.667205,
    "place_id": "ChIJ76Z6PhnzGGARWybbW1W_hpI"
  },
  "place:Pigeon 渋谷区上原3-1-3タカダビル1F": {
    "lat": 35.6677902,
    "lng": 139.6816389,
    "place_id": "ChIJeQqldj2NGGAR9ASSfpwPy0Y"
  },
  "place:Pintology 渋谷区笹塚1-33-10香樹ハイツ101": {
    "lat": 35.672486600000006,
    "lng": 139.6659961,
    "place_id": "ChIJazH_iKTzGGARpfd5ZzKaH34"
  },
  "place:Poker Room P3 渋谷区恵比寿西1-33-25コリーヌ代官山2階": {
    "lat": 35.6467688,
    "lng": 139.70316359999998,
    "place_id": "ChIJn476-SSLGGARfb53iVAKyvA"
  },
  "place:QUEEN MAJESTEA 渋谷区幡ヶ谷3-16-7Repia-M102": {
    "lat": 35.6801131,
    "lng": 139.6735282,
    "place_id": "ChIJibb89nbzGGAR7nPYcEVhpaw"
  },
  "place:Queen's Collection Chocolate Cafe 渋谷区猿楽町25-3": {
    "lat": 35.648724,
    "lng": 139.7015008,
    "place_id": "ChIJx3HggUWLGGAR3b4HPMc2hyU"
  },
  "place:RACCOS　BAR 渋谷区幡ヶ谷1丁目7佐藤ビル1階": {
    "lat": 35.6776941,
    "lng": 139.6791079,
    "place_id": "ChIJ4xZpwzrzGGAROuOOhx_UgY0"
  },
  "place:RAJA 渋谷区代々木4-2-8ピースビル1階": {
    "lat": 35.678734399999996,
    "lng": 139.6932812,
    "place_id": "ChIJAQAAAM2MGGARzTGgCRUC1p4"
  },
  "place:REI 渋谷区元代々木町10-8関ビル1階": {
    "lat": 35.670140499999995,
    "lng": 139.68449719999998,
    "place_id": "ChIJuYMf-2_zGGARwqRg25zjQpo"
  },
  "place:REST 渋谷区代々木3-6-7": {
    "lat": 35.6831636,
    "lng": 139.6952109,
    "place_id": "ChIJ3UAwwdSNGGAR1LRoIqHRVkw"
  },
  "place:RIMSHOT ETHEREAL 渋谷区笹塚2-41-17滝沢ビルB1": {
    "lat": 35.676196399999995,
    "lng": 139.667776,
    "place_id": "ChIJowfE7lnzGGARDRrD9PGh5RU"
  },
  "place:ROSTRO 渋谷区富ヶ谷1-14-20サウスピア1階": {
    "lat": 35.667043199999995,
    "lng": 139.6917939,
    "place_id": "ChIJAQD8z7KMGGAR6rUl3gbCh_I"
  },
  "place:Re:boot 渋谷区本町2-39-2サワハウス1F": {
    "lat": 35.683969000000005,
    "lng": 139.6831245,
    "place_id": "ChIJQ-DychXzGGARHvZdrQeTJtA"
  },
  "place:Restaurant DA CIRO 祇園・東山 京都": {
    "lat": 35.0040681,
    "lng": 135.77485199999998,
    "place_id": "ChIJC4NukjgJAWARLBNmT00DjX8"
  },
  "place:Restaurant Koke 京都市中心部 京都": {
    "lat": 35.0125637,
    "lng": 135.75822639999998,
    "place_id": "ChIJaaNHaXMJAWARrWc6YuCKh7Y"
  },
  "place:Restaurant La Chambre 渋谷区西原3-7-5渡部ビル2F": {
    "lat": 35.669891799999995,
    "lng": 139.6808598,
    "place_id": "ChIJtyAS_kfzGGARE6I-lBjgamQ"
  },
  "place:Restaurant MOTOI 京都市中心部 京都": {
    "lat": 35.0127239,
    "lng": 135.7648125,
    "place_id": "ChIJ3Xhn6Y4IAWAR_sP7HsRz7ws"
  },
  "place:Ryuda 渋谷区千駄ヶ谷4-29-12北参道ダイヤモンドパレス111": {
    "lat": 35.681039399999996,
    "lng": 139.7038643,
    "place_id": "ChIJSbuGFwKNGGARJjeRBJl7uS8"
  },
  "place:Ryukyu Chinese Dining TAMA 渋谷区渋谷2-3-2藤本ビル　2F": {
    "lat": 35.659822999999996,
    "lng": 139.70878779999998,
    "place_id": "ChIJez-B9l6LGGARI1lGInrBLEI"
  },
  "place:SAKUU 渋谷区千駄ヶ谷3-55-18REALGATE Bldg. 1F": {
    "lat": 35.675356,
    "lng": 139.7058705,
    "place_id": "ChIJhUihdjiNGGAR908KHWVBnSI"
  },
  "place:SALA ridente 渋谷区恵比寿西2-17-22アプリュスII 一階": {
    "lat": 35.6490454,
    "lng": 139.70626529999998,
    "place_id": "ChIJLbV3CUSLGGAR8f5MqyW0xXw"
  },
  "place:SAM 渋谷区代々木4-45-5パークテラス参宮橋101": {
    "lat": 35.6793842,
    "lng": 139.69063889999998,
    "place_id": "ChIJ-7m1KTXzGGARguKxMxod8e8"
  },
  "place:SASASA dining 渋谷区笹塚3-19-5大泉商店ビル102": {
    "lat": 35.6770213,
    "lng": 139.66736659999998,
    "place_id": "ChIJe7bFFhnzGGARamh3e3SnSfY"
  },
  "place:SCARLET 渋谷区上原2-42-17": {
    "lat": 35.6670746,
    "lng": 139.68116179999998,
    "place_id": "ChIJcWFMTWTzGGAR5bwrFs7XnTo"
  },
  "place:SCOO 渋谷区神宮前2-18-7フードビル103": {
    "lat": 35.6723889,
    "lng": 139.7096564,
    "place_id": "ChIJoRNTwVSNGGAR9-NI3k_luwU"
  },
  "place:SEN 渋谷区神泉町8番地13号アーガス霜田ビル101号室": {
    "lat": 35.6557368,
    "lng": 139.6934782,
    "place_id": "ChIJd6PZEbaLGGARDGUOMLH2TM0"
  },
  "place:SENNE 渋谷区幡ヶ谷2-47-1ダイショービル1F及びB1F": {
    "lat": 35.6791589,
    "lng": 139.6772396,
    "place_id": "ChIJ3SwazWzzGGAR-oSv2YiWpSA"
  },
  "place:SERENDIPITY FARMERS  SOFTCREAM 渋谷区代々木5-55-5": {
    "lat": 35.6779882,
    "lng": 139.6916745,
    "place_id": "ChIJK02zDxyNGGARWS0a_8lfiow"
  },
  "place:SHARK COFFEE 渋谷区宇田川町2-1渋谷ホームズ1F": {
    "lat": 35.663663,
    "lng": 139.6987557,
    "place_id": "ChIJob9XVR2NGGARMH-_uhd9apc"
  },
  "place:SHIBUYA BALL 渋谷区宇田川町4番9号くれたけビル 4階": {
    "lat": 35.6624804,
    "lng": 139.6977086,
    "place_id": "ChIJFci2OamMGGAREDy3h6WKd0g"
  },
  "place:SHUTTERS表参道 渋谷区神宮前6-28-6キュープラザ原宿3F": {
    "lat": 35.6669378,
    "lng": 139.70408659999998,
    "place_id": "ChIJA5VbSqSMGGARaHgYVx1yC8s"
  },
  "place:SHUWASHUWA PEACE 渋谷区幡ヶ谷3-16-3幡ヶ谷ハウス102": {
    "lat": 35.6797599,
    "lng": 139.6734495,
    "place_id": "ChIJTa2GFwjzGGAR0T0vcoSrc00"
  },
  "place:SOTARTE 代々木上原 渋谷区上原1-18-7第五大貴ビル1階": {
    "lat": 35.6685489,
    "lng": 139.6827226,
    "place_id": "ChIJiZmEpwTzGGARYo5EWAVBnoY"
  },
  "place:SOWAT 渋谷区千駄ヶ谷3-36-2アトラス原宿1階": {
    "lat": 35.6923402,
    "lng": 139.70919580000003,
    "place_id": "ChIJaS6eXv2NGGAR_SiHycLFvos"
  },
  "place:SPACE&CAFE BANKSIA 渋谷区神宮前3-20-3石井ビル1F": {
    "lat": 35.6704126,
    "lng": 139.7084066,
    "place_id": "ChIJvTShGqOMGGARfRuig0WOrFs"
  },
  "place:SPLASH 渋谷区笹塚3-19-6萩原ビル2F": {
    "lat": 35.6769217,
    "lng": 139.66741919999998,
    "place_id": "ChIJMe_mEBnzGGARGxFbjYwgtOY"
  },
  "place:STUNNER 渋谷区神宮前3-42-2VORT外苑前3 B1": {
    "lat": 35.670541899999996,
    "lng": 139.7139958,
    "place_id": "ChIJNe2WMgCNGGAR2Hwn0qA7XQU"
  },
  "place:SUNNY LOT 渋谷区神宮前1-1-8-102": {
    "lat": 35.673870199999996,
    "lng": 139.7067126,
    "place_id": "ChIJ235dKoyNGGARxcsD_r7fd5E"
  },
  "place:SUPPLY 渋谷区幡ヶ谷1-5-6金井ビル　1階": {
    "lat": 35.6764498,
    "lng": 139.6749369,
    "place_id": "ChIJucqVLGvzGGAR2TOFK2JSt_Y"
  },
  "place:Salt恵比寿 渋谷区恵比寿南1-3-2エルスタンザ恵比寿B1F": {
    "lat": 35.645669000000005,
    "lng": 139.708188,
    "place_id": "ChIJuy_57ECLGGARi8l9OsgQP5s"
  },
  "place:San. 渋谷区上原1-2-1": {
    "lat": 35.668104899999996,
    "lng": 139.6872589,
    "place_id": "ChIJ8cPCtSDzGGARP34-R2COxA4"
  },
  "place:SandoSando 渋谷区代々木4-50-8参宮橋ゲストハウス1階": {
    "lat": 35.678169,
    "lng": 139.691776,
    "place_id": "ChIJ_3QgRsuMGGAR60Uta0kkRfk"
  },
  "place:Sevres Cafe 渋谷区神宮前4丁目-11-2高野ビルB1F": {
    "lat": 35.666786099999996,
    "lng": 139.7101521,
    "place_id": "ChIJVWXnSQCNGGARtY5a2oRs8AQ"
  },
  "place:Shibuya　Fromage　倶楽部　 渋谷区道玄坂2-10-1": {
    "lat": 35.6577542,
    "lng": 139.6965223,
    "place_id": "ChIJofuZBlaLGGARtgVnKRqDZQQ"
  },
  "place:Shisha bar Lilac 渋谷区円山町5-14スタービル3階": {
    "lat": 35.657106000000006,
    "lng": 139.69488339999998,
    "place_id": "ChIJI3wfskqLGGARp21wCdCFpJg"
  },
  "place:Spice　Chill 渋谷区恵比寿1-20-1コンフォート恵比寿3F": {
    "lat": 35.6460873,
    "lng": 139.7091477,
    "place_id": "ChIJq3hLRf-LGGARgvm5sWhSfFE"
  },
  "place:Spicy Flower 渋谷区本町2-46-1第三市田ビル": {
    "lat": 35.684629699999995,
    "lng": 139.6852748,
    "place_id": "ChIJU01hiNzzGGAR7E2eMDNWs0Y"
  },
  "place:Spirare Ebisu 渋谷区東3-24-7EBIS EAST GALLERY": {
    "lat": 35.648983199999996,
    "lng": 139.7095267,
    "place_id": "ChIJV3RN-mmLGGARaIXmAn7Mjew"
  },
  "place:Sputnik 渋谷区恵比寿西2-18-6代官山ウイング101": {
    "lat": 35.6495971,
    "lng": 139.7052249,
    "place_id": "ChIJC5TbTkqLGGARjYucEKoTfOw"
  },
  "place:Stars☆Tokyo 渋谷区広尾1-15-6ヒーロービル一階": {
    "lat": 35.6484496,
    "lng": 139.7124148,
    "place_id": "ChIJP-j0XtiLGGARiTLxw5cNyUc"
  },
  "place:T4KITCHEN 渋谷区神南1-12-16ASIABUILDING 1F": {
    "lat": 35.662679,
    "lng": 139.7005906,
    "place_id": "ChIJWQ5gkKiMGGAR4aCFNceg_A0"
  },
  "place:TAKASEGAWA 京都市中心部 京都": {
    "lat": 35.00146,
    "lng": 135.7694127,
    "place_id": "ChIJ14qZKfYJAWARyy-a8MwLh18"
  },
  "place:TAKESUE 渋谷区幡ヶ谷2-9-12コートリーブル105": {
    "lat": 35.6789957,
    "lng": 139.6772795,
    "place_id": "ChIJGbiT_UXzGGARN9KKG1oPgKE"
  },
  "place:TANA diner 渋谷区元代々木町 9-6TANA diner": {
    "lat": 35.669910300000005,
    "lng": 139.6858469,
    "place_id": "ChIJETjHgUnzGGARALWI-QwSFyk"
  },
  "place:TANTO TANTO OSTERIA　アトレ恵比寿 渋谷区恵比寿南1-5-5アトレ恵比寿店6F": {
    "lat": 35.6470553,
    "lng": 139.70958560000003,
    "place_id": "ChIJSdVkP0CLGGARQufLFk8bI2c"
  },
  "place:TAS YARD 渋谷区千駄ヶ谷3-3-14メゾンブランシュ101": {
    "lat": 35.6755886,
    "lng": 139.70573299999998,
    "place_id": "ChIJuW1uWLmMGGAR9vxc5gsmk5A"
  },
  "place:THAI THAN 渋谷区恵比寿1-22-10GranDuo恵比寿3 1階": {
    "lat": 35.647198599999996,
    "lng": 139.7073823,
    "place_id": "ChIJhZFRiO-LGGAR7ehPbiwQvcQ"
  },
  "place:THAうちあげ 渋谷区笹塚2-7-9ライブイン笹塚1階": {
    "lat": 35.6751758,
    "lng": 139.669104,
    "place_id": "ChIJewI61N3zGGARUq4K7AdgRf4"
  },
  "place:THE ALDGATE British Pub 渋谷区宇田川町30-4新岩崎ビル3F": {
    "lat": 35.6607614,
    "lng": 139.6979594,
    "place_id": "ChIJ9XzDpqmMGGARhPWN1LP_S8A"
  },
  "place:THE BLUE POSTS 渋谷区恵比寿1-8-14大黒ビル1階 28": {
    "lat": 35.647701399999995,
    "lng": 139.7099313,
    "place_id": "ChIJmcw7E9uLGGARCK4FyUbqpyU"
  },
  "place:THE COFFEESHOP ROAST WORKS 渋谷区富ヶ谷2-22-12Vitre Yoyogi Park 1F": {
    "lat": 35.6840123,
    "lng": 139.6949486,
    "place_id": "ChIJTWusCl-NGGARiiUnot6mN88"
  },
  "place:THE GRUB 代々木上原 渋谷区上原1-32-15第二小林ビル2階": {
    "lat": 35.668791399999996,
    "lng": 139.67992619999998,
    "place_id": "ChIJQZqW60fzGGARGLgGI3Rlw4Y"
  },
  "place:THE LINKING アメリカンダイナー 渋谷区神南1-14-9 第7FMGビル　1F": {
    "lat": 35.6638452,
    "lng": 139.7000589,
    "place_id": "ChIJtW3NR-2NGGARS4hCOy4PllE"
  },
  "place:THE OAK LEAF 渋谷区東2-17-12十一ビル　1階": {
    "lat": 35.6527151,
    "lng": 139.7091394,
    "place_id": "ChIJXcT54EKLGGARNcjxhgZgW18"
  },
  "place:THE TEST KITCHEN 渋谷区恵比寿4丁目20-4恵比寿ガーデンプレイス グラススクエア B1F POTAL POINT Ebisu E": {
    "lat": 35.6426363,
    "lng": 139.71290059999998,
    "place_id": "ChIJRyUuS5WLGGARVWkWVFycIMo"
  },
  "place:THE THEATRE TABLE 渋谷区渋谷2-21-1渋谷ヒカリエ 11F": {
    "lat": 35.659055099999996,
    "lng": 139.7035292,
    "place_id": "ChIJ43YiUFiLGGARlsXC9pTlrlA"
  },
  "place:TOKYO KAKI STAND 渋谷道玄坂 渋谷区道玄坂2-16-1ミノハナビル1F": {
    "lat": 35.6589724,
    "lng": 139.6969757,
    "place_id": "ChIJw6sMdTWNGGARLtNXugQ3AcU"
  },
  "place:TOMATO 渋谷区恵比寿西2-8-9代官山宝ビル3階": {
    "lat": 35.6492406,
    "lng": 139.7075888,
    "place_id": "ChIJF6-PMeqLGGAR4vuZAIO9Ps8"
  },
  "place:TOMBOY円山町店 渋谷区円山町10-13": {
    "lat": 35.6591295,
    "lng": 139.694388,
    "place_id": "ChIJWfXGT6qMGGARIdq1-1DfUEI"
  },
  "place:TORIPLETTA 渋谷区上原1-33-16オーツカビル201": {
    "lat": 35.6693479,
    "lng": 139.6810636,
    "place_id": "ChIJn-spCkjzGGAR8OjTRyN-Lzg"
  },
  "place:TRATTORIA TREVALLI 伏見・山科 京都": {
    "lat": 34.9350926,
    "lng": 135.7610574,
    "place_id": "ChIJVVUV0Y8PAWARtHjH4X39Rwg"
  },
  "place:TREEbyNAKEDyoyogipark 渋谷区富ヶ谷1丁目10-2CITTA代々木公園1F": {
    "lat": 35.6682768,
    "lng": 139.69127699999999,
    "place_id": "ChIJw6V9M7OMGGARcNj1PoXV6o4"
  },
  "place:TUTTI 渋谷区上原2-42-17": {
    "lat": 35.6671273,
    "lng": 139.68119249999998,
    "place_id": "ChIJl4-DeqjzGGAR1eCmEaw-Nd4"
  },
  "place:Table by S 渋谷区西原3-23-6プラド2F": {
    "lat": 35.670473900000005,
    "lng": 139.6831785,
    "place_id": "ChIJwZMrLEjzGGAR3W05GVrHeX8"
  },
  "place:Taki AKANE 渋谷区道玄坂1-11-1第2大番ビル404": {
    "lat": 35.6577505,
    "lng": 139.69867589999998,
    "place_id": "ChIJOxlo0vuLGGARB8W_cFOtMG8"
  },
  "place:Taki 渋谷区桜丘町17-12渋谷ジョンソンビル3F": {
    "lat": 35.6577505,
    "lng": 139.69867589999998,
    "place_id": "ChIJOxlo0vuLGGARB8W_cFOtMG8"
  },
  "place:The Bake 渋谷区鶯谷町7-6磯田ビル1階": {
    "lat": 35.6541113,
    "lng": 139.701199,
    "place_id": "ChIJi0unn1CLGGARPunpdR9dKvc"
  },
  "place:The6Market 渋谷区上原1-17-10-101横山アパート": {
    "lat": 35.669056,
    "lng": 139.6824235,
    "place_id": "ChIJdUo2Q0jzGGARIgvcbGSs5Ok"
  },
  "place:TiTi 渋谷区恵比寿2丁目8-13accessBLD恵比寿1階": {
    "lat": 35.6459174,
    "lng": 139.71722839999998,
    "place_id": "ChIJS_0c3rmLGGARhaaXG8GzlgU"
  },
  "place:Tiki's Tokyo 渋谷区神南1-1-1代々木公園BE STAGE 1F": {
    "lat": 35.6662974,
    "lng": 139.7012947,
    "place_id": "ChIJw_bpeFiNGGARplUqqbNlTwM"
  },
  "place:ToriiAt 渋谷区鶯谷町1-2パル代官山ビル1F": {
    "lat": 35.6536866,
    "lng": 139.70489999999998,
    "place_id": "ChIJMe6Bd_KLGGAR0MOOO-55HKM"
  },
  "place:Trattoria L'astro 渋谷区恵比寿1-22-13メゾンド・ペルル1階": {
    "lat": 35.646436099999995,
    "lng": 139.71465519999998,
    "place_id": "ChIJ34gdBR6LGGAR1V_aWHnt9es"
  },
  "place:TurnTableRestaurant 渋谷区神泉町10-3": {
    "lat": 35.655386,
    "lng": 139.692916,
    "place_id": "ChIJ_59qBGKLGGARBFTKojmmESk"
  },
  "place:Twenty eight.st 渋谷区恵比寿西1丁目7‐4エビスファーストビル7F": {
    "lat": 35.6477764,
    "lng": 139.7089284,
    "place_id": "ChIJQSCGCUGLGGAR4CxP1fMlxQo"
  },
  "place:UEHARA PARLOR 渋谷区上原1-36-12内藤ビル2F": {
    "lat": 35.669215699999995,
    "lng": 139.68233,
    "place_id": "ChIJhUm8tMPzGGARvLgUMcKAHSQ"
  },
  "place:ULTIMO 渋谷区西原3-24-1アムール代々木上原 104号": {
    "lat": 35.6712191,
    "lng": 139.683315,
    "place_id": "ChIJE5ElVgDzGGARuM9_o6PjIPs"
  },
  "place:UME SAKURA 着物レンタルサロン 京都市中心部 京都": {
    "lat": 35.014967899999995,
    "lng": 135.7680471,
    "place_id": "ChIJ69J7b5IHAWAR5NjpuzwycX0"
  },
  "place:UO-SAO 渋谷区上原1丁目17-11": {
    "lat": 35.669192699999996,
    "lng": 139.6823306,
    "place_id": "ChIJu3xkhhHzGGARgwQxuIHsWp0"
  },
  "place:UPLIGHT COFFEE 渋谷区渋谷2-23-16渋谷駅東口地下広場 B2F": {
    "lat": 35.659244799999996,
    "lng": 139.7020918,
    "place_id": "ChIJ-XSO0XOLGGARNGbl37WJx4o"
  },
  "place:Ui食堂 渋谷区神山町9-5ホーリーランドAmi1階": {
    "lat": 35.6642735,
    "lng": 139.6947869,
    "place_id": "ChIJfU5DXgyNGGAR1XUW0tj3dlk"
  },
  "place:VANNO 渋谷区本町2-28-4サンエムマンション3-101": {
    "lat": 35.683569999999996,
    "lng": 139.681636,
    "place_id": "ChIJ9UjLWi_zGGARS6RxEMIZUGA"
  },
  "place:VELROSIER 京都市中心部 京都": {
    "lat": 35.0024392,
    "lng": 135.7687511,
    "place_id": "ChIJOYeOxBfzAGARX7Y1d6EOORI"
  },
  "place:VINO 渋谷区渋谷1-11-3正栄ビル": {
    "lat": 35.6609316,
    "lng": 139.7046248,
    "place_id": "ChIJsxA8m1iLGGARyJJQxeEEQFc"
  },
  "place:VIVE LA VIE 渋谷区渋谷2-4-6サンゼンビルB1": {
    "lat": 35.6590893,
    "lng": 139.70838569999998,
    "place_id": "ChIJLxsQkl6LGGAREL9ddFDkvZs"
  },
  "place:Vaji spice 渋谷区代々木5-63-10": {
    "lat": 35.6725461,
    "lng": 139.6907708,
    "place_id": "ChIJOUIqb_vzGGARBdnn5-KiPjA"
  },
  "place:Vegeater 渋谷区東1-14-12常盤松マンション1F": {
    "lat": 35.6562452,
    "lng": 139.7074721,
    "place_id": "ChIJNadJIgCLGGARA3gpEFKCy4E"
  },
  "place:Villaggio 渋谷区幡ヶ谷2-48-1三木ビル1F": {
    "lat": 35.6796185,
    "lng": 139.67701169999998,
    "place_id": "ChIJW-1ajCTzGGARBIqKRVOPbMs"
  },
  "place:VinSanto 渋谷区恵比寿西2-1-7": {
    "lat": 35.649488399999996,
    "lng": 139.7081446,
    "place_id": "ChIJyY9X2kOLGGAR1Iu3AI46BzY"
  },
  "place:Virgin Swan 渋谷区恵比寿西1丁目14番6号ハギワラビル6地下1階": {
    "lat": 35.6477286,
    "lng": 139.7075731,
    "place_id": "ChIJEbJSQEGLGGARF-zc0yItjz0"
  },
  "place:WAGYUYAKINIKU IBUSANA 渋谷区代々木4-10-7小淵ビル1F": {
    "lat": 35.6783747,
    "lng": 139.6927428,
    "place_id": "ChIJkWtYa8uMGGAR0qvQUq98nEY"
  },
  "place:WEPwafflefactory 渋谷区神山町25-17UpperHillscourt101": {
    "lat": 35.663101999999995,
    "lng": 139.6880856,
    "place_id": "ChIJ92aN8hzzGGARnQzVmxQe7eA"
  },
  "place:WHY BEER ? 渋谷区上原1-35-5第2上原堂ビル101号室": {
    "lat": 35.669491199999996,
    "lng": 139.6820004,
    "place_id": "ChIJD8PjeXfzGGAR3Fcmvr-PJFc"
  },
  "place:WOODBERRY COFFEE 代官山店 渋谷区恵比寿南3-7-1": {
    "lat": 35.6464411,
    "lng": 139.7022309,
    "place_id": "ChIJvSJ1CUaLGGARdojNN2sp9Ns"
  },
  "place:WOODBERRY COFFEE 渋谷店 渋谷区東2-20-18": {
    "lat": 35.6539429,
    "lng": 139.7094,
    "place_id": "ChIJvbYOsEaLGGARszQEtIIvb54"
  },
  "place:Wailele 渋谷区道玄坂1-7-8 新井ビル2F": {
    "lat": 35.657515499999995,
    "lng": 139.6991565,
    "place_id": "ChIJr_-QsVeLGGARSQLUZZ_D-yQ"
  },
  "place:Whisky Gibier 渋谷区西原3-21-1 1F2号": {
    "lat": 35.6707365,
    "lng": 139.6819524,
    "place_id": "ChIJD7rG4zfzGGARSK9h3K96uY0"
  },
  "place:Wild,Bushy 渋谷区西原1-21-16パラスト西原105": {
    "lat": 35.6760485,
    "lng": 139.677506,
    "place_id": "ChIJTTSTDjvzGGARJGmQAvB9OEE"
  },
  "place:Wine Bar ETSUBO 渋谷区恵比寿南2-13-14茶屋坂T&Kビル2F": {
    "lat": 35.6433988,
    "lng": 139.70748179999998,
    "place_id": "ChIJhaN2Qz-LGGAR8KKZEqqrjLo"
  },
  "place:Wine Bar entendu! 渋谷区恵比寿西1-10-14バルビゾン88 9階": {
    "lat": 35.6470373,
    "lng": 139.7073823,
    "place_id": "ChIJZzbbefOLGGARHA3I-CsR5Mg"
  },
  "place:Wine蔵しおり 京都駅周辺 京都": {
    "lat": 34.9893967,
    "lng": 135.7586293,
    "place_id": "ChIJqVyHhaUIAWAR3eqMe3TCvvg"
  },
  "place:Wine食堂 久 渋谷区幡ヶ谷2-56-1コーポラス幡ヶ谷101": {
    "lat": 35.6774541,
    "lng": 139.6705972,
    "place_id": "ChIJISJ9gBjzGGARw6pI_58Wy48"
  },
  "place:Wonder YoYogi Park 渋谷区富ヶ谷1-8-7飯島ビル2階": {
    "lat": 35.6686002,
    "lng": 139.6908342,
    "place_id": "ChIJb4AfsuHzGGARNzAvL_Zuq1w"
  },
  "place:Y.Y.G. Brewery & Beer Kitchen 渋谷区代々木2-18-3オーチュー第一ビル1F/7F": {
    "lat": 35.686071399999996,
    "lng": 139.6965782,
    "place_id": "ChIJB-Qr-tGMGGARsyIY2rnSDzs"
  },
  "place:YEBISU BAR STAND　恵比寿ガーデンプレイス店 渋谷区恵比寿4-20-5恵比寿ガーデンプレイス エントランスパビリオン棟1階": {
    "lat": 35.642976399999995,
    "lng": 139.7126503,
    "place_id": "ChIJlYESJFWLGGARDi0mGCnI9nY"
  },
  "place:Y`sC COFFEE STAND 渋谷区代々木4-37-7YRビル1階": {
    "lat": 35.680223999999995,
    "lng": 139.6889541,
    "place_id": "ChIJaUTTREnzGGAR2Xig17fxKsE"
  },
  "place:Yellow 渋谷区恵比寿南1-8-9第一黄色いビル4F": {
    "lat": 35.6460174,
    "lng": 139.7091419,
    "place_id": "ChIJo-J0IamLGGARk8L5_JniryE"
  },
  "place:ZANZIBAR 渋谷区富ヶ谷1-43-23代々木公園ガーデニア102": {
    "lat": 35.667256099999996,
    "lng": 139.6908782,
    "place_id": "ChIJp4xcekvzGGARFia8yAqN_XY"
  },
  "place:ZWEI ein achtel shot bar 渋谷区道玄坂 1-18-7第二仁科屋ビル2F": {
    "lat": 35.6570093,
    "lng": 139.6973011,
    "place_id": "ChIJE4cn_nuLGGARF_7qyclvWuQ"
  },
  "place:ai's 渋谷区広尾1-1-38スクエアサイドビル1F": {
    "lat": 35.6499856,
    "lng": 139.71211789999998,
    "place_id": "ChIJE9QQ_26LGGARVXG4J6v116k"
  },
  "place:akarimado 渋谷区幡ヶ谷2-8-15KODAビル幡ヶ谷1階": {
    "lat": 35.6781022,
    "lng": 139.6770118,
    "place_id": "ChIJR2LsUfzzGGARK0oZWENKBIQ"
  },
  "place:andC 渋谷区千駄ヶ谷1-22-4吹上ビル1階　催事用": {
    "lat": 35.678908899999996,
    "lng": 139.70908810000003,
    "place_id": "ChIJBWHB6diNGGARfrHjBdUCqSk"
  },
  "place:anise_scone 渋谷区本町2-7-12": {
    "lat": 35.6838589,
    "lng": 139.68329079999998,
    "place_id": "ChIJXwxxjLrzGGARUla00p0YW0g"
  },
  "place:anpeiji 伏見・山科 京都": {
    "lat": 34.9441953,
    "lng": 135.7450375,
    "place_id": "ChIJOxEZ9oQFAWARa-ZmjZv4pD0"
  },
  "place:as always 渋谷区東3-20-8オリエンタルビル1F": {
    "lat": 35.649904299999996,
    "lng": 139.70905299999998,
    "place_id": "ChIJ8zsr4JWLGGAR_8NTuAXFHrY"
  },
  "place:asianstandAMA 渋谷区代々木1-33-11階": {
    "lat": 35.682618399999996,
    "lng": 139.7024007,
    "place_id": "ChIJecayrC6NGGAR0WC3ywFrsvc"
  },
  "place:aux 渋谷区上原1-2-3auxビル1f": {
    "lat": 35.6698482,
    "lng": 139.6863515,
    "place_id": "ChIJ-zDajUvzGGAR2YI_Y3pnMfM"
  },
  "place:bacio69 渋谷区恵比寿南2-3-3BF1": {
    "lat": 35.6453752,
    "lng": 139.7078277,
    "place_id": "ChIJyyXn6eaLGGARSt_UFy9lSsk"
  },
  "place:barHitari 渋谷区代々木1-10-7シャトレー代々木第一ビル　B1階": {
    "lat": 35.682037,
    "lng": 139.6984665,
    "place_id": "ChIJOcwKfwCNGGARdz6xqXjro1o"
  },
  "place:barSeaRoom(バーシールーム) 渋谷区幡ヶ谷1-33-6UH幡ヶ谷102": {
    "lat": 35.677666599999995,
    "lng": 139.6767634,
    "place_id": "ChIJrQKQbGTzGGARcKLR-PwUCss"
  },
  "place:bar蕾 渋谷区道玄坂1-19-6津田ソシアルビル001 地下一階": {
    "lat": 35.6566858,
    "lng": 139.6959857,
    "place_id": "ChIJMQAU3lWLGGAR1_6ndi3G0Co"
  },
  "place:beer bar Cyblume 渋谷区円山町1番3号SKビル1階": {
    "lat": 35.659677699999996,
    "lng": 139.69543489999998,
    "place_id": "ChIJO_yN9CuNGGARMm0f8YmahLw"
  },
  "place:belmare 渋谷区桜丘町24-2第3富士商事ビル1F": {
    "lat": 35.656783,
    "lng": 139.700759,
    "place_id": "ChIJ0fxwZVeLGGAR_LODWTAn_OI"
  },
  "place:bistro Chic 京都市中心部 京都": {
    "lat": 35.0455056,
    "lng": 135.7477514,
    "place_id": "ChIJMdEaUf8HAWARv9e9hJqOrqo"
  },
  "place:bistrot SEMAILLES 渋谷区上原1-3-8ル・パルク上原102": {
    "lat": 35.6680619,
    "lng": 139.6863715,
    "place_id": "ChIJ5UFEnl7zGGARA_LQA9TtQ5s"
  },
  "place:biu 渋谷区富ヶ谷1-17-33A TERRACE 5F": {
    "lat": 35.6664311,
    "lng": 139.6923938,
    "place_id": "ChIJdZCsZI-NGGAR00upZIcE7Kc"
  },
  "place:boat 渋谷区本町6-38-10大竹ビル101": {
    "lat": 35.6813582,
    "lng": 139.6759226,
    "place_id": "ChIJtWeZHuHzGGARkKfvxLVG56Q"
  },
  "place:bonbons creatifs 渋谷区代々木2-30-3 ヨシダペアランドB棟101": {
    "lat": 35.6836967,
    "lng": 139.69853369999998,
    "place_id": "ChIJyc9j_M6MGGARn3QON9ko-ok"
  },
  "place:cafe nook 渋谷区代々木1-37-3岩崎ビル地下1階": {
    "lat": 35.6837259,
    "lng": 139.7010196,
    "place_id": "ChIJwb1mX8-MGGARdKK8BjG50IU"
  },
  "place:cafe&diningポポラーレ 渋谷区本町3-44-2カーサS1階": {
    "lat": 35.6878763,
    "lng": 139.6815323,
    "place_id": "ChIJRZf8DSjzGGARBPIJ_oXxdZE"
  },
  "place:cafeNABE 渋谷区本町2-39-1eフラット1f": {
    "lat": 35.684030899999996,
    "lng": 139.6832283,
    "place_id": "ChIJ4UIhJy_zGGARGYwWZpKDg5U"
  },
  "place:cafebar LIL 渋谷区代々木5-67-8MAKITAKIビル3階": {
    "lat": 35.6709545,
    "lng": 139.69045409999998,
    "place_id": "ChIJr2kGPWXzGGAR1VbhgX3C3Wc"
  },
  "place:cafebar home S 渋谷区恵比寿南1-7-8ニューライフ恵比寿204": {
    "lat": 35.6462384,
    "lng": 139.709663,
    "place_id": "ChIJIVrKaUCLGGARcD82BlhQH04"
  },
  "place:cafe＆Bar Rooster 渋谷区恵比寿南2-2-1込山ビルB1": {
    "lat": 35.6459322,
    "lng": 139.70751479999998,
    "place_id": "ChIJnbeS3ECLGGARUmJrWtx_fq8"
  },
  "place:chicks 渋谷区千駄ヶ谷3-30-4ホワイトキャッスル104": {
    "lat": 35.677359599999996,
    "lng": 139.7075011,
    "place_id": "ChIJI8_9AgCNGGARpyluG2NQICQ"
  },
  "place:comecafe  Osamu bar 渋谷区鶯谷町8-10代官山トゥエルブ2 2F-A": {
    "lat": 35.6531811,
    "lng": 139.7039662,
    "place_id": "ChIJScoZHluLGGARug8stk5WG5w"
  },
  "place:coの食卓 渋谷区宇田川町5-6渋谷区子育てネウボラ 2F": {
    "lat": 35.662864899999995,
    "lng": 139.6981973,
    "place_id": "ChIJJ9Q6rPiNGGARsyZrYeFxjhE"
  },
  "place:dandelion 渋谷区代官山町13-4ヴォーグ代官山2": {
    "lat": 35.6499606,
    "lng": 139.7044225,
    "place_id": "ChIJr3A--ESLGGAReFt3aYhbM6c"
  },
  "place:darna 渋谷区元代々木町23-4": {
    "lat": 35.6702477,
    "lng": 139.685544,
    "place_id": "ChIJeeUgoFvzGGARzxfpU7nxTJg"
  },
  "place:dining＆bar　KITSUNE 渋谷区東2-20-13シャトレー渋谷B1F": {
    "lat": 35.6533815,
    "lng": 139.7090479,
    "place_id": "ChIJnXgZKEOLGGARO2AD96Ez8y0"
  },
  "place:dish-tokyogastronomycafe 渋谷区上原1-33-16オーツカビル2F": {
    "lat": 35.6693856,
    "lng": 139.6810471,
    "place_id": "ChIJ1zd-T_PzGGARjQCZsqrJ6xA"
  },
  "place:ebisu NUKA factory. 渋谷区恵比寿4-10-8エビスビル102": {
    "lat": 35.645395199999996,
    "lng": 139.7147458,
    "place_id": "ChIJpfNAc4yLGGARyIeV7csZemo"
  },
  "place:ebisu diner olive 渋谷区東3-6-9": {
    "lat": 35.6490636,
    "lng": 139.71090569999998,
    "place_id": "ChIJs9eD6EGLGGARiOTr9Ywnpx0"
  },
  "place:epice 京都市中心部 京都": {
    "lat": 35.028625500000004,
    "lng": 135.7677615,
    "place_id": "ChIJZyzwIGYIAWARPM8ml9cWx5o"
  },
  "place:eponym coffee 渋谷区本町4-18-2黒田屋ハイツ1F": {
    "lat": 35.6884217,
    "lng": 139.68031,
    "place_id": "ChIJE0jiMpDzGGAR5hPcinncIkQ"
  },
  "place:es Cafe Bar & Beauty Salon 渋谷区東3丁目25番6号楠ビル2F": {
    "lat": 35.64848440000001,
    "lng": 139.7101084,
    "place_id": "ChIJZ-HVx46LGGARKD90PexSUq0"
  },
  "place:etain cafe and bar 渋谷区東2-15-1trias215 101": {
    "lat": 35.6515603,
    "lng": 139.7095599,
    "place_id": "ChIJRWSwRDyLGGARbevamZTTpZs"
  },
  "place:evergreen cafe restaurant EBISU 渋谷区恵比寿南1-26-1": {
    "lat": 35.6423505,
    "lng": 139.7119305,
    "place_id": "ChIJt7ulA1mLGGARn7DGAh1LvkY"
  },
  "place:filcream 渋谷区千駄ヶ谷1丁目12番4号": {
    "lat": 35.677217899999995,
    "lng": 139.7112907,
    "place_id": "ChIJQ2UWi7ONGGAR4PgXdYetfCs"
  },
  "place:fine dining 山科 伏見・山科 京都": {
    "lat": 34.9914056,
    "lng": 135.8167402,
    "place_id": "ChIJd7LSulIPAWARSKZPKbpZQmg"
  },
  "place:funicula 渋谷区西原3-1-1": {
    "lat": 35.6701619,
    "lng": 139.6821634,
    "place_id": "ChIJPXZoGEjzGGARa6f6tEizL6I"
  },
  "place:gudene 渋谷区渋谷2丁目7番13号ネオメット青山2階": {
    "lat": 35.6604343,
    "lng": 139.70770149999998,
    "place_id": "ChIJc_r4wV6LGGARop69_BfTZEg"
  },
  "place:guenin cafe 渋谷区恵比寿1-22-23": {
    "lat": 35.64722,
    "lng": 139.71534180000003,
    "place_id": "ChIJ9UOIeaiLGGARjdE9a1a_cc4"
  },
  "place:haconiwa. 渋谷区恵比寿1-20-1恵比寿コンフォートビル3階": {
    "lat": 35.646915,
    "lng": 139.712425,
    "place_id": "ChIJOSqMu2qLGGARryMKsGAV-2I"
  },
  "place:haf moon club 渋谷区幡ヶ谷2-8-15KODAビル202": {
    "lat": 35.6780567,
    "lng": 139.6770503,
    "place_id": "ChIJQS0jTBTzGGARMERV1K_NmuM"
  },
  "place:hale'aina HOA 渋谷 渋谷区渋谷2-17-1渋谷アクシュ1F": {
    "lat": 35.6590929,
    "lng": 139.7045408,
    "place_id": "ChIJs_aZfwCLGGARVwEW7GCr6EY"
  },
  "place:in the house 渋谷区神宮前三丁目31番20号": {
    "lat": 35.672520999999996,
    "lng": 139.7110064,
    "place_id": "ChIJNetazlmNGGARuCsD-xhUNdI"
  },
  "place:jicca 渋谷区西原2-27-4升本ビル2階": {
    "lat": 35.67523510000001,
    "lng": 139.6783561,
    "place_id": "ChIJNb5PszvzGGARMw7MbKvR1YE"
  },
  "place:kakyo 花鏡 祇園・東山 京都": {
    "lat": 35.0093348,
    "lng": 135.7845364,
    "place_id": "ChIJyeL_8N0IAWAR6QZGiLhN_tY"
  },
  "place:kitchen GCH 渋谷区笹塚3-19-4平野ビル1F": {
    "lat": 35.6771848,
    "lng": 139.6672467,
    "place_id": "ChIJqRYuLajzGGARBhrKMZNkUdA"
  },
  "place:kitchen&bar MORIS 渋谷区東2-20-16estマニヴィアB1F": {
    "lat": 35.653522599999995,
    "lng": 139.7089083,
    "place_id": "ChIJmyeEKUOLGGARWg_q6wJokJg"
  },
  "place:la princesse kyoto （ラ プランセス 京都） 京都市中心部 京都": {
    "lat": 35.0073007,
    "lng": 135.7611499,
    "place_id": "ChIJr9Gd2LEJAWARaPNzUKYRklA"
  },
  "place:mai bevi 渋谷区幡ヶ谷2-48-2英ビル地下1階": {
    "lat": 35.6755654,
    "lng": 139.6721359,
    "place_id": "ChIJuavtXwnzGGAR6zTf_8Fo1yQ"
  },
  "place:maison tacos 渋谷区鉢山町1-7矢島ビル": {
    "lat": 35.6534559,
    "lng": 139.6988222,
    "place_id": "ChIJJ3iTuCCLGGARvhAv12AG4fI"
  },
  "place:manu'a  beer club 渋谷区円山町5-14スタービル2F": {
    "lat": 35.6570979,
    "lng": 139.694884,
    "place_id": "ChIJC8QOKLaLGGARfikOIFbXjNo"
  },
  "place:marger burger 渋谷区千駄ヶ谷4-26-3": {
    "lat": 35.681063699999996,
    "lng": 139.70437809999999,
    "place_id": "ChIJ9YBnDseMGGAR0NYDFxMdzJ4"
  },
  "place:maruta 渋谷区神山町17-1第二渡辺ビル3A": {
    "lat": 35.664524799999995,
    "lng": 139.693156,
    "place_id": "ChIJhyb566iNGGARTwpZNjUAj2A"
  },
  "place:midダイニング 渋谷区元代々木町55-7桜苑ビル": {
    "lat": 35.6733106,
    "lng": 139.6874975,
    "place_id": "ChIJubGckjXzGGARpSMaB90Mex8"
  },
  "place:mimet 渋谷区富ヶ谷1-9-201F": {
    "lat": 35.6684075,
    "lng": 139.6901657,
    "place_id": "ChIJaRfyoEzzGGARawR4CE1H1gE"
  },
  "place:miubar 渋谷区本町6-36-5 2F": {
    "lat": 35.6802358,
    "lng": 139.67676459999998,
    "place_id": "ChIJE05IZCTzGGARQPZjq-lCwCw"
  },
  "place:mixnack 渋谷区円山町3-1小木曽ビル1F左": {
    "lat": 35.6578581,
    "lng": 139.69561769999999,
    "place_id": "ChIJuXWACKqMGGARHcOhsVQ9O5k"
  },
  "place:munasawagi Bar 渋谷区笹塚1-58-13フィエスタ笹塚6F": {
    "lat": 35.67361280000001,
    "lng": 139.6663256,
    "place_id": "ChIJJXGE_6fzGGARYWUDZ53DpB8"
  },
  "place:music bar 45 渋谷区桜丘町17-10吉野ビル2F": {
    "lat": 35.6562573,
    "lng": 139.7010819,
    "place_id": "ChIJfZg0XFeLGGAR5UjGMTKXJqQ"
  },
  "place:nadoya no kaTte 渋谷区西原3丁目19-3": {
    "lat": 35.670932799999996,
    "lng": 139.6807387,
    "place_id": "ChIJfytt1W_zGGARPhNPg27l_5g"
  },
  "place:nanoru namonai 渋谷区富ヶ谷1-2-12田崎ビル2階": {
    "lat": 35.6694817,
    "lng": 139.6890153,
    "place_id": "ChIJfwXucEvzGGARVQONEVPC_fM"
  },
  "place:newTRINO 渋谷区代官山町3-4ダイカンヤマダンダンフィールド102": {
    "lat": 35.652310299999996,
    "lng": 139.7054053,
    "place_id": "ChIJuYsjtUSLGGARM4pLBnKAaJ8"
  },
  "place:no.501 渋谷区神宮前2丁目5番4-104号": {
    "lat": 35.6723585,
    "lng": 139.7135763,
    "place_id": "ChIJDTWzWpiMGGARjd7IKv8qnfs"
  },
  "place:nomad dalla libera 渋谷区東3丁目20番1号アークプレイス恵比寿2階": {
    "lat": 35.6505343,
    "lng": 139.7089599,
    "place_id": "ChIJj6WgJUOLGGARRaqBzG55MIY"
  },
  "place:osteria BORNE 渋谷区円山町5-4フィールA渋谷101": {
    "lat": 35.6571099,
    "lng": 139.695247,
    "place_id": "ChIJBdl28lWLGGARMs3PkChZPcM"
  },
  "place:ouahouah 渋谷区恵比寿西2-18-6代官山ウイング102": {
    "lat": 35.6496071,
    "lng": 139.7052081,
    "place_id": "ChIJ92gN14yLGGARo7SQkntcmaw"
  },
  "place:parc 渋谷区宇田川町41-26パピエビル101": {
    "lat": 35.6627212,
    "lng": 139.6953852,
    "place_id": "ChIJCZkGEqyMGGARahN84ZJdd7w"
  },
  "place:parkcafe 渋谷区上原吉野ビルB1F": {
    "lat": 35.6685784,
    "lng": 139.6794358,
    "place_id": "ChIJK6yJlUfzGGARVenQwB-4_5c"
  },
  "place:pho321 渋谷区神宮前2-35-9原宿リビン102": {
    "lat": 35.6746203,
    "lng": 139.70770810000002,
    "place_id": "ChIJM9sGaLyMGGARv_DS5kDv8vM"
  },
  "place:pipal 渋谷区宇田川町42-11プラザ51 1F": {
    "lat": 35.6627978,
    "lng": 139.6955597,
    "place_id": "ChIJlVeUD6yMGGARppML6OHfDdk"
  },
  "place:plate 渋谷区恵比寿1-31-11ソシア恵比寿1階": {
    "lat": 35.64677450000001,
    "lng": 139.717174,
    "place_id": "ChIJGTynxfOLGGARxeDIGOXwnYs"
  },
  "place:restaurant Goût 渋谷区富ヶ谷2-14-6伸和ビル101": {
    "lat": 35.663404,
    "lng": 139.6874483,
    "place_id": "ChIJAQFb--TzGGARZc-xWwMMN2A"
  },
  "place:ricocurryキッチンカー 渋谷区千駄ヶ谷3-8-14-1階": {
    "lat": 35.6780397,
    "lng": 139.7046345,
    "place_id": "ChIJS-bj77iMGGART2XyGcIzwEo"
  },
  "place:ricopua 渋谷区千駄ヶ谷3-8-14-1階": {
    "lat": 35.6780397,
    "lng": 139.7046345,
    "place_id": "ChIJS-bj77iMGGART2XyGcIzwEo"
  },
  "place:rico間借り 渋谷区神宮前 2-23-4 1F": {
    "lat": 35.6745665,
    "lng": 139.7110979,
    "place_id": "ChIJN83gY72MGGARoGwlh7sSuWQ"
  },
  "place:ripen 渋谷区西原2-32-11パァクサクラハウス102": {
    "lat": 35.6754538,
    "lng": 139.67629259999998,
    "place_id": "ChIJOy4eLADzGGARDVHjqjuhvfQ"
  },
  "place:rogamasteak arcanum 渋谷区円山町6-6": {
    "lat": 35.657439,
    "lng": 139.6949529,
    "place_id": "ChIJqfaZGo-LGGARhnleSxe_WHc"
  },
  "place:sake x oysters BAR　石花 渋谷区猿楽町6-12": {
    "lat": 35.6527405,
    "lng": 139.7034463,
    "place_id": "ChIJXa623VqLGGARDbR_iNF8JB4"
  },
  "place:sakeba 渋谷区渋谷3丁目15-2F93 Shibuya2  7F": {
    "lat": 35.6559375,
    "lng": 139.7054723,
    "place_id": "ChIJnwlYk1uLGGARjxobev2iNuY"
  },
  "place:santafe 渋谷区道玄坂2-7-21F": {
    "lat": 35.6586363,
    "lng": 139.6988056,
    "place_id": "ChIJWcyDN1SLGGARkJyofHntbXk"
  },
  "place:sathi渋谷 渋谷区渋谷2-5-9パル青山101": {
    "lat": 35.6594619,
    "lng": 139.7080705,
    "place_id": "EkZKYXBhbiwg44CSMTUwLTAwMDIgVG9reW8sIFNoaWJ1eWEsIDItY2jFjW1l4oiSNeKIku-8mSDjg5Hjg6vpnZLlsbEgMTAxIh8aHQoWChQKEglBoXXsXosYYBEwDZwYbV6X4BIDMTAx"
  },
  "place:shibuya101 渋谷区宇田川町34-6M&Iビル3F-A": {
    "lat": 35.661252,
    "lng": 139.6964063,
    "place_id": "ChIJqVWgYamMGGARMG_6W90kpU8"
  },
  "place:skyhigh daikanyama 渋谷区鶯谷町19-18ファーストマンション七久保1f": {
    "lat": 35.691232,
    "lng": 139.7040213,
    "place_id": "ChIJnYREpduMGGARQG1oNaI7Trk"
  },
  "place:small alley cafe 渋谷区東1-29-11F": {
    "lat": 35.6539293,
    "lng": 139.7070708,
    "place_id": "ChIJZ22UrgeLGGARalYjs5jzD70"
  },
  "place:space i 渋谷区本町2-7-10-1階シブヤFハウス10TH": {
    "lat": 35.6837655,
    "lng": 139.68283639999999,
    "place_id": "ChIJxwDtVwDzGGARrYkIx1_Feb8"
  },
  "place:stabler 渋谷区恵比寿南1-2-2-1A": {
    "lat": 35.6461673,
    "lng": 139.7082944,
    "place_id": "ChIJYdnRjtmLGGARXZGrfL6DxdI"
  },
  "place:stelo 渋谷区元代々木町5-2NYC motoyoyogi 1E区画": {
    "lat": 35.6698482,
    "lng": 139.6863515,
    "place_id": "ChIJoQy9v9fzGGARy0l61oYOLxU"
  },
  "place:sweetie 渋谷区本町1-38-8": {
    "lat": 35.6813621,
    "lng": 139.6821842,
    "place_id": "ChIJgTOHskzzGGAR4P9FZ-eWu1g"
  },
  "place:tTure 渋谷区恵比寿西2-8-11グランベル恵比寿IV2階": {
    "lat": 35.6495351,
    "lng": 139.7075519,
    "place_id": "ChIJc8AvmhuLGGARwQhql5zFRqo"
  },
  "place:takeCURRY恵比寿本店 渋谷区恵比寿2-12-16リベルタII": {
    "lat": 35.645512499999995,
    "lng": 139.7179352,
    "place_id": "ChIJvzkVfJ-LGGAROvqL5cmHkE4"
  },
  "place:takk.(music&bar) 渋谷区円山町15-6-2F": {
    "lat": 35.6574679,
    "lng": 139.6942684,
    "place_id": "ChIJpYH_bQCNGGAR9q5Rcd5w10s"
  },
  "place:toi toi toi 渋谷区本町2-39-1-1F": {
    "lat": 35.684076100000006,
    "lng": 139.6834059,
    "place_id": "ChIJ4UIhJy_zGGARfod0vaFWXxI"
  },
  "place:tokyo salonard cafe : dub 渋谷区道玄坂1-11-3富士商事ビル2F": {
    "lat": 35.6576082,
    "lng": 139.6987605,
    "place_id": "ChIJSZTctFeLGGARgxUxRooSQG4"
  },
  "place:txokoa 渋谷区神山町40-1鈴井ビル2階": {
    "lat": 35.6650387,
    "lng": 139.69274339999998,
    "place_id": "ChIJywP1GcmNGGARg5xQTbNpPYw"
  },
  "place:uni sendagaya 渋谷区千駄ヶ谷1-7-4ヒルトップスクエア1F": {
    "lat": 35.6780344,
    "lng": 139.7105047,
    "place_id": "ChIJ8z-P7dCNGGARrI2-JhaK0jI"
  },
  "place:uni-BAR 渋谷区笹塚3-28-3後藤ビル1F": {
    "lat": 35.6749072,
    "lng": 139.6626604,
    "place_id": "ChIJZzoi73nzGGARHhzmm9ifaMo"
  },
  "place:urura 渋谷区松濤1丁目29-2　スクエアビル 2F": {
    "lat": 35.659987699999995,
    "lng": 139.69509349999998,
    "place_id": "ChIJZ53Jy6uMGGAR868B_o5VhWA"
  },
  "place:vegewest cafe&bar 渋谷区代官山町13-4セレサ代官山102": {
    "lat": 35.6498437,
    "lng": 139.70448,
    "place_id": "ChIJSzrIQd2LGGARGHGOXXi-Iec"
  },
  "place:veggie tempo代々木公園 渋谷区代々木5-67-81F MAKITAKI": {
    "lat": 35.6709165,
    "lng": 139.6904283,
    "place_id": "ChIJ-6L5FAiLGGAR-YXsWnWh2QI"
  },
  "place:vineria HIRANO 渋谷区千駄ヶ谷 2-5-5ウィルコート1F": {
    "lat": 35.675164699999996,
    "lng": 139.7088163,
    "place_id": "ChIJZ5qvTbyMGGAR0-H99OxYnj4"
  },
  "place:whyte cafe 渋谷区神宮前3丁目27番7号": {
    "lat": 35.6711465,
    "lng": 139.709018,
    "place_id": "ChIJgV6UZeqNGGARdk80K6HBMFQ"
  },
  "place:wine bar M 渋谷区恵比寿西1-3-5アルス恵比寿メイクス2F": {
    "lat": 35.6486018,
    "lng": 139.7085788,
    "place_id": "ChIJiRX5eUGLGGARR0W5p_bWOTw"
  },
  "place:yinega 渋谷区渋谷1-10-2志水ビル1F": {
    "lat": 35.660699699999995,
    "lng": 139.7050918,
    "place_id": "ChIJGTd6lliLGGAR9QKC9tmiDR0"
  },
  "place:zenta coffee 渋谷区鶯谷町12-6LOKOビル1階": {
    "lat": 35.651517600000005,
    "lng": 139.7012588,
    "place_id": "ChIJeeFqIkyLGGARaJHbyzgYqhA"
  },
  "place:あいと電氣餅店 渋谷区富ヶ谷1-3-4川端ハイツ　1F": {
    "lat": 35.6694104,
    "lng": 139.6896639,
    "place_id": "ChIJT5uFE5rzGGARx4PrF5s0AkQ"
  },
  "place:あいぱくTOKYO 渋谷区神宮前1-20-4アクシア原宿103C": {
    "lat": 35.671553599999996,
    "lng": 139.7048403,
    "place_id": "ChIJ46GfYgCNGGARpAbKBH6qpMA"
  },
  "place:あおさんかく 渋谷区本町5-38-10SKプラネット101": {
    "lat": 35.6820868,
    "lng": 139.6757197,
    "place_id": "ChIJw1KXCtDzGGARE2l0RimbQAw"
  },
  "place:あきさば 渋谷区神宮前6丁目19-14神宮前ハッピービル": {
    "lat": 35.6632856,
    "lng": 139.70237219999999,
    "place_id": "ChIJxzgHkKGNGGARXeAcw0IKuLI"
  },
  "place:あさひや 渋谷区恵比寿南1-4-2アサヒヤビル7階": {
    "lat": 35.6464402,
    "lng": 139.7092211,
    "place_id": "ChIJpb9BOgCLGGARnbLljTpYkx0"
  },
  "place:あそぼうよ 渋谷区恵比寿1-26-12　フラット16 1F": {
    "lat": 35.6471819,
    "lng": 139.7164416,
    "place_id": "ChIJL-_9qBSLGGARiRO-3R9XBe8"
  },
  "place:あなくま 渋谷区上原3-26-5幸信ビル101": {
    "lat": 35.6641538,
    "lng": 139.6759138,
    "place_id": "ChIJq6qZskbzGGARwCsThfqomoY"
  },
  "place:あやとり 渋谷区恵比寿西1-3-9田中ビル302": {
    "lat": 35.6488267,
    "lng": 139.7082527,
    "place_id": "ChIJmfB1k2WLGGAR6m7QE_-EWD8"
  },
  "place:ありき 渋谷区西原3丁目17番4号星と月と空とビル102": {
    "lat": 35.6700397,
    "lng": 139.6808269,
    "place_id": "ChIJpS6bbcrzGGARyXWRvdivQow"
  },
  "place:あんちゅう 渋谷区上原2-48-9松崎ビル1": {
    "lat": 35.6676044,
    "lng": 139.6817214,
    "place_id": "ChIJ6arvrySLGGARAg6fKFyNPcQ"
  },
  "place:いく田 渋谷区代々木1-31-15第二宝山ビル1階": {
    "lat": 35.6817931,
    "lng": 139.70227599999998,
    "place_id": "ChIJgZ21O8aMGGARDDsbnmK44Ak"
  },
  "place:いちひく 渋谷区神宮前2-20-121FーB号": {
    "lat": 35.6743685,
    "lng": 139.71114839999998,
    "place_id": "ChIJR4qk62ONGGAReVnjz_FUutY"
  },
  "place:いっぷく処　浅葱 渋谷区猿楽町2-11氷川ビル401号室": {
    "lat": 35.653302499999995,
    "lng": 139.70451989999998,
    "place_id": "ChIJOdeW5A2LGGARPey74U8jm3w"
  },
  "place:いづまるキッチン 渋谷区代々木3-13-1スマイルヨヨギ1A": {
    "lat": 35.6840188,
    "lng": 139.6949465,
    "place_id": "ChIJgY-7pHSNGGARzFgn369KmlM"
  },
  "place:いわて屋 渋谷区千駄ヶ谷3-16-17NOCE KITASANDO 1F": {
    "lat": 35.6761421,
    "lng": 139.7074461,
    "place_id": "ChIJk7nyJQCNGGARXOwXM6M4FXY"
  },
  "place:うなぎ  ふじもと 渋谷区千駄ヶ谷3丁目15番12号": {
    "lat": 35.676688999999996,
    "lng": 139.7069798,
    "place_id": "ChIJY5nir76MGGARunGAjaeMFJA"
  },
  "place:うなとり×宇奈とと　笹塚店 渋谷区笹塚1-57-16": {
    "lat": 35.6739515,
    "lng": 139.6672527,
    "place_id": "ChIJQTMz3WTzGGARYNJ45n0aW_g"
  },
  "place:うな賀 渋谷区本町1丁目2-2榎本ビル2階　第3区画": {
    "lat": 35.681314799999996,
    "lng": 139.68571079999998,
    "place_id": "ChIJB1nV6g3zGGARw3iNYsoxcq0"
  },
  "place:うにtoいくら 渋谷区円山町7-5WHARF渋谷道玄坂6階": {
    "lat": 35.657739,
    "lng": 139.6949123,
    "place_id": "ChIJs5aackiNGGARMZigWDdzTqM"
  },
  "place:うめ組 渋谷区笹塚2-27-5B,sビル1F": {
    "lat": 35.6731617,
    "lng": 139.6620187,
    "place_id": "ChIJtcha7b_zGGARfseiqSJXaZE"
  },
  "place:えびすのARALE 渋谷区恵比寿西1-7-15KATOHビル203": {
    "lat": 35.648089899999995,
    "lng": 139.7085812,
    "place_id": "ChIJhTtcBheLGGARkhsuNCn1G-s"
  },
  "place:えびす焼魚食堂 渋谷区恵比寿3-1-2エビサンビル101": {
    "lat": 35.645421299999995,
    "lng": 139.71675829999998,
    "place_id": "ChIJE3jlVAaLGGARzXvIBeVDmvY"
  },
  "place:えんらい 渋谷区渋谷2-8-7青山宮野ビル103": {
    "lat": 35.6604674,
    "lng": 139.7072943,
    "place_id": "ChIJmUv8lf-LGGARnYoacqDN5C0"
  },
  "place:おいちゃん 渋谷区神山町9-14白樺ビル102": {
    "lat": 35.663632299999996,
    "lng": 139.69428929999998,
    "place_id": "ChIJQYPSUayMGGARCrrtfdVt4uQ"
  },
  "place:おが和 京都市中心部 京都": {
    "lat": 35.0123895,
    "lng": 135.6975817,
    "place_id": "ChIJYyJCl70HAWARScX2Yx5HKno"
  },
  "place:おこめどき 渋谷区神宮前5丁目29番10号クリプトメリア神宮前ビル1F": {
    "lat": 35.6643869,
    "lng": 139.7032026,
    "place_id": "ChIJT3x2QyONGGARh6VNOxnqPow"
  },
  "place:おこめ茶屋 米米-めめ- 渋谷区笹塚1-56-18京王クラウン街笹塚": {
    "lat": 35.673818499999996,
    "lng": 139.66751399999998,
    "place_id": "ChIJgde3QgDzGGAR5V62rFbjYpo"
  },
  "place:おすし磯部 渋谷区元代々木町2-11GSハイム第二代々木公園101": {
    "lat": 35.670232999999996,
    "lng": 139.6874892,
    "place_id": "ChIJffvRtUvzGGARGLytzjvvXf4"
  },
  "place:おたぎ 嵐山 京都": {
    "lat": 35.0311428,
    "lng": 135.6615546,
    "place_id": "ChIJi3CsmTmqAWAR0pV6QRGvt1c"
  },
  "place:おにぎり原宿三丁目たるら 渋谷区神宮前1-21-2 1F": {
    "lat": 35.6722701,
    "lng": 139.70415119999998,
    "place_id": "ChIJr2bMb8qNGGARq8bKDuw_2mk"
  },
  "place:おもてなしこまつ 京都市中心部 京都": {
    "lat": 35.002335099999996,
    "lng": 135.7634554,
    "place_id": "ChIJpWzKDTseAWARcUlyZ8qzQJQ"
  },
  "place:お好み焼　天現寺亭 渋谷区広尾5丁目25番6号": {
    "lat": 35.6478008,
    "lng": 139.7216024,
    "place_id": "ChIJPxh4hBKLGGARizi31yKRKEE"
  },
  "place:お好み焼き　はち 渋谷区笹塚1-58-13フィエスタ笹塚5階": {
    "lat": 35.673628199999996,
    "lng": 139.6662168,
    "place_id": "ChIJRyLK_BnzGGARiby9h-41T0A"
  },
  "place:お好み焼きえん　初台店 渋谷区初台1丁目36-1": {
    "lat": 35.680069200000005,
    "lng": 139.68603149999998,
    "place_id": "ChIJHWmqLAzzGGARtOnbTVF6Vxs"
  },
  "place:お好み焼きえん　参宮橋2号店 渋谷区代々木4-5-1参宮橋ダイヤビル110号室": {
    "lat": 35.678618799999995,
    "lng": 139.6926013,
    "place_id": "ChIJ16Ri6-mNGGAREcBOeul397c"
  },
  "place:お好み焼きえん　幡ヶ谷店 渋谷区幡ヶ谷2-8-5": {
    "lat": 35.6780014,
    "lng": 139.67722369999998,
    "place_id": "ChIJKQtwOgDzGGARPYI5Oc0okmY"
  },
  "place:お好み焼・もんじゃ焼　ええとこ代々木店 渋谷区千駄ヶ谷5-22-3都営千駄ヶ谷アパート2号棟1階": {
    "lat": 35.6832129,
    "lng": 139.70357869999998,
    "place_id": "ChIJq01afcaMGGARN3kEbgmQJbI"
  },
  "place:お惣菜と煎餅もんじゃさとう 渋谷区富ヶ谷1-9-22AIUビル1階": {
    "lat": 35.6685519,
    "lng": 139.69004289999998,
    "place_id": "ChIJYXXrvEzzGGARumK4yWXmp5w"
  },
  "place:お料理Miee 渋谷区千駄ヶ谷3-3-3エグゼクティブ原宿B1-C": {
    "lat": 35.6766108,
    "lng": 139.7061755,
    "place_id": "ChIJ9xywt2KNGGAR-tlt6kVwxsw"
  },
  "place:お酒とスパイス カンテラ 渋谷区幡ヶ谷2-12-18幡ヶ谷中央第二ビル": {
    "lat": 35.6778046,
    "lng": 139.6769104,
    "place_id": "ChIJ1XuSm9LzGGARvk35mSk7KZE"
  },
  "place:かつお食堂 渋谷区鶯谷町7-12B1": {
    "lat": 35.6541103,
    "lng": 139.7021029,
    "place_id": "ChIJ5VahuViLGGARdhxzaSEMQ6w"
  },
  "place:かなた 渋谷区宇田川町31-9ハナテイビル 6階": {
    "lat": 35.6612042,
    "lng": 139.697918,
    "place_id": "ChIJFYBKCamMGGAR4WyHnpoZu64"
  },
  "place:かもん 渋谷区上原1-35-9": {
    "lat": 35.6696173,
    "lng": 139.68143519999998,
    "place_id": "ChIJD_7vMwDzGGARmHMKLlh19xc"
  },
  "place:かわど 渋谷区恵比寿1-8-14大黒ビル1F 恵比寿ストア内 かわど": {
    "lat": 35.647708699999995,
    "lng": 139.70992569999999,
    "place_id": "ChIJ8cjMtkGLGGAR-n8M1hFE_l4"
  },
  "place:がらり千駄ヶ谷店 渋谷区千駄ヶ谷2-6-4がらり千駄ヶ谷店": {
    "lat": 35.6751071,
    "lng": 139.7091009,
    "place_id": "ChIJpTVrrb2MGGARLi_dBGo9kNc"
  },
  "place:きくちや 渋谷区西原3丁目23-62Fプラド": {
    "lat": 35.670932799999996,
    "lng": 139.6807387,
    "place_id": "ChIJfytt1W_zGGARPhNPg27l_5g"
  },
  "place:きたぽん酒 渋谷区広尾1-10-5日興パレス広尾プラザ103": {
    "lat": 35.648294899999996,
    "lng": 139.71693349999998,
    "place_id": "ChIJW8ZI3ESLGGARvd8kaf_EjA0"
  },
  "place:きまぐれクミコ 渋谷区道玄坂2-20-26藤和エクシール道玄坂B1-5": {
    "lat": 35.659329199999995,
    "lng": 139.69675469999999,
    "place_id": "ChIJLxLL8qmMGGARVoQT5Bhdt4I"
  },
  "place:ぎおん 佐藤 祇園・東山 京都": {
    "lat": 35.0019488,
    "lng": 135.7742149,
    "place_id": "ChIJZxFawMEIAWARV81N7fY1sy0"
  },
  "place:ぎっちょん 渋谷区神宮前2-22-1長谷川ビル1F": {
    "lat": 35.6751356,
    "lng": 139.71051409999998,
    "place_id": "ChIJR2aQdb2MGGARH-FnmshJOj0"
  },
  "place:ぎゃらりぃ栞屋 京都駅周辺 京都": {
    "lat": 34.9893967,
    "lng": 135.7586293,
    "place_id": "ChIJqVyHhaUIAWAR3eqMe3TCvvg"
  },
  "place:ぎをん藤 祇園・東山 京都": {
    "lat": 35.0023385,
    "lng": 135.7744352,
    "place_id": "ChIJv9niWLwJAWARbQW_9WaoKIk"
  },
  "place:くるり恵比寿 渋谷区恵比寿西1-7-9恵比寿タイムハウスビル3階": {
    "lat": 35.6477204,
    "lng": 139.7087487,
    "place_id": "ChIJRfI_CUGLGGARBHmRM70s9EM"
  },
  "place:こころ-想- 渋谷区神宮前6-10-4COMS神宮前1階": {
    "lat": 35.667287,
    "lng": 139.704953,
    "place_id": "ChIJ9deoQKSMGGARd3skuvAjtgE"
  },
  "place:こしの 渋谷区道玄坂2-16-19都路ビル105": {
    "lat": 35.658940799999996,
    "lng": 139.6969049,
    "place_id": "ChIJf7OL_qmMGGARxXVf7ehKhXk"
  },
  "place:ごはん・ごはん 渋谷区西原2-30-2": {
    "lat": 35.6756798,
    "lng": 139.67781789999998,
    "place_id": "ChIJt6nlCTvzGGARVwSlDDQMEVo"
  },
  "place:ごんべえ 渋谷区宇田川町31-3第三田中ビルB1F": {
    "lat": 35.6613483,
    "lng": 139.69785819999998,
    "place_id": "ChIJ192SDamMGGARDTtvB6wZxOo"
  },
  "place:さけとさかなばとん 渋谷区笹塚1-24-4三好ビル1F": {
    "lat": 35.6720593,
    "lng": 139.66877119999998,
    "place_id": "ChIJSRCC1bHzGGARp2rot0pCK68"
  },
  "place:ささづか酒場　はだか電球 渋谷区笹塚1-56-1NH駅前ビル2F": {
    "lat": 35.6739646,
    "lng": 139.66731529999998,
    "place_id": "ChIJmypF2BnzGGAR7qRXZlYrQRo"
  },
  "place:さつま おてちきや 渋谷区渋谷2-8-4東和青山ビルB02": {
    "lat": 35.660442599999996,
    "lng": 139.7074546,
    "place_id": "ChIJkcbeI1-LGGARem9mFnqwquk"
  },
  "place:さんじゅうろくどごぶのお昼ご飯 渋谷区幡ヶ谷2-13-1平沼ビル201": {
    "lat": 35.6775989,
    "lng": 139.67703659999998,
    "place_id": "ChIJfT5eCRfzGGARknTbFCt4ZsU"
  },
  "place:さんだらぼっち 渋谷区幡ヶ谷2-8-5近藤ビル2階": {
    "lat": 35.6780014,
    "lng": 139.67722369999998,
    "place_id": "ChIJv1BEOgfzGGARqyl1E_sHHGQ"
  },
  "place:ししくら 渋谷区恵比寿1-25-3ルヴェドゥプランタン1階": {
    "lat": 35.6470617,
    "lng": 139.7160821,
    "place_id": "ChIJX5U9xXaLGGARy2aXowQytcY"
  },
  "place:しじゅうから 渋谷区東1-27-5シンエイ東ビル3階": {
    "lat": 35.6545033,
    "lng": 139.7070061,
    "place_id": "ChIJleWW5VmLGGARDMfe4PUTy1s"
  },
  "place:しゅうじ食堂 渋谷区広尾1丁目9ー18雨宮ビル1F": {
    "lat": 35.6487473,
    "lng": 139.7167695,
    "place_id": "ChIJ0azBZ8aLGGARG9BQ5Fg_YWU"
  },
  "place:しゅん逢　紗々木 京都市中心部 京都": {
    "lat": 35.001621199999995,
    "lng": 135.7669468,
    "place_id": "ChIJhfNcIKYIAWARhvvbIk9Puz0"
  },
  "place:しろ 京都市中心部 京都": {
    "lat": 35.0125621,
    "lng": 135.7581451,
    "place_id": "ChIJUyYFE_IJAWARlGcmw5J7Mmc"
  },
  "place:しろふわランドリー　初台南店 渋谷区西原1丁目43-1デミシル代々幡　1階105号室": {
    "lat": 35.6762369,
    "lng": 139.68312129999998,
    "place_id": "ChIJw44nRUjzGGAR7byY9UzQGiE"
  },
  "place:しろふわランドリー幡ヶ谷北店 渋谷区本町6-38-7アミティ幡ヶ谷1F店舗": {
    "lat": 35.6811515,
    "lng": 139.67592059999998,
    "place_id": "ChIJByY_KeHzGGARKUn47Sc7iDY"
  },
  "place:しろふわランドリー笹塚南店 渋谷区笹塚1-26-4J&Jハウス1F店舗": {
    "lat": 35.6717367,
    "lng": 139.6677264,
    "place_id": "ChIJ8TikZT3zGGARLXMreqNAwZg"
  },
  "place:しんざ笑もん 渋谷区幡ヶ谷2丁目8番10号リッシェル幡ヶ谷101": {
    "lat": 35.677800399999995,
    "lng": 139.6770694,
    "place_id": "ChIJ07CvSjvzGGARyxfvpL-H-As"
  },
  "place:すし菊地 渋谷区神泉町20-15モンド本社ビル 1F": {
    "lat": 35.6560693,
    "lng": 139.6919251,
    "place_id": "ChIJj0OrWVWLGGARcIt8SsAXqn8"
  },
  "place:すっぽん料理 円亭 京都駅周辺 京都": {
    "lat": 34.9928814,
    "lng": 135.7441121,
    "place_id": "ChIJPytP7yIGAWARWMdTvr_iR6I"
  },
  "place:すてーき一郎 京都市中心部 京都": {
    "lat": 35.029572,
    "lng": 135.75578099999998,
    "place_id": "ChIJtWvgZnQIAWARMo2_BHA3iV4"
  },
  "place:そうめんそそそ研究室 渋谷区渋谷2-21-1渋谷ヒカリエ 6F 6-7": {
    "lat": 35.6591151,
    "lng": 139.7039264,
    "place_id": "ChIJK5zH7ISLGGARojqdLKmCBQ4"
  },
  "place:そば処　丸屋 渋谷区富ヶ谷1-51-1": {
    "lat": 35.6689301,
    "lng": 139.6891839,
    "place_id": "ChIJ9c2ogkzzGGARzLvkPEdpvpo"
  },
  "place:そば処初台丸屋 渋谷区初台1-37-11シャトー初台1F": {
    "lat": 35.6800851,
    "lng": 139.6866307,
    "place_id": "ChIJK5SjJTLzGGARDAR1UzdS5Rc"
  },
  "place:そば処絆 渋谷区神山町24―11　ガーデニア神山1F": {
    "lat": 35.662473899999995,
    "lng": 139.687877,
    "place_id": "ChIJ09_lQlLzGGARPFQjBXa5Fvk"
  },
  "place:そば季寄　武蔵屋 渋谷区上原1-22-3ムサシビル1階": {
    "lat": 35.6686571,
    "lng": 139.6823329,
    "place_id": "ChIJ5UhkXkjzGGAR6xENQgoW7Ow"
  },
  "place:そば處大野屋元代々木町店 渋谷区元代々木町3-10": {
    "lat": 35.670127799999996,
    "lng": 139.6872428,
    "place_id": "ChIJ3QMbykvzGGARTmfJEuXt9AQ"
  },
  "place:たくみ 渋谷区宇田川町30-5渋谷JOWビル 4階": {
    "lat": 35.6608944,
    "lng": 139.6979788,
    "place_id": "ChIJBx9zqCWNGGARdDtRrNC3o3o"
  },
  "place:たまきんち株式会社 渋谷区恵比寿西1丁目3番5号アルス恵比寿メイクス106": {
    "lat": 35.6486827,
    "lng": 139.7087058,
    "place_id": "ChIJu0p8ekGLGGARB7t7e_l0uM0"
  },
  "place:たまりばー 渋谷区代官山町13-8キャッスルマンション代官山114": {
    "lat": 35.650473999999996,
    "lng": 139.7049104,
    "place_id": "ChIJCXcVSwCLGGARTyLSgbw3fik"
  },
  "place:たまりば代々木本店 渋谷区代々木1-41-3": {
    "lat": 35.6828,
    "lng": 139.699661,
    "place_id": "ChIJd4WWMM-MGGAR4Ovviu2Hyfc"
  },
  "place:たもいやんせ渋谷店 渋谷区神泉町10-10volt渋谷神泉ビル1F": {
    "lat": 35.6553841,
    "lng": 139.69258489999999,
    "place_id": "ChIJNyILFFWLGGARI-d--fb-Np4"
  },
  "place:ちょいと。栞屋 伏見・山科 京都": {
    "lat": 34.990344199999996,
    "lng": 135.81604579999998,
    "place_id": "ChIJS1_oqL0OAWARSnaLvJRuos0"
  },
  "place:ちょい呑みバー 8カウント 渋谷区桜丘町16-8アトラス桜丘ビルB1": {
    "lat": 35.6564506,
    "lng": 139.7009297,
    "place_id": "ChIJByvBRMSLGGARS1IZA_HxxWA"
  },
  "place:ちょっとさんどカフェ代官山 渋谷区代官山町16-2": {
    "lat": 35.649811,
    "lng": 139.7027718,
    "place_id": "ChIJaTUrj8OLGGARqxqXXdHNRZk"
  },
  "place:つきたて餅雅や 渋谷区恵比寿2-8-13accessBLD4階": {
    "lat": 35.6459313,
    "lng": 139.71721739999998,
    "place_id": "ChIJzRIbOJKLGGAR8iFVT0wI9BI"
  },
  "place:てんてんてん 渋谷区本町6-37-6銀河ビル2階": {
    "lat": 35.6806619,
    "lng": 139.6762657,
    "place_id": "ChIJ42VKe4TzGGAR3mlrmpQXe9Y"
  },
  "place:とちの樹 渋谷区神宮前3-1-21坂本ビル2F": {
    "lat": 35.670362,
    "lng": 139.71368099999998,
    "place_id": "ChIJy5SQ25iMGGARDwuG8iTDNY0"
  },
  "place:ともあれ呑もうよ 渋谷区幡ヶ谷2-48-1三木ビル 1F": {
    "lat": 35.6796311,
    "lng": 139.6770051,
    "place_id": "ChIJW-1ajCTzGGARhEa_DgDlnpo"
  },
  "place:とりすみ 渋谷区道玄坂2-7-5": {
    "lat": 35.658645799999995,
    "lng": 139.6985665,
    "place_id": "ChIJrRd0K1aLGGARiO4IPRAXO7A"
  },
  "place:とんかつ  ふじもと 渋谷区千駄ヶ谷3丁目14番2号": {
    "lat": 35.676724799999995,
    "lng": 139.7066907,
    "place_id": "ChIJGyiWs76MGGAR6ZoYYBedHYw"
  },
  "place:とんかつのげん田 渋谷区猿楽町24-7代官山プラザ B1": {
    "lat": 35.64825,
    "lng": 139.70162779999998,
    "place_id": "ChIJKdWPhkWLGGARUpiiLpazeIY"
  },
  "place:どさんこととなり 渋谷区元代々木町9-7トップリバー川上1階": {
    "lat": 35.669908,
    "lng": 139.6859029,
    "place_id": "ChIJG1glgEnzGGARM9E_rxuAxbc"
  },
  "place:なごみの輪　着物レンタル 京都駅周辺 京都": {
    "lat": 34.993652399999995,
    "lng": 135.7560233,
    "place_id": "ChIJ89GFyrYJAWARIuaSBKrYeSI"
  },
  "place:なんなん亭 渋谷区代々木2-13-6YU-WAビル　B1F": {
    "lat": 35.6872945,
    "lng": 139.6965045,
    "place_id": "ChIJcY1C_6mNGGAREPEsYw6X8XM"
  },
  "place:にんにくレストランアホアホ 渋谷区上原1-34-8ヒガヤビル1階": {
    "lat": 35.669343399999995,
    "lng": 139.6818452,
    "place_id": "ChIJaQBNE0jzGGAREB-0awZSxRc"
  },
  "place:ねこまど 渋谷区初台1-38-10二名ビル1階": {
    "lat": 35.680323699999995,
    "lng": 139.6870513,
    "place_id": "ChIJzxguPzLzGGARFZPEHIliZn4"
  },
  "place:のっこい 渋谷区幡ヶ谷1-4-1花ビル1F": {
    "lat": 35.6765469,
    "lng": 139.6752138,
    "place_id": "ChIJcWl7s_DzGGARX_K9r1reQ9c"
  },
  "place:のら 渋谷区渋谷1-25-10のんべい横丁": {
    "lat": 35.6598441,
    "lng": 139.7015399,
    "place_id": "ChIJZXTTDwCLGGARJSpE6A9Poq8"
  },
  "place:の輪 京都駅周辺 京都": {
    "lat": 34.9847057,
    "lng": 135.7593332,
    "place_id": "ChIJZcL71K0IAWARWoZKVAz2SxY"
  },
  "place:はいばな　恵比寿 渋谷区恵比寿南1-1-3今鉾ビル3F": {
    "lat": 35.646549799999995,
    "lng": 139.7087587,
    "place_id": "ChIJdbBE-UCLGGARGCLacPGeH4U"
  },
  "place:はじけました 渋谷区恵比寿1-13-10恵比寿壱番館102": {
    "lat": 35.6471624,
    "lng": 139.7116251,
    "place_id": "ChIJBXzYnKCLGGARrsDVaJmsAHM"
  },
  "place:はじめ 渋谷区幡ヶ谷2-5-8伊藤貸店舗北側": {
    "lat": 35.6790042,
    "lng": 139.6774788,
    "place_id": "ChIJi_bCClDzGGAR3Agf00coeVg"
  },
  "place:はたがや酒場　はだか電球 渋谷区幡ヶ谷2-3-9つくしビル2F": {
    "lat": 35.6792589,
    "lng": 139.6773991,
    "place_id": "ChIJb6rD6yTzGGARw41ypgahbSA"
  },
  "place:はちかん（レストラン） 高雄・鞍馬・大原 京都": {
    "lat": 35.1058778,
    "lng": 135.8246921,
    "place_id": "ChIJXWZSoXunAWARvoph0bil8mw"
  },
  "place:はなわベイビー 渋谷区幡ヶ谷2-9-3ナカケンビル1階": {
    "lat": 35.6781405,
    "lng": 139.6772695,
    "place_id": "ChIJ74AzrpfzGGAR1tXlSyH2Z-8"
  },
  "place:はるか 渋谷区宇田川町30-5渋谷JOWビル 6階": {
    "lat": 35.6609146,
    "lng": 139.6979732,
    "place_id": "ChIJAxN6p6mMGGARBmeG4vYIXPc"
  },
  "place:ば〜ささめ 渋谷区円山町1-18峯ビル2階": {
    "lat": 35.6598036,
    "lng": 139.6951832,
    "place_id": "ChIJcRktBACNGGARdbTcbZcdEtI"
  },
  "place:ばんざい　和ゆう 渋谷区本町2-1-1島山ビル　101": {
    "lat": 35.68413900000001,
    "lng": 139.6855596,
    "place_id": "ChIJGSMaEADzGGAR5uNtIPj6Sl8"
  },
  "place:ひがしラウンジ 渋谷区東3‐14‐13": {
    "lat": 35.6508648,
    "lng": 139.7097033,
    "place_id": "ChIJuZ39pE2LGGARjP5_Cts_B3k"
  },
  "place:ひしゅうや 渋谷区円山町18番2号藤田ハイツ1F": {
    "lat": 35.6569289,
    "lng": 139.69412300000002,
    "place_id": "ChIJXw2qh1WLGGARFilQp-R6MbY"
  },
  "place:ひととき 渋谷区円山町27-3円山町ビル2階": {
    "lat": 35.6556576,
    "lng": 139.6940458,
    "place_id": "ChIJSYhFYSyLGGARFYvtTOLaRRE"
  },
  "place:ひととき　幡ヶ谷 渋谷区幡ヶ谷2-8-15KODAビル幡ヶ谷201": {
    "lat": 35.6780195,
    "lng": 139.67708009999998,
    "place_id": "ChIJl9WuRenzGGARb0iglz1XJOo"
  },
  "place:ひょうたん 渋谷区神宮前3-25-7": {
    "lat": 35.6712638,
    "lng": 139.7080255,
    "place_id": "ChIJfyW8OaOMGGAR5rLSt2JXKVY"
  },
  "place:ぶたの旨味らーめん　とんくる 渋谷区笹塚2-11-6アーバン2-102": {
    "lat": 35.6751727,
    "lng": 139.6681578,
    "place_id": "ChIJLXVuTB_zGGARw-vBqOQ5ysA"
  },
  "place:ぶーてん 渋谷区恵比寿1-22-10カマスヤビル101": {
    "lat": 35.646420299999996,
    "lng": 139.7141045,
    "place_id": "ChIJqVuy1xSLGGARZ_hipsOVH1Y"
  },
  "place:へぎそば昆　北参道店 渋谷区千駄ヶ谷3-17-5グエルサカエ北参道B1‐A": {
    "lat": 35.6760898,
    "lng": 139.7076375,
    "place_id": "ChIJh8ghVUuNGGAR1pezLFGtvfE"
  },
  "place:べがす 渋谷区円山町28-8第18宮廷マンション102": {
    "lat": 35.6555458,
    "lng": 139.6941218,
    "place_id": "ChIJFbDwZcuLGGARrU6XuUcnRNg"
  },
  "place:ほっこり酒場こたつ 渋谷区笹塚1丁目62-8キャッスルマンション笹塚103": {
    "lat": 35.672849299999996,
    "lng": 139.66260699999998,
    "place_id": "ChIJl1wMQN3zGGAR3Z0-QubkwFE"
  },
  "place:ぽつら　ぽつら 渋谷区円山町22-11USBビル1階": {
    "lat": 35.6561477,
    "lng": 139.694039,
    "place_id": "ChIJNV8pmVWLGGARnmRPLj1k1P8"
  },
  "place:まいた 渋谷本店 渋谷区渋谷2-19-17第106東京ビル9F": {
    "lat": 35.659664899999996,
    "lng": 139.7042008,
    "place_id": "ChIJlY34bsSLGGAR397pgt71taQ"
  },
  "place:まぜそば七 渋谷区桜丘町16番10号": {
    "lat": 35.6566384,
    "lng": 139.7010709,
    "place_id": "ChIJaw8uYVeLGGARyvfzNQ-2nBI"
  },
  "place:まっちょまっちょ 渋谷区道玄坂1-6-2渋谷ファイブビル4F　まっちょまっちょ": {
    "lat": 35.657916199999995,
    "lng": 139.69914079999998,
    "place_id": "ChIJkck-qHaLGGAR1kdY4rgCcQ8"
  },
  "place:まつ家庭料理 渋谷区千駄ヶ谷3-30-4ホワイトキャッスル": null,
  "place:まにまに / manimani 渋谷区笹塚3丁目13番8号エーデルハイム102": {
    "lat": 35.6775111,
    "lng": 139.66704339999998,
    "place_id": "ChIJ3yJYj_bzGGARQjFEN2Un4ak"
  },
  "place:まるカフェ 渋谷区初台1-11-12": {
    "lat": 35.6794089,
    "lng": 139.686373,
    "place_id": "ChIJKd19LDLzGGARAQckbmvRS7I"
  },
  "place:みどり食堂 渋谷区千駄ヶ谷2-15-7大野ビル1階": {
    "lat": 35.6738232,
    "lng": 139.7110336,
    "place_id": "ChIJDzACFwCNGGARoQtIqwaQvX8"
  },
  "place:みむろ 京都市中心部 京都": {
    "lat": 35.0144005,
    "lng": 135.7535437,
    "place_id": "ChIJ6xdR7JgIAWARfqnhoPGH-KM"
  },
  "place:みやび屋幡ヶ谷店 渋谷区幡ヶ谷2-9-20サカエビル1階": {
    "lat": 35.6782957,
    "lng": 139.6775117,
    "place_id": "ChIJUZk3ySTzGGARvKjNCNxu4f4"
  },
  "place:む鉄砲 渋谷区宇田川町41-28茂木ビル1階": {
    "lat": 35.6629159,
    "lng": 139.6950583,
    "place_id": "ChIJQxWcFKyMGGARnC4euCeFScE"
  },
  "place:めし屋エビス 京都市中心部 京都": {
    "lat": 35.0102999,
    "lng": 135.76932499999998,
    "place_id": "ChIJJW-CL7EJAWARcgydzfVdG18"
  },
  "place:もしも食堂 渋谷区道玄坂1-2-3東急プラザ6F": {
    "lat": 35.6576545,
    "lng": 139.7003114,
    "place_id": "ChIJNdsF59iLGGARVNkoMYuIccQ"
  },
  "place:もっとやるき恵比寿店 渋谷区恵比寿西1-9-1第2ともえビルB1": {
    "lat": 35.647346399999996,
    "lng": 139.70820609999998,
    "place_id": "ChIJ40qBGkGLGGARN8Km4XqGxKk"
  },
  "place:もつ鍋旦過 渋谷区神宮前2-15-2": {
    "lat": 35.6742682,
    "lng": 139.7115069,
    "place_id": "ChIJ4WKKeb2MGGARnqg-nPBBy-U"
  },
  "place:ももたろう 渋谷区幡ヶ谷1-5-4大坂屋ビル1階": {
    "lat": 35.6763555,
    "lng": 139.6746578,
    "place_id": "ChIJi07KtzzzGGARVxAv38Z_32k"
  },
  "place:やきとりがっちょん 渋谷区本町6-15-9菊地ハイツ101": {
    "lat": 35.6833376,
    "lng": 139.6783479,
    "place_id": "ChIJ2wxueuLzGGARBVBSDkXicR0"
  },
  "place:やきとん　やまじ 渋谷区幡ヶ谷3-11-9角田ビル1F": {
    "lat": 35.6815546,
    "lng": 139.67539969999999,
    "place_id": "ChIJq_EIx-7zGGARa2KNAL0PcIk"
  },
  "place:やきとん鈴なり 渋谷区幡ヶ谷2丁目9-2ロスアミーゴス102": {
    "lat": 35.678143999999996,
    "lng": 139.67735399999998,
    "place_id": "ChIJtVAHKwfzGGAR3q9ZLbSOk4Q"
  },
  "place:やむなし松濤 渋谷区宇田川町37-12眞砂ビル階": {
    "lat": 35.662276299999995,
    "lng": 139.6954093,
    "place_id": "ChIJK8rG3HmNGGARB5_q4M7zFkU"
  },
  "place:ゆばんざい こ豆や 錦店 京都市中心部 京都": {
    "lat": 35.0048448,
    "lng": 135.76159479999998,
    "place_id": "ChIJq6r6n5AIAWARq6X6kTx7aUc"
  },
  "place:ゆめの庵 渋谷区恵比寿西1-15-2アパルトマンイトウ1F": {
    "lat": 35.6481675,
    "lng": 139.7076392,
    "place_id": "ChIJXUEh4PWLGGARqNI0suXiE5Q"
  },