{
  "place:25 Hudson 〒135-0016 東京都江東区東陽5-25-13-1F": {
    "lat": 35.6708827,
    "lng": 139.813887,
    "place_id": "ChIJTaKcGMmJGGARRzDpbxXFZDc"
  },
  "place:347Cafe＆Lounge 〒150-0002 東京都渋谷区渋谷1-23-16 cocotiビル 3F": {
    "lat": 35.6620072,
    "lng": 139.7026272,
    "place_id": "ChIJozhgx6eMGGARKtWlrbOX7ns"
  },
  "place:701 〒101-0021 東京都千代田区外神田2-1-3 東進ビル新館1階": {
    "lat": 35.6996199,
    "lng": 139.7667085,
    "place_id": "ChIJLdDA4HiNGGARCcHyQmvL0OI"
  },
  "place:A&Cスタジオことのは 〒170-0002 東京都 豊島区巣鴨2-11-5 巣鴨第1ビル3階": {
    "lat": 35.7356689,
    "lng": 139.7365243,
    "place_id": "ChIJKUuR10KNGGARVITEyDL2VVU"
  },
  "place:ABASQUE Itsas eta Mendi 〒150-0002 東京都渋谷区渋谷2丁目12-11松下ビル1階": {
    "lat": 35.6586984,
    "lng": 139.7084644,
    "place_id": "ChIJkUXVml6LGGARfttNsHpNkjk"
  },
  "place:ACORN 新宿東宝ビル店 160-0021 東京都新宿区歌舞伎町1-19-1 新宿東宝ビル 1F": {
    "lat": 35.6951588,
    "lng": 139.70205389999998,
    "place_id": "ChIJw6YDLtiMGGAR7VE72FYk7xM"
  },
  "place:AIGIS表参道店 〒150-0001 東京都渋谷区神宮前6丁目29ｰ4 HH BUILDING 4階": {
    "lat": 35.6675827,
    "lng": 139.7045497,
    "place_id": "ChIJN83Ci1zzGGARhoVoqJMlRk0"
  },
  "place:AJANTA アジャンタ 〒102-0084 東京都千代田区二番町3-11": {
    "lat": 35.6861406,
    "lng": 139.7369243,
    "place_id": "ChIJGXDwhmOMGGARFo0bjKveKu8"
  },
  "place:ALMA 〒150-0011 東京都渋谷区東3-15-6 百百代ビル 1F": {
    "lat": 35.6505657,
    "lng": 139.70936899999998,
    "place_id": "ChIJd4b6NUKLGGARtk962gShFs4"
  },
  "place:ANIKU produced by 新井屋 〒101-0061 東京都千代田区神田三崎町2-16-10": {
    "lat": 35.700928499999996,
    "lng": 139.7533812,
    "place_id": "ChIJ0SCpDE6NGGARNuuIUMu54DI"
  },
  "place:All-Day Dining OASIS GARDEN（ザ・プリンスギャラリー 東京紀尾井町内） 〒102-8585 東京都千代田区紀尾井町1-2 ザ・プリンスギャラリー 東京紀尾井町,ラグジュアリーコレクションホテル36F": {
    "lat": 35.679518,
    "lng": 139.7375066,
    "place_id": "ChIJ_Uu2-3uMGGARbdlVlLCyTMc"
  },
  "place:Amour 〒150-0012 東京都渋谷区広尾1丁目6-13": {
    "lat": 35.648751499999996,
    "lng": 139.7141497,
    "place_id": "ChIJLTh95UKLGGARaNNQTNyglXE"
  },
  "place:AnchorPoint 〒102-0093 東京都千代田区平河町2-6-4 海運ビル1F": {
    "lat": 35.679478599999996,
    "lng": 139.7397061,
    "place_id": "ChIJAVoEeHmMGGARvoInBliuVns"
  },
  "place:BALCONE SHIBUYA 〒150-0042 東京都渋谷区宇田川町10-3 VORT渋谷Ⅱ9F": {
    "lat": 35.6628541,
    "lng": 139.69692089999998,
    "place_id": "ChIJ0bWIS2WNGGARnLsKQXmDvTo"
  },
  "place:BENJAMIN STEAK HOUSE 東京ガーデンテラス紀尾井町店 〒102-0094 東京都千代田区紀尾井町1-2 東京ガーデンテラス紀尾井町 4F": {
    "lat": 35.6794052,
    "lng": 139.7372696,
    "place_id": "ChIJY1hD3rGNGGARLF5vOikFOlw"
  },
  "place:BENJAMIN TERRACE LOUNGE 〒102-0094 東京都千代田区紀尾井町1-2 東京ガーデンテラス紀尾井町 4F": {
    "lat": 35.6794052,
    "lng": 139.7372696,
    "place_id": "ChIJY1hD3rGNGGARLF5vOikFOlw"
  },
  "place:BIEN-ETRE MAISON 〒151-0064 東京都渋谷区上原1-17-11 3F": {
    "lat": 35.669215699999995,
    "lng": 139.68233,
    "place_id": "ChIJhUm8tMPzGGARvLgUMcKAHSQ"
  },
  "place:BIEN-ETRE PATISSERIE 〒151-0064 東京都渋谷区上原1-21-10 1F": {
    "lat": 35.6682324,
    "lng": 139.6825203,
    "place_id": "ChIJy3EE9EjzGGARcnBSjO1lG6g"
  },
  "place:BLACOWS ZERO 〒150-0021 東京都渋谷区恵比寿西2-11-9 東光ホワイトビル 1F": {
    "lat": 35.6494566,
    "lng": 139.707133,
    "place_id": "ChIJA6_y7UOLGGARR0HVb-2uF9A"
  },
  "place:BLESS 〒135-0004 東京都江東区森下2-20-13": {
    "lat": 35.6882698,
    "lng": 139.7995009,
    "place_id": "ChIJ43M1theJGGAR0Igi31iOJ5c"
  },
  "place:BRIBON 〒171-0031 東京都豊島区目白3-5-12 目白コアビルB1": {
    "lat": 35.7223909,
    "lng": 139.70488459999999,
    "place_id": "ChIJg2PqQESNGGARMXhxKaD2WIU"
  },
  "place:Beer ＆ Spice KITTE丸の内店 〒100-7001 東京都千代田区丸の内2-7-2 JPタワーKITTE 1F": {
    "lat": 35.6798453,
    "lng": 139.7647288,
    "place_id": "ChIJCbvm9_qLGGARi8ZuxjhEXbU"
  },
  "place:Bistro W 〒160-0004 東京都新宿区四谷3-14-1\nホテルウィングインターナショナルプレミアム東京四谷 1F": {
    "lat": 35.6880976,
    "lng": 139.7184246,
    "place_id": "ChIJV0IRW-yMGGARw68AuQ2VK0k"
  },
  "place:Bistro YEBISU 〒150-0011 東京都渋谷区東3-15-8小澤ビル1F": {
    "lat": 35.6502517,
    "lng": 139.70962939999998,
    "place_id": "ChIJHRbzMEKLGGARjd3oqimfZvk"
  },
  "place:Boulangerie HARU 〒135-0016 東京都江東区東陽3-27-30-1F": {
    "lat": 35.669687499999995,
    "lng": 139.8154151,
    "place_id": "ChIJ_3DvcOeJGGARtXwIVwmLiZ8"
  },
  "place:Brasserie Laiton 〒171-0021 東京都豊島区西池袋1-9-8 阿部ビル1F": {
    "lat": 35.729108599999996,
    "lng": 139.7085217,
    "place_id": "ChIJ5UIdW1aNGGARukJ-5P7PoVU"
  },
  "place:Brasserie Salut(ブラッスリー ・サリュー) 〒151-0051 東京都渋谷区千駄ヶ谷4-5-11 SuSLOB北参道 1F": {
    "lat": 35.6801216,
    "lng": 139.7041609,
    "place_id": "ChIJ2W0jEsKNGGARjwc3_tl6jv4"
  },
  "place:CEN CAFE & BAR 〒169-0073 東京都新宿区百人町1-5-19": {
    "lat": 35.699232699999996,
    "lng": 139.7012988,
    "place_id": "ChIJ25HyKSaNGGARsjnA0MQuXbE"
  },
  "place:CHOCOLATIER PALET D'OR 〒100-6501 東京都千代田区丸の内1-5-1新丸の内ビルディング１F": {
    "lat": 35.6827314,
    "lng": 139.7639987,
    "place_id": "ChIJN4zgs_mLGGARXqUyHIyqsUs"
  },
  "place:CURALUCE 〒170-0005 東京都豊島区南大塚2丁目35-11 アーバングリーン1階": {
    "lat": 35.7286242,
    "lng": 139.73001929999998,
    "place_id": "ChIJa7x2MACNGGARhJDEpVmYOOk"
  },
  "place:Cafe&Bar 渋谷ゴルフクラブ 〒150-0044 東京都渋谷区円山町25-7 ファザーランド渋谷Ⅲ 5階": {
    "lat": 35.6558814,
    "lng": 139.6935595,
    "place_id": "ChIJKe9VcCqLGGARElgzOyRa_sY"
  },
  "place:CasaBella 〒150-0001 東京都渋谷区神宮前2-3-30第二竹上ビルB1F": {
    "lat": 35.6744537,
    "lng": 139.7134121,
    "place_id": "ChIJpTbzA-GNGGARVeibvhoU90o"
  },
  "place:Cheval de Hyotan 〒171-0021 東京都豊島区西池袋3-5-7 ウィルコート1F": {
    "lat": 35.7287319,
    "lng": 139.705126,
    "place_id": "ChIJxcsWvVuNGGARsbx4kA__DhA"
  },
  "place:Convivio 〒151-0051 東京都渋谷区千駄ヶ谷3-17-12": {
    "lat": 35.6759166,
    "lng": 139.7080277,
    "place_id": "ChIJB1ZQ86a7JhURpb6TfiSk_vM"
  },
  "place:Cosmologia 〒160-0007 東京都新宿区荒木町23-15アケボノ大鉄ビル1F": {
    "lat": 35.691742999999995,
    "lng": 139.7232187,
    "place_id": "ChIJe32CIPKMGGARhBV4LPzBM40"
  },
  "place:Curry Leaves（カレーリーブス） 〒130-0013 東京都墨田区錦糸3-13-1": {
    "lat": 35.6993633,
    "lng": 139.8141268,
    "place_id": "ChIJuYRacpyTGGARI7P22YrduYk"
  },
  "place:DELIZIOSO FIRENZE 〒100-0005 東京都千代田区丸の内1-5-1 新丸の内ビルディング 5F": {
    "lat": 35.682345,
    "lng": 139.7639517,
    "place_id": "ChIJN4zgs_mLGGARvvHxkE9qUBk"
  },
  "place:DENKUSHIFLORI（デンクシフロリ） 〒150-0001 東京都渋谷区神宮前5丁目46番7号 GEMS青山CROSS B1A": {
    "lat": 35.6639239,
    "lng": 139.70893329999998,
    "place_id": "ChIJaavk9JeNGGARiR_VC8ekgdg"
  },
  "place:DIRITTO 〒162-0825 東京都新宿区神楽坂5-30-4 4F": {
    "lat": 35.7018651,
    "lng": 139.7385718,
    "place_id": "ChIJNXhMWCHzGGARrGznMYwN4Ak"
  },
  "place:DIYA 東京ミッドタウン日比谷店 〒100-0006 東京都千代田区有楽町1-1-2 東京ミッドタウン日比谷2F": {
    "lat": 35.673665299999996,
    "lng": 139.75937,
    "place_id": "ChIJR2YbJO6LGGARccKCHxe0ecg"
  },
  "place:DRAWING HOUSE OF HIBIYA 〒100-0066 東京都千代田区有楽町1-1-2 東京ミッドタウン日比谷6F": {
    "lat": 35.6736991,
    "lng": 139.75887559999998,
    "place_id": "ChIJ9yEjreuLGGARZA6MoC9T6Do"
  },
  "place:Debut icci 代官山 〒150-0034 東京都渋谷区代官山町12-3 1F": {
    "lat": 35.6506629,
    "lng": 139.7039548,
    "place_id": "ChIJVfCjYRyLGGARWqo_lE64r4M"
  },
  "place:Dining & Bar TENQOO（ホテルメトロポリタン丸の内27階） 〒100-0005 東京都千代田区丸の内1-7-12 サピアタワー27階": {
    "lat": 35.6837867,
    "lng": 139.76834309999998,
    "place_id": "ChIJkwDaxf6LGGAR099fEcJTt1I"
  },
  "place:Dining Café HARU 〒135-0016 東京都江東区東陽4-11-33サンイースト21-1F": {
    "lat": 35.6737311,
    "lng": 139.81641009999998,
    "place_id": "ChIJ4xKT_h6JGGARjTkn1jnlwDk"
  },
  "place:Dining bar ROOT 〒160-0021 東京都新宿区歌舞伎町2-11-2 良川ビルⅢ 1F": {
    "lat": 35.6958446,
    "lng": 139.70490669999998,
    "place_id": "ChIJT3al4miNGGARW3E1EGbqyCA"
  },
  "place:Dining bar Riso 住吉店 〒135-0003 東京都江東区猿江2-13-3 1F": {
    "lat": 35.6865434,
    "lng": 139.8160686,
    "place_id": "ChIJreJPBZ2JGGARqe9orp-b7mo"
  },
  "place:EMME エンメ 〒150-0002 東京都渋谷区渋谷2-3-19 ローゼ青山1階": {
    "lat": 35.660053600000005,
    "lng": 139.70884429999998,
    "place_id": "ChIJQ_I_2zCLGGARXoFoIph8NZw"
  },
  "place:ESOLA 新宿店 〒160-0023 東京都新宿区歌舞伎町1-16-3 セレサ陽栄新宿ビル5F": {
    "lat": 35.693780700000005,
    "lng": 139.7019013,
    "place_id": "ChIJnRCAewCNGGAR-CbhSNsPpH8"
  },
  "place:Etape 〒130-0005 東京都墨田区東駒形2-21-6 ディアウぃステリア102": {
    "lat": 35.7074535,
    "lng": 139.7999643,
    "place_id": "ChIJD34kbjGPGGARrfsQXkKOwzM"
  },
  "place:FLOTO 〒151-0053 東京都渋谷区代々木4-12-6 1F": {
    "lat": 35.679179999999995,
    "lng": 139.69189,
    "place_id": "ChIJW_Z0p8yMGGARGKLxL3ZwC40"
  },
  "place:FUSOU 〒150-0031 東京都渋谷区桜丘町1-11-1 sakurastage ShibuyaTower 38階 manoma": {
    "lat": 35.656978699999996,
    "lng": 139.7018986,
    "place_id": "ChIJ40GKTLyLGGARoEOWbdUe_Sk"
  },
  "place:Fra 〒171-0044 東京都豊島区千早1丁目15-16 興輝ビル1F": {
    "lat": 35.7306919,
    "lng": 139.6979163,
    "place_id": "ChIJv2xJiUSNGGAR64h-GT2F1qk"
  },
  "place:GARA スパイスレストラン 池袋店 〒171-0021 東京都豊島区西池袋5-13-10": {
    "lat": 35.7327446,
    "lng": 139.7030576,
    "place_id": "ChIJMb0SRFiNGGARCUUAqhrggkE"
  },
  "place:GARB pintino 〒101-0054 東京都千代田区神田錦町3丁目22 テラススクエア 2F": {
    "lat": 35.6934032,
    "lng": 139.7600221,
    "place_id": "ChIJm465MhCMGGARwiSrvbH-YVE"
  },
  "place:GOOD MORNING CAFÉ 錦町 〒101-0054 東京都千代田区神田錦町3-20 錦町トラッドスクエア 1F": {
    "lat": 35.6932687,
    "lng": 139.76081539999998,
    "place_id": "ChIJOSGdOhCMGGARPL4uA3Xt4b0"
  },
  "place:GRILL UKAI MARUNOUCHI 〒100-6902 東京都千代田区丸の内2-6-1 丸の内ブリックスクエア 2F": {
    "lat": 35.678704499999995,
    "lng": 139.7628152,
    "place_id": "ChIJewLRDPqLGGARURymBGhdyIk"
  },
  "place:GRILL&Bar Hanaya 〒160-0021 東京都新宿区歌舞伎町2-45-4 若月ビル B1F": {
    "lat": 35.6965848,
    "lng": 139.700461,
    "place_id": "ChIJrWCZBnaNGGAR-ccKRf7KPio"
  },
  "place:HASABON 〒162-0831 東京都新宿区横寺町30神楽坂茶ノ木テラス101": {
    "lat": 35.7031231,
    "lng": 139.734999,
    "place_id": "ChIJKek8Ie-NGGAR7U9AvRsfZJ4"
  },
  "place:HEAVENLY Island Lifestyle 代官山 〒150-0033 東京都渋谷区猿楽町24-7 代官山プラザ2F": {
    "lat": 35.6484026,
    "lng": 139.7015819,
    "place_id": "ChIJEbTGGf6LGGARp6x3eQyXuIA"
  },
  "place:HOT SAKE Lab 〒130-0001 東京都墨田区吾妻橋2丁目9-8 町田第二ファミール": {
    "lat": 35.7093896,
    "lng": 139.8029215,
    "place_id": "ChIJlyO0yv-PGGAR7lK2w0YN710"
  },
  "place:HOTEL CEN 〒169-0073 東京都新宿区百人町1-5-19": {
    "lat": 35.6992323,
    "lng": 139.70129939999998,
    "place_id": "ChIJt-IhlvSNGGARfMVrwXejxJ4"
  },
  "place:HOW'z 〒150-0001 東京都渋谷区神宮前6丁目31-21 東急プラザ原宿ハラカド3階": {
    "lat": 35.6684807,
    "lng": 139.7049423,
    "place_id": "ChIJbd28zs2NGGAR9ylKuVvzNqc"
  },
  "place:Harmonie agreable 〒150-0002 東京都渋谷区渋谷4-1-13": {
    "lat": 35.65992,
    "lng": 139.7130711,
    "place_id": "ChIJxxf0zcWLGGARjcV1RE0iE4k"
  },
  "place:Italian bar Riso 〒135-0004 東京都江東区森下2-20-11 鎌田ビル1F": {
    "lat": 35.6883173,
    "lng": 139.7998431,
    "place_id": "ChIJZ4GTSTqJGGARaU0IIBNgwUA"
  },
  "place:JOE TALK COFFEE 〒150-0011 東京都渋谷区東3丁目16-10 三浦ビル": {
    "lat": 35.6489028,
    "lng": 139.7107336,
    "place_id": "ChIJzR-UeV6LGGARe0j_OeIaENE"
  },
  "place:Japanese Soba Noodles 蔦 〒151-0066 東京都渋谷区西原3-2-4 B1F": {
    "lat": 35.6703963,
    "lng": 139.6824758,
    "place_id": "ChIJVVVVVZiNGGAR_Dkw0TJHoN4"
  },
  "place:Jfree 〒162-0825 東京都新宿区神楽坂2-11-7 エーワイツービルディング2F": {
    "lat": 35.701186199999995,
    "lng": 139.7419712,
    "place_id": "ChIJB_eofbCNGGAR9irnB79qoD0"
  },
  "place:KAMERA 〒150-0043 東京都渋谷区道玄坂2-20-5 1F": {
    "lat": 35.6593136,
    "lng": 139.6965419,
    "place_id": "ChIJm9M9-SuNGGAR2h6uPiFdvFs"
  },
  "place:Kumar Dhaba（クマールダバ） 〒170-0001 東京都豊島区西巣鴨4-13-14": {
    "lat": 35.7441682,
    "lng": 139.72892389999998,
    "place_id": "ChIJVfehHL-NGGARsxPY_4vJqy4"
  },
  "place:L'Octave Hayato KOBAYASHI 〒151-0051 東京都渋谷区千駄ヶ谷3-30-9 モデリアブリュット101": {
    "lat": 35.6775801,
    "lng": 139.7077013,
    "place_id": "ChIJ02olwL6MGGARuo9YSm0tcnE"
  },
  "place:LA BRETXA 〒150-0013 東京都渋谷区恵比寿4-10-8 エビスビル 1F": {
    "lat": 35.6454844,
    "lng": 139.7147176,
    "place_id": "ChIJJ_wHGQCLGGARAg-3YyGSLvI"
  },
  "place:LAITIER 〒151-0051 東京都渋谷区千駄ヶ谷1-22-7 1F": {
    "lat": 35.6791346,
    "lng": 139.7087681,
    "place_id": "ChIJbfvLAb-MGGARZ420NprWoao"
  },
  "place:LATURE 〒150-0002 東京都渋谷区渋谷2-2-2 青山ルカビルB1F": {
    "lat": 35.660762,
    "lng": 139.708599,
    "place_id": "ChIJ5S6oA1-LGGAREG-V6VQQP_0"
  },
  "place:LOKAHi 〒170-0004 東京都豊島区北大塚2-8-8 北大塚ビル102": {
    "lat": 35.733663899999996,
    "lng": 139.7267024,
    "place_id": "ChIJh0mFlK6NGGARagfnrjo4fGk"
  },
  "place:LOU 〒164-0001 東京都中野区中野5-53-4": {
    "lat": 35.7091706,
    "lng": 139.666534,
    "place_id": "ChIJ9djaMKPzGGARu0f-pQBMN6Q"
  },
  "place:La Fede 〒136-0073 東京江東区北砂7-5-14 1F": {
    "lat": 35.6796492,
    "lng": 139.8350596,
    "place_id": "ChIJgcCtEY2IGGARqDfbJ0xvSCs"
  },
  "place:La Padella d'Oro.1 〒131-0045 東京都墨田区押上1-22-1 スカイグランデ押上 1F": {
    "lat": 35.7107454,
    "lng": 139.8150461,
    "place_id": "ChIJ5_ANA9ePGGARLp41Gt0dBbQ"
  },
  "place:La Scène（ラ・セヌ）（メルキュール東京日比谷内） 〒100-0011 東京都千代田区内幸町1-5-2": {
    "lat": 35.6695893,
    "lng": 139.758043,
    "place_id": "ChIJIcyVYACLGGAR4EGpV7RmtHM"
  },
  "place:La Tourelle 〒162-0825 東京都新宿区神楽坂6-8 ボルゴ大〆2F": {
    "lat": 35.703226300000004,
    "lng": 139.7378909,
    "place_id": "ChIJV4u3sFCMGGARi6Qz_T07PHs"
  },
  "place:Louis Hamburger Restaurant 〒136-0076 東京都江東区南砂2-3-11": {
    "lat": 35.671154099999995,
    "lng": 139.8212471,
    "place_id": "ChIJdcRFMBuJGGARdqoWU9enJ0c"
  },
  "place:L’alba 〒162-0821 東京都新宿区津久戸町3-19 DeLCCS神楽坂津久戸町B1階": {
    "lat": 35.7029833,
    "lng": 139.7406883,
    "place_id": "ChIJsYOumyeNGGARkkNW6ZrAd0s"
  },
  "place:MARCO 〒135-0048 東京都江東区門前仲町1-12-7 佐野ビル1F": {
    "lat": 35.673437899999996,
    "lng": 139.7946963,
    "place_id": "ChIJrSDzahOJGGARVzqI4boJAyY"
  },
  "place:MONday Apart Premium 秋葉原 〒101-0025 東京都千代田区神田佐久間町4-5": {
    "lat": 35.69726,
    "lng": 139.7790238,
    "place_id": "ChIJLzm16huMGGAR3KpPXa7NQEc"
  },
  "place:NAKANOブリック 〒164-0001 東京都中野区中野5-61-3": {
    "lat": 35.7068612,
    "lng": 139.6661814,
    "place_id": "ChIJKxlxyJbyGGARTKiEQDGhodA"
  },
  "place:NAPRIMO 中野店 〒164-0001 東京都中野区中野5-60-2 ライオンズプラザ中野1F": {
    "lat": 35.707085,
    "lng": 139.6664093,
    "place_id": "ChIJb8iGxJbyGGARxEtNkLWsBlY"
  },
  "place:NEW LIGHT 〒150-0001 東京都渋谷区神宮前6-20-10 MIYASHITA PARK North 3F 301": {
    "lat": 35.6622664,
    "lng": 139.7018931,
    "place_id": "ChIJsdwdZBiNGGARhX_johrQbyg"
  },
  "place:NIKI BAKERY 駒込店 〒170-0003 東京都豊島区駒込1丁目42-1 第三米山ビル 1階": {
    "lat": 35.735453,
    "lng": 139.747266,
    "place_id": "ChIJ_VTyfYONGGARGFiGOeaRi04"
  },
  "place:NINJA TOKYO 〒100-0004 東京都千代田区大手町2丁目2-1 新大手町ビル地下1階": {
    "lat": 35.6843901,
    "lng": 139.76748569999998,
    "place_id": "ChIJTWMULnmMGGARNNsNKxPR_Uk"
  },
  "place:Niru 〒150-0011 東京都渋谷区東1-25-5 1F": {
    "lat": 35.654320999999996,
    "lng": 139.7080693,
    "place_id": "ChIJjRj-YlCLGGARh-TFUYhk3yM"
  },
  "place:NoEscape新宿店 〒151-0053 東京都渋谷区代々木3丁目46-16 小野木ビル5F": {
    "lat": 35.6819367,
    "lng": 139.69522659999998,
    "place_id": "ChIJO89SOcyMGGAR4-c9m546RiQ"
  },
  "place:NoEscape池袋店 〒170-0012 東京都豊島区上池袋2丁目8-6 NoEscapeビル": {
    "lat": 35.7352091,
    "lng": 139.71562749999998,
    "place_id": "ChIJc3u9RqiNGGARLb_THSyAN38"
  },
  "place:Nœud. TOKYO 〒102-0093 東京都千代田区平河町2-5-7 ヒルクレスト平河町B1F": {
    "lat": 35.6797293,
    "lng": 139.7387309,
    "place_id": "ChIJt5zGCmWNGGARxzZXLKI63i8"
  },
  "place:Orchestra 〒151-0053 東京都渋谷区代々木4丁目1-7 森田ビル 1F": {
    "lat": 35.6792752,
    "lng": 139.69362999999998,
    "place_id": "ChIJYzjJRviNGGARED_2EvyYdRM"
  },
  "place:Osteria NORA（ホテルマイステイズ御茶ノ水コンファレンスセンター内） 〒101-0063 東京都千代田区神田淡路町2-10-6 ホテルマイステイズ御茶ノ水コンファレンスセンター1F": {
    "lat": 35.697344099999995,
    "lng": 139.7683729,
    "place_id": "ChIJjdmff6KNGGARf1NV0O_Nmug"
  },
  "place:Ostü 〒151-0053 東京都渋谷区代々木5-67-6 代々木松浦ビル1F": {
    "lat": 35.6704619,
    "lng": 139.6905591,
    "place_id": "ChIJ-W5jSEvzGGARzIjNAowKt90"
  },
  "place:Peter（ザ・ペニンシュラ東京内） 〒100-0006 東京都千代田区有楽町1-8-1 ザ・ペニンシュラ東京24F": {
    "lat": 35.674554199999996,
    "lng": 139.7607306,
    "place_id": "ChIJ55FqKPCLGGARoZjC7ygFsoE"
  },
  "place:RESTAURANT L’ESPRIT DE CHEVALIER 〒164-0003 東京都中野区東中野1-57-7 鈴木ビルB1F": {
    "lat": 35.7058165,
    "lng": 139.6841781,
    "place_id": "ChIJef0MCMnyGGARghDXfHtZcKY"
  },
  "place:RESTAURANT かみくら 〒162-0825 東京都新宿区神楽坂3-1": {
    "lat": 35.701960299999996,
    "lng": 139.7409123,
    "place_id": "ChIJjdT5wlqMGGAR-X1whq1quWM"
  },
  "place:RISTORANTE CHAILLY 〒101-0047 東京都千代田区内神田2丁目10-2 Uビル 1F": {
    "lat": 35.6906676,
    "lng": 139.76764559999998,
    "place_id": "ChIJy65GrQaMGGARMBALI0bVdmU"
  },
  "place:RISTORANTE YAGI 〒153-0035 東京都渋谷区鉢山町15-2 プラザ1000代官山B1": {
    "lat": 35.651455399999996,
    "lng": 139.6957927,
    "place_id": "ChIJX4uG2lOLGGARSHhulqcxQiI"
  },
  "place:RUSTEAKS 〒150-0012 東京都渋谷区広尾5-22-3 広尾西川ビル B1F": {
    "lat": 35.6486762,
    "lng": 139.71796129999998,
    "place_id": "ChIJf1sMtmyLGGARR9PL4QSN9s8"
  },
  "place:Rainbow Art Salon Tokyo 〒150-0013 東京都渋谷区恵比寿4-5-13 カーサ恵比寿壱番館201号": {
    "lat": 35.644964699999996,
    "lng": 139.71248319999998,
    "place_id": "ChIJlSD7ZACLGGARICA954qVgIY"
  },
  "place:Restaurant TOYO 〒100-0006 東京都千代田区有楽町1-1-2ミッドタウン日比谷 3F31300": {
    "lat": 35.6739622,
    "lng": 139.7596299,
    "place_id": "ChIJq_OOJO6LGGARM4tNfUzmBC4"
  },
  "place:Risosteria Trentatre 〒135-0033 東京都江東区深川2-19-1": {
    "lat": 35.6771297,
    "lng": 139.7972959,
    "place_id": "ChIJvwOyvuOJGGARTzvhDgu03uo"
  },
  "place:Rossi 〒102-0085 東京都千代田区六番町1-2 B1F": {
    "lat": 35.687756,
    "lng": 139.735659,
    "place_id": "ChIJ7xURYWGMGGARlvFiPcSnXpE"
  },
  "place:S spiral 〒150-0044 東京都渋谷区円山町2-14メゾン美幸1階": {
    "lat": 35.658047599999996,
    "lng": 139.6949725,
    "place_id": "ChIJvR2nM_uNGGAR-mhZhdxfjfA"
  },
  "place:SALONE TOKYO （サローネ トウキョウ） 〒100-0006 東京都千代田区有楽町1-1-2 東京ミッドタウン日比谷 3F 316": {
    "lat": 35.6739622,
    "lng": 139.7596299,
    "place_id": "ChIJq_OOJO6LGGAR0fbaEf8NyU4"
  },
  "place:SF-BAR 神田FLUX 〒101-0047 東京都千代田区内神田3-16-10-B1": {
    "lat": 35.6919456,
    "lng": 139.76949439999999,
    "place_id": "ChIJwY32YgGMGGARgAwIEtPAeko"
  },
  "place:SHIBUYA BREWERY 〒150-0031 東京都渋谷区桜丘町1-4 Shibuya Sakura Stage 4F": {
    "lat": 35.6560878,
    "lng": 139.7028545,
    "place_id": "ChIJGyRcEwCLGGARqsP0XkZ5n7s"
  },
  "place:SHIGE tei 〒162-0825 東京都新宿区神楽坂4丁目2-27": {
    "lat": 35.7019981,
    "lng": 139.73959299999999,
    "place_id": "ChIJW7FqxoONGGARQk1z-r_6Czk"
  },
  "place:SICO 〒130-0021 東京都墨田区緑1丁目19-9": {
    "lat": 35.694943599999995,
    "lng": 139.7985619,
    "place_id": "ChIJXV-jKFCJGGARKhfaXaU4Tsc"
  },
  "place:SOLEIL 日比谷OKUROJI 〒100-0011 東京都千代田区内幸町1-7-1 日比谷OKUROJI H8": {
    "lat": 35.6707727,
    "lng": 139.7593838,
    "place_id": "ChIJe85CX16LGGARXwZQ9qTmfmk"
  },
  "place:SRY+ IZAKAYA French Italian Creation とうきょうスカイツリー駅前店 〒131-0045 東京都墨田区押上2-1-1 107": {
    "lat": 35.7109035,
    "lng": 139.8090057,
    "place_id": "ChIJN8LZWZSPGGARqvxhx6DeY8Q"
  },
  "place:Shrimp Garden（シュリンプガーデン） 〒100-0011 東京都千代田区内幸町2-1-1飯野ﾋﾞﾙﾃﾞｨﾝｸﾞ1F": {
    "lat": 35.6708825,
    "lng": 139.75275689999998,
    "place_id": "ChIJbaPtUe2LGGAR3cQKlYfYKuo"
  },
  "place:Sky Gallery Lounge Levita / The Bar illumiid（ザ・プリンスギャラリー 東京紀尾井町内） 〒102-8585 東京都千代田区紀尾井町1-2 ザ・プリンスギャラリー東京紀尾井町,ラグジュアリーコレクションホテル35F": {
    "lat": 35.6794453,
    "lng": 139.737261,
    "place_id": "ChIJzWznB3yMGGARnKMob1oUQ8g"
  },
  "place:THE NOTE BAR 表参道店 〒150-0001 東京都渋谷区神宮前3-4-7 エルム青山1階": {
    "lat": 35.6687388,
    "lng": 139.7124728,
    "place_id": "ChIJSY1HcpyNGGARYJxPwmyAux8"
  },
  "place:TOKYO-CURRY-BUCCI 〒102-0072 東京都千代田区飯田橋1-10-1 六川ビル101": {
    "lat": 35.699519699999996,
    "lng": 139.7479054,
    "place_id": "ChIJv7kHCJGNGGARYhZEBCYJTFQ"
  },
  "place:TOKYO隅田川ブルーイング BEER&GRILL 〒130-0001 東京都墨田区吾妻橋1-23-36 アサヒビールアネックス2F": {
    "lat": 35.7094928,
    "lng": 139.8005398,
    "place_id": "ChIJ___PhMWOGGAROxuU78WT2kY"
  },
  "place:TWELVE On The Park 〒150-0001 東京都渋谷区神宮前6-20-10 MIYASHITA PARK North sequence MIYASHITA PARK 5F": {
    "lat": 35.6632211,
    "lng": 139.70186680000003,
    "place_id": "ChIJ5Y13vL6NGGARWOvS9OltpN8"
  },
  "place:Ta-im丸の内店 〒100-0005 東京都千代田区丸の内3-2-3丸の内二重橋ビルB1F": {
    "lat": 35.6776993,
    "lng": 139.7617349,
    "place_id": "ChIJQ-WhpXOLGGARQdk3ueBDfBg"
  },
  "place:Tas Yard 〒151-0051 東京都渋谷区千駄ケ谷3丁目3-14 メゾンブランシュ 101": {
    "lat": 35.6755886,
    "lng": 139.70573299999998,
    "place_id": "ChIJuW1uWLmMGGAR9vxc5gsmk5A"
  },
  "place:TexturA 〒100-0006 東京都千代田区有楽町1-7-1 有楽町電気ビル 1F": {
    "lat": 35.6744106,
    "lng": 139.76124729999998,
    "place_id": "ChIJlSku3LaLGGAR_l1v0ckr97o"
  },
  "place:The SG Tavern 〒100-0005 東京都千代田区丸の内1丁目4-1 丸の内永楽ビルディング101": {
    "lat": 35.684496599999996,
    "lng": 139.764489,
    "place_id": "ChIJRVM1RgSLGGARE7ClC8SVWXI"
  },
  "place:The Standard 〒150-0001 東京都渋谷区神宮前2-19-13 J2ビル3階": {
    "lat": 35.6736739,
    "lng": 139.7103698,
    "place_id": "ChIJx94wG7qNGGARCVwf1BaQw-Q"
  },
  "place:Tinc gana 〒102-0085 東京都千代田区六番町4-3 GEMS市ヶ谷 1F": {
    "lat": 35.6891599,
    "lng": 139.7352518,
    "place_id": "ChIJF1SZpZmNGGARMpZdBnEELqI"
  },
  "place:Trattoria La Puglia 〒100-0011 東京都千代田区内幸町1-7-1 日比谷OKUROJI H16": {
    "lat": 35.6697195,
    "lng": 139.758696,
    "place_id": "ChIJRznHnniLGGARNNoOTaHN6u0"
  },
  "place:TreVite/トレヴィーテ 〒151-0053 東京都渋谷区代々木1丁目45−3 セントオフィス代々木 1F": {
    "lat": 35.6822241,
    "lng": 139.6984645,
    "place_id": "ChIJ40ejcSCNGGAR_hD_kqRZQCg"
  },
  "place:TurnTable 〒150-0045 東京都渋谷区神泉町10-3": {
    "lat": 35.655386,
    "lng": 139.692916,
    "place_id": "ChIJ_59qBGKLGGARBFTKojmmESk"
  },
  "place:UNCHAIN DINER 〒130-0002 東京都墨田区業平2丁目5-7 1F": {
    "lat": 35.707340599999995,
    "lng": 139.811649,
    "place_id": "ChIJmdzpsNWOGGARqnl1T_5vy3w"
  },
  "place:UNE IMMERSION 〒151-0071 東京都渋谷区本町1-28-8 DAIM 1F": {
    "lat": 35.680202,
    "lng": 139.6801904,
    "place_id": "ChIJ8Qc0vJfzGGARTFmKJbb74sU"
  },
  "place:USHIHACHI 秋葉原店 〒101-0021 東京都千代田区外神田4-4-2 HULIC&NewAKIHABARA 4F": {
    "lat": 35.7011372,
    "lng": 139.77180239999998,
    "place_id": "ChIJb_jB8U-NGGARVExccrD80Jg"
  },
  "place:Unagi house 志の家 〒130-0012 東京都墨田区太平3-19-3": {
    "lat": 35.702633399999996,
    "lng": 139.8131438,
    "place_id": "ChIJe0m5A8mJGGARUHzfYUWICUM"
  },
  "place:VANNO 〒151-0071 東京都渋谷区本町2-28-4 サンエムマンションIII 101": {
    "lat": 35.683569999999996,
    "lng": 139.681636,
    "place_id": "ChIJ9UjLWi_zGGARS6RxEMIZUGA"
  },
  "place:VMG CAFE 九段会館テラス Kudan Kaikan Terrace 〒102-0074 東京都千代田区九段南1丁目6番5号": {
    "lat": 35.6946769,
    "lng": 139.75115169999998,
    "place_id": "ChIJAQDAQmuMGGARIyx-VvitiMc"
  },
  "place:WASHOKU 蒼天 SOUTEN（ザ・プリンスギャラリー 東京紀尾井町内） 〒102-8585 東京都千代田区紀尾井町1-2 ザ・プリンスギャラリー東京紀尾井町,ラグジュアリーコレクションホテル35F": {
    "lat": 35.6797366,
    "lng": 139.7380407,
    "place_id": "ChIJ4Z9j7XuMGGARrQzsVSEyAlE"
  },
  "place:WILD&RAW バーベキュー場 〒136-0076 東京都江東区南砂2丁目6-11 ファミル東陽町 3F": {
    "lat": 35.6732599,
    "lng": 139.8198476,
    "place_id": "ChIJX5sDvzSJGGARLvtf16HO-x0"
  },
  "place:WINE SALON R 〒164-0003 東京都中野区東中野1-50-4 日進ビル BF": {
    "lat": 35.7059743,
    "lng": 139.686531,
    "place_id": "ChIJn8P0Z0bzGGARQxbUqXhdhYM"
  },
  "place:WIZ CRAFT BEER and FOOD 〒101-0063 東京都千代田区神田淡路町2-105 ワテラスアネックス108": {
    "lat": 35.6974699,
    "lng": 139.7674042,
    "place_id": "ChIJJ6tEexuMGGARDEcrWig0q68"
  },
  "place:Wine厨房 tamaya suidobashi 〒101-0061 東京都千代田区神田三崎町3丁目6-15 ウィンド水道橋IIビル": {
    "lat": 35.7015512,
    "lng": 139.7515888,
    "place_id": "ChIJ3ZfIkUCMGGARFKQQrQcgYyM"
  },
  "place:Y.Y.G.Brewery and BeerKitchen 〒151-0053 東京都渋谷区代々木2-18-3オーチュー第1ビル1F／7F": {
    "lat": 35.686071399999996,
    "lng": 139.6965782,
    "place_id": "ChIJB-Qr-tGMGGARsyIY2rnSDzs"
  },
  "place:ZTTo morning 〒102-0093 東京都千代田区平河町2-4-4 owns平河町": {
    "lat": 35.681992199999996,
    "lng": 139.7384466,
    "place_id": "ChIJ4foQUACNGGARa6QOOB7KByM"
  },
  "place:abysse 〒150-0021 東京都渋谷区恵比寿西1-30-12 EBISU-HILLS 1F": {
    "lat": 35.6484697,
    "lng": 139.7056689,
    "place_id": "ChIJAQAAAGOLGGARxWRVGcdrynM"
  },
  "place:arcana tokyo 〒100-7006 東京都千代田区丸の内2-7-2 JPタワー KITTE 6階": {
    "lat": 35.6795579,
    "lng": 139.76478440000002,
    "place_id": "ChIJ26pqOPqLGGARIbtLEAWSVf4"
  },
  "place:base works TOKYO 〒151-0066 東京都渋谷区西原3丁目19-1-B": {
    "lat": 35.671011,
    "lng": 139.681043,
    "place_id": "ChIJS59o9jfzGGARjJT94EKGhCs"
  },
  "place:bistro LAVAROCK 丸の内 〒100-0005 東京都千代田区丸の内1-8-1 丸の内トラストタワーN館 2F": {
    "lat": 35.6834041,
    "lng": 139.76976779999998,
    "place_id": "ChIJW7MvLmSLGGAR-uDggumEhDw"
  },
  "place:bistronomie Avin 〒101-0021 東京都千代田区外神田6-8-10 永井ビル1階": {
    "lat": 35.704688399999995,
    "lng": 139.7701721,
    "place_id": "ChIJG2u5ZwCNGGAR1BShz3C0ARY"
  },
  "place:cadet 〒101-0054 東京都千代田区神田錦町3-22 テラススクエア 1F": {
    "lat": 35.6934032,
    "lng": 139.7600221,
    "place_id": "ChIJPThUzR6NGGARajYOKu_PIbs"
  },
  "place:calore 〒135-0047 東京都江東区富岡1-25-4 NICハイム八幡2Ｆ": {
    "lat": 35.6702678,
    "lng": 139.7989527,
    "place_id": "ChIJzX3MksGJGGARECTS1JjkB9E"
  },
  "place:common cafe 新宿東口店 160-0021 東京都新宿区歌舞伎町1丁目20-2 アパホテル東新宿歌舞伎町2階": {
    "lat": 35.6959381,
    "lng": 139.70123279999999,
    "place_id": "ChIJbXqA99eMGGARC-e9yosu-mg"
  },
  "place:emuN 〒151-0066 東京都渋谷区西原3-11-9 蜂章ビル 3F": {
    "lat": 35.6693997,
    "lng": 139.679865,
    "place_id": "ChIJY_C-tz-LGGARjwWuhCf25jA"
  },
  "place:enoteca miyaji 〒150-0002 東京都渋谷区渋谷2-2-4 青山アルコーブ202": {
    "lat": 35.660466,
    "lng": 139.70864849999998,
    "place_id": "ChIJrXOMRh2LGGARTyWU63Fwj4I"
  },
  "place:falò 〒150-0034 東京都渋谷区代官山町14-10 Luz代官山B1": {
    "lat": 35.6500115,
    "lng": 139.7042731,
    "place_id": "ChIJVVUI_ESLGGARVcB9OFOUd64"
  },
  "place:fileja 〒1010041 東京都千代田区神田須田町2-13-1 ノルン秋葉原1階": {
    "lat": 35.6961976,
    "lng": 139.7743502,
    "place_id": "ChIJC-Jk0l2PGGARtB-7soCAiBE"
  },
  "place:hotel MONday Premium 豊洲 〒135-0062 東京都江東区東雲1-2-11": {
    "lat": 35.6490236,
    "lng": 139.8009965,
    "place_id": "ChIJjbJ_gIuJGGARp5aotBPwXG0"
  },
  "place:icci 代官山 〒150-0034 東京都渋谷区代官山町10-4": {
    "lat": 35.6505296,
    "lng": 139.70447009999998,
    "place_id": "ChIJoeG4lieLGGARHUWY0Rl2hp8"
  },
  "place:il Pregio (イル・プレージョ) 〒151-0064 東京都渋谷区上原1-17-7 フレニティハウス2F": {
    "lat": 35.668934199999995,
    "lng": 139.6825369,
    "place_id": "ChIJ3_WXXEjzGGARM0DvWO0aGSk"
  },
  "place:kawasemi 〒170-0013 東京都豊島区東池袋5丁目45-6 オリエンタル新大塚コーポラス103": {
    "lat": 35.7274988,
    "lng": 139.7269838,
    "place_id": "ChIJg0AFdh-NGGARQHYvr5n2ePo"
  },
  "place:mikuni MARUNOUCHI 〒100-6902 東京都千代田区丸の内2-6-1 丸の内ブリックスクエア アネックス2階": {
    "lat": 35.6785627,
    "lng": 139.7625457,
    "place_id": "ChIJewLRDPqLGGARqpchWd9BTiE"
  },
  "place:mon atelier 〒150-0002 東京都渋谷区渋谷1-10-12 宮城ビル2F": {
    "lat": 35.660724300000005,
    "lng": 139.7048209,
    "place_id": "ChIJ58LvkFiLGGAR5rQwRXVHeHg"
  },
  "place:mori 〒150-0022 東京都渋谷区恵比寿南1-14-2 タイムゾーンビル3F": {
    "lat": 35.6450969,
    "lng": 139.71032839999998,
    "place_id": "ChIJx7zg9D-LGGARJWTCDuzLR8o"
  },
  "place:nami.nami 〒150-0034 東京都渋谷区代官山町7-2 EVER1F": {
    "lat": 35.651569599999995,
    "lng": 139.7056948,
    "place_id": "ChIJLWl5ScGLGGARUFKyoKgJEEY"
  },
  "place:natuRe tokyo（ナチュール トウキョウ） 〒160-0013 東京都新宿区霞ヶ丘町5-7 E棟": {
    "lat": 35.6753305,
    "lng": 139.7146363,
    "place_id": "ChIJg6UbKACNGGARBtvVM4UdEeU"
  },
  "place:plate 〒150-0013 東京都渋谷区恵比寿1-31-11 ソシア恵比寿1F": {
    "lat": 35.64677450000001,
    "lng": 139.717174,
    "place_id": "ChIJGTynxfOLGGARxeDIGOXwnYs"
  },
  "place:ristorante della collina 〒150-0022 東京都渋谷区恵比寿南2-9-4 安島ビル2F": {
    "lat": 35.643982,
    "lng": 139.70946999999998,
    "place_id": "ChIJd8t0mT-LGGAR1AGDJCY1hdo"
  },
  "place:shiari samgyetang 〒150-0001 東京都渋谷区神宮前3-4-3 パークサイド表参道 1F": {
    "lat": 35.6684955,
    "lng": 139.71272299999998,
    "place_id": "ChIJI9H8nn2NGGARhKeYO3zhv6w"
  },
  "place:the TAG 〒150-0001 東京都渋谷区神宮前6-31-21": {
    "lat": 35.668337099999995,
    "lng": 139.7048337,
    "place_id": "ChIJ61UjDwCNGGARUu97N3ZbALc"
  },
  "place:the b 池袋 〒170-0013 東京都豊島区東池袋1-39-4": {
    "lat": 35.7323509,
    "lng": 139.7141748,
    "place_id": "ChIJpevY4maNGGARgjk-4EuUC4I"
  },
  "place:あうるぱーくフクロウカフェ東京 池袋西口 〒171-0021 東京都豊島区西池袋3-30-11泰共フラットビル2F": {
    "lat": 35.731005599999996,
    "lng": 139.7067516,
    "place_id": "ChIJAQCQAVyNGGARRNgNXPIB8Rk"
  },
  "place:うを徳 〒131-0032 東京都墨田区東向島4-24-26": {
    "lat": 35.723920299999996,
    "lng": 139.8174285,
    "place_id": "ChIJjy2jwSGPGGARKSpHdaQD5bQ"
  },
  "place:おいしい野菜とイタリアン『笑がお』 〒130-0004 東京都墨田区本所1-30-7": {
    "lat": 35.7043327,
    "lng": 139.79854459999999,
    "place_id": "ChIJT-74FFGPGGARMhgEtwOSRE0"
  },
  "place:おねぎや 新宿店 〒160-0022 東京都新宿区新宿3-10-5": {
    "lat": 35.691278,
    "lng": 139.7061036,
    "place_id": "ChIJ1Uw_fNuMGGARPlpQRwjAArQ"
  },
  "place:おばん菜スタンド ふじな 〒171-0051 東京都豊島区長崎1-2-3ウツギビル2階": {
    "lat": 35.7267514,
    "lng": 139.694863,
    "place_id": "ChIJL5nSPSCNGGAR7bxIkbfTJMI"
  },
  "place:お好み焼き 文字平 〒102-0084 東京都千代田区二番町1-2 番町ハイム1F": {
    "lat": 35.6865217,
    "lng": 139.7379551,
    "place_id": "ChIJq3FpYWSMGGARjCnoChTHW5k"
  },
  "place:お座敷天婦羅天政 丸ビル店 〒100-6335 東京都千代田区丸の内2-4-1 丸の内ビルディング35階": {
    "lat": 35.6813247,
    "lng": 139.76399,
    "place_id": "ChIJH8vQ7fmLGGAR6LVwN-TIylk"
  },
  "place:お茶の水ホテル 昇龍館 〒101-0052 東京都千代田区神田小川町3-24-9": {
    "lat": 35.695632499999995,
    "lng": 139.762859,
    "place_id": "ChIJmTnZghqMGGARFir9IZJV7Es"
  },
  "place:かどやホテル 〒160-0023 東京都新宿区西新宿1-23-1": {
    "lat": 35.68981,
    "lng": 139.69619,
    "place_id": "ChIJl2Rt_tOMGGARSbquYusMyFw"
  },
  "place:きむら屋 飯田橋 〒102-0072 東京都千代田区飯田橋4-9-8 大和ビル2F": {
    "lat": 35.7015531,
    "lng": 139.74537429999998,
    "place_id": "ChIJC3UkZkSMGGARU4WiSKopbGk"
  },
  "place:げんかい食堂 〒160-0022 東京都新宿区新宿5-5-1 玄海ビル1F": {
    "lat": 35.6918758,
    "lng": 139.71008519999998,
    "place_id": "ChIJgxHahSyNGGARzjk8Bel_ou0"
  },
  "place:ごはん屋たまり 〒162-0041 東京都新宿区早稲田鶴巻町519-26 早稲田KMビル1階": {
    "lat": 35.7078029,
    "lng": 139.72393449999998,
    "place_id": "ChIJtR9AiNCNGGARv12uyoAsZ4g"
  },
  "place:しゃぶしゃぶつかだ 渋谷スクランブルスクエア 〒150-0002 東京都渋谷区渋谷2-24-12 渋谷スクランブルスクエア12F": {
    "lat": 35.6584466,
    "lng": 139.7021636,
    "place_id": "ChIJvznS6OSLGGAR04ScnodwqtU"
  },
  "place:すえひろの湯 ドーミーイン秋葉原 〒101-0021 東京都千代田区外神田4-12-5": {
    "lat": 35.702597600000004,
    "lng": 139.77328789999999,
    "place_id": "ChIJ29MCfh-MGGARQ3dSYbifBrE"
  },
  "place:すき焼き十二天 〒100-0005 東京都千代田区丸の内2-6-1 ブリックスクエア3F": {
    "lat": 35.678708,
    "lng": 139.76274060000003,
    "place_id": "ChIJXX5Z8CWLGGARoD1i-kIWNdU"
  },
  "place:すしや宣 〒150-0012 東京都渋谷区広尾5丁目17-4 GRARIA3階": {
    "lat": 35.6497661,
    "lng": 139.7203894,
    "place_id": "ChIJj0Xt2pmLGGAR8FcjXML9j6Y"
  },
  "place:すし土風炉 西新宿七丁目店 〒160-0023 東京都新宿区西新宿7-20-3 ウエストゲート新宿ビルB1": {
    "lat": 35.6939409,
    "lng": 139.6952394,
    "place_id": "ChIJa3xk9NWMGGARcCqsJldhWjs"
  },
  "place:すみだCafe 〒130-0001 東京都墨田区吾妻橋2-1-4": {
    "lat": 35.7082445,
    "lng": 139.8026176,
    "place_id": "ChIJtfyGbHWPGGARioEQ1byAF_E"
  },
  "place:すみだ珈琲 〒130-0012 東京都墨田区太平4-7-11": {
    "lat": 35.7013974,
    "lng": 139.8162049,
    "place_id": "ChIJ4RCa1dWIGGARBpMJOLXul6M"
  },
  "place:そばがみ 〒100-0006 東京都千代田区有楽町1丁目1-2 東京ミッドタウン日比谷3F": {
    "lat": 35.6738816,
    "lng": 139.759088,
    "place_id": "ChIJOwLbIO6LGGARsm6Y4IgQf_I"
  },
  "place:ちゃんこ霧島 両国本店 〒130-0026 東京都墨田区両国2-13-7": {
    "lat": 35.695654999999995,
    "lng": 139.79160420000002,
    "place_id": "ChIJdbl3z0qJGGARqffbtv99pP4"
  },
  "place:ちゃんこ霧島 両国江戸NOREN店 〒130-0015 東京都墨田区横網1-3-20 両国江戸NOREN1F": {
    "lat": 35.6960954,
    "lng": 139.7929284,
    "place_id": "ChIJKeT6oAaJGGARQrMCyQ-CmMM"
  },
  "place:つなぎ庵 〒101-0024 東京都千代田区神田和泉町1-7-10 1F": {
    "lat": 35.6993475,
    "lng": 139.7774299,
    "place_id": "ChIJxynB6QqPGGAR6lq75sw9guw"
  },
  "place:とり料理鳥者 〒150-0021 東京都渋谷区恵比寿西1-7-2 ビックストーンビル5F": {
    "lat": 35.6480355,
    "lng": 139.7087845,
    "place_id": "ChIJubrHQ1SLGGARkTbB8JuVLvE"
  },
  "place:とんかつ憲進 〒162-0825 東京都新宿区神楽坂3-1-23 Ami神楽坂2F": {
    "lat": 35.7022408,
    "lng": 139.7408944,
    "place_id": "ChIJLbzE-cuNGGARQRJYDZLuGdk"
  },
  "place:ねぎま 〒170-0004 東京都豊島区北大塚2-31-19 B1": {
    "lat": 35.7340586,
    "lng": 139.7299587,
    "place_id": "ChIJQU8qiZ6SGGAR69BCdKi8fHs"
  },
  "place:のざき家 〒131-0041 東京都墨田区八広2-52-17": {
    "lat": 35.7134736,
    "lng": 139.8273021,
    "place_id": "ChIJ1deURJ2PGGAR5EzCBcXeebs"
  },
  "place:ふしきの 〒162-0825 東京都新宿区神楽坂4-3-11 神楽坂つなしょうテラス2階": {
    "lat": 35.7019759,
    "lng": 139.7400479,
    "place_id": "ChIJ_3h281qMGGAR_mbclQ6ywYw"
  },
  "place:ふらの和牛 よしうし 神楽坂通り 〒162-0825 東京都新宿区神楽坂5-32 八潮ビル 1F": {
    "lat": 35.7017981,
    "lng": 139.7387479,
    "place_id": "ChIJXeyQblqMGGARtKWoqzRghSg"
  },
  "place:ぶたの旨味らーめん とんくる 〒151-0073 東京都渋谷区笹塚2-11-6 アーバンイマイII 102": {
    "lat": 35.6751727,
    "lng": 139.6681578,
    "place_id": "ChIJLXVuTB_zGGARw-vBqOQ5ysA"
  },
  "place:まぜそば 三ツ星 / Noodle Bar MITSUBOSHI 〒150-0021 東京都渋谷区恵比寿西1-13-2 サンキビル1F": {
    "lat": 35.6475137,
    "lng": 139.7080107,
    "place_id": "ChIJ47APFEGLGGARmkQVnUQL1dY"
  },
  "place:まるえ中華そば 巣鴨 〒170-0002 東京都豊島区巣鴨1-14-1 プラトーサカ1F": {
    "lat": 35.7329475,
    "lng": 139.74062859999998,
    "place_id": "ChIJSeZ3_8-NGGAR7riaRGOeyb8"
  },
  "place:まるかみ水産 新宿店 〒160-0023 東京都新宿区西新宿2-3-1 新宿モノリスB1F": {
    "lat": 35.68865,
    "lng": 139.6945165,
    "place_id": "ChIJ_U27kdOMGGARq36dXyFAZ6s"
  },
  "place:やきにく 山笑ふ 〒150-0001 東京都渋谷区神宮前4丁目9-4 1F": {
    "lat": 35.6674844,
    "lng": 139.71098229999998,
    "place_id": "ChIJkQqD7X-NGGARkCmpCpgy3LQ"
  },
  "place:よなよなビアワークス 新宿東口店 〒160-0022 東京都新宿区新宿3-28-10 ヒューマックスパビリオン新宿東口 B1F": {
    "lat": 35.6910992,
    "lng": 139.7027101,
    "place_id": "ChIJtYUoaNqMGGARrvdwnKiCH1M"
  },
  "place:ら すとらあだ 〒164-0012 東京都中野区本町2丁目41-2": {
    "lat": 35.6958096,
    "lng": 139.68039240000002,
    "place_id": "ChIJrxCckNryGGARLfEuZ1JkHBQ"
  },
  "place:アタゴール 〒135-0042 東京都江東区木場3-19-8": {
    "lat": 35.6723269,
    "lng": 139.8061219,
    "place_id": "ChIJh20q_gSJGGARj2THUy1jy8A"
  },
  "place:アマルフィイモデルナ 〒100-0005 東京都千代田区丸の内1-6-4 オアゾショップ＆レストラン 5F": {
    "lat": 35.6836242,
    "lng": 139.76650089999998,
    "place_id": "ChIJJckLIvmLGGAR1jcfG3pC2AE"
  },
  "place:アルカディア市ヶ谷 私学会館 〒102-0073 東京都千代田区九段北4-2-25": {
    "lat": 35.6919401,
    "lng": 139.73763270000003,
    "place_id": "ChIJPxvbSGeMGGARk8wFO0HmAiw"
  },
  "place:アンティカ・オステリア・デル・ポンテ 〒100-6336 東京都千代田区丸の内2-4-1 丸の内ビルディング36F": {
    "lat": 35.681120199999995,
    "lng": 139.7640987,
    "place_id": "ChIJH8vQ7fmLGGARqCEu3Z-2piU"
  },
  "place:アンティキ・サポーリ（Antichi Sapori） 〒102-0094 東京都千代田区紀尾井町1-3 東京ガーデンテラス 3F": {
    "lat": 35.6792581,
    "lng": 139.7369115,
    "place_id": "ChIJm1Qdj3GLGGAR6tPf-c3bHWY"
  },
  "place:アンフォラバーガー 〒151-0051 東京都渋谷区千駄ヶ谷1-20-3 バルビゾンビル11 1-B": {
    "lat": 35.6792727,
    "lng": 139.7106368,
    "place_id": "ChIJ76UlKACNGGARHvx7MtoLasA"
  },
  "place:アーティショー (Artichaut) 〒150-0013 東京都渋谷区恵比寿2-6-29 アコルタTS1F": {
    "lat": 35.6467416,
    "lng": 139.71736289999998,
    "place_id": "ChIJy7ECaROLGGARi5LYukkCaus"
  },
  "place:アーマ レストラン 〒136-0073 東京都江東区北砂3丁目17-19": {
    "lat": 35.6817133,
    "lng": 139.8298357,
    "place_id": "ChIJzScEDguJGGARZPhzM-ng5SU"
  },
  "place:イタリア料理 カンパニョーラ 162-0838 東京都新宿区細工町3-18 山岸ビル202号": {
    "lat": 35.6997369,
    "lng": 139.73313629999998,
    "place_id": "ChIJz5jVpt2MGGAR9xYdllzNauk"
  },
  "place:イルキャンティ本店(笹塚) 〒151-0073 東京都渋谷区笹塚3丁目16-2 キャンティビル1F": {
    "lat": 35.6768287,
    "lng": 139.6680824,
    "place_id": "ChIJjb1VAhnzGGARClYV7yeYSXE"
  },
  "place:インドグリル 〒135-0016 東京都江東区東陽3-27-25ストークマンション東陽1F": {
    "lat": 35.6699122,
    "lng": 139.81617649999998,
    "place_id": "ChIJU5vXnP-IGGARV4Hoq6YS7Oc"
  },
  "place:ウズナ オムオム 〒150-0001 東京都渋谷区神宮前5-17-8 原宿XS203号 2F": {
    "lat": 35.665866699999995,
    "lng": 139.7053577,
    "place_id": "ChIJOW7spKaMGGARQf2NmufcgLs"
  },
  "place:ウルビアマン 秋葉原 〒101-0021 東京都千代田区外神田4丁目14-1 秋葉原UDXビル1F": {
    "lat": 35.7007002,
    "lng": 139.7725192,
    "place_id": "ChIJ2_RFjx2MGGARcpYt-JU_AcU"
  },
  "place:エノテカ ピッツェリア 神楽坂スタジオーネ 〒162-0825 東京都新宿区神楽坂3-1 クレール神楽坂Ⅲ-5階": {
    "lat": 35.7017461,
    "lng": 139.7411563,
    "place_id": "ChIJjdT5wlqMGGARpGP-ns1ST-A"
  },
  "place:エル・カステリャーノ 〒150-0002 東京都渋谷区渋谷2-9-11 インテリックス青山通ビル 2F": {
    "lat": 35.6608334,
    "lng": 139.7074788,
    "place_id": "ChIJ9zXDPF-LGGARtruZSRHqh20"
  },
  "place:オービカモッツアレラバー 西新宿店 〒160-0023 東京都新宿区西新宿6-24-1西新宿三井ビルディング1F": {
    "lat": 35.6946198,
    "lng": 139.6889158,
    "place_id": "ChIJtxWFuA_zGGARhWrZ39AVUrs"
  },
  "place:オールデイダイニング「パークサイドダイナー」（帝国ホテル 東京 本館1階） 〒100-8558 東京都千代田区内幸町1-1-1": {
    "lat": 35.6724658,
    "lng": 139.7587964,
    "place_id": "ChIJT7wVXe6LGGARvrQ1Xj9ZboI"
  },
  "place:オ山ノ活惚レ 〒150-0033 東京都渋谷区猿楽町9-1 宮田ビル2F": {
    "lat": 35.651055899999996,
    "lng": 139.7034129,
    "place_id": "ChIJa0kzyVOLGGARB4vtdSubz2M"
  },
  "place:カッチャル バッチャル 〒170-0005 東京都豊島区南大塚3-2-10 林ビル2階": {
    "lat": 35.7273104,
    "lng": 139.72946940000003,
    "place_id": "ChIJKeJf33SNGGAREiG6980xtdI"
  },
  "place:カラオラ 〒100-0004 東京都千代田区大手町2-3-1 大手町プレイス ウエストタワー B1F": {
    "lat": 35.6871139,
    "lng": 139.7671742,
    "place_id": "ChIJU_SWSFuNGGARIC-muAJkTXA"
  },
  "place:カルボナリ党 〒164-0011 東京都中野区中央5丁目6-29": {
    "lat": 35.6978231,
    "lng": 139.6663549,
    "place_id": "ChIJGdHgCDrzGGARU5vIU6uQ-tE"
  },
  "place:カレーうどん ひかり TOKYO 〒171-0021 東京都豊島区西池袋3-22-8 パークサイドフキビルB1岸野宅": {
    "lat": 35.730421899999996,
    "lng": 139.7063206,
    "place_id": "ChIJW1sS-FuNGGARjM_G0EnBex4"
  },
  "place:カレーの王様 市ヶ谷店 〒102-0073 東京都千代田区九段北4丁目2-15 1F": {
    "lat": 35.6914028,
    "lng": 139.73662149999998,
    "place_id": "ChIJoWVltmCMGGARRck3cNCSZI8"
  },
  "place:カーヴ ド シャンパーニュ ディヴァン 〒150-0021 東京都渋谷区恵比寿西1-10-3 トラストリンク恵比寿ビルB1": {
    "lat": 35.646941399999996,
    "lng": 139.7077912,
    "place_id": "ChIJpSh5GEGLGGARe-8zlKwWAH8"
  },
  "place:キッチンタニ 〒131-0043 東京都墨田区立花4-25-1": {
    "lat": 35.707194799999996,
    "lng": 139.8323058,
    "place_id": "ChIJAQCBkMmIGGAR4Tq68PilJZk"
  },
  "place:クリスタルムーブメント（東武ホテルレバント東京内） 〒130-0013 東京都墨田区錦糸1-2-2": {
    "lat": 35.6972439,
    "lng": 139.8109365,
    "place_id": "ChIJw819AymJGGARG0Ul5nMUS8A"
  },
  "place:グラサラ神楽坂 〒162-0825 東京都新宿区神楽坂6-34-4Felice神楽坂2F": {
    "lat": 35.7039719,
    "lng": 139.7358893,
    "place_id": "ChIJK0t2Z3eNGGARSwxWeEm1AXo"
  },
  "place:グランパークホテル パネックス東京 〒144-0052 東京都大田区蒲田5-9-19": {
    "lat": 35.563398400000004,
    "lng": 139.7177834,
    "place_id": "ChIJvfuwdVtgGGARsT7K-azRncw"
  },
  "place:グリルドエイジングビーフTOKYO新宿三丁目店 〒162-0022 東京都新宿区新宿三丁目5-4レインボービレッジ602": {
    "lat": 35.69130990000001,
    "lng": 139.7054743,
    "place_id": "ChIJU-gldNuMGGARVcPsbpXIfBw"
  },
  "place:グリル満天星 丸ビル店 〒100-6305 東京都千代田区丸の内2-4-1 丸の内ビルディング5F": {
    "lat": 35.681133599999995,
    "lng": 139.7635047,
    "place_id": "ChIJH8vQ7fmLGGARmKzrvU4oJDc"
  },
  "place:グリル満天星 新宿店 〒160-0022 東京都新宿区新宿3-15-17 伊勢丹会館4F": {
    "lat": 35.6925315,
    "lng": 139.70415,
    "place_id": "ChIJm26eztuMGGARFMc83bm5XMs"
  },
  "place:ケニックカレー 〒150-0042 東京都渋谷区宇田川町13-9 KN渋谷2ビル4階": {
    "lat": 35.6611192,
    "lng": 139.6983046,
    "place_id": "ChIJx8kCg6mMGGARaAzBrEMofEI"
  },
  "place:コツメイト 〒170-0013 東京都豊島区東池袋1-29-4成田ビル5F": {
    "lat": 35.7302325,
    "lng": 139.71624079999998,
    "place_id": "ChIJgQ23BGeNGGARKmtR7S9GkBo"
  },
  "place:サバティーニ・ディ・フィレンツェ大丸東京店 〒100-6701 東京都千代田区丸の内1-8-1 大丸東京店12F": {
    "lat": 35.681499800000005,
    "lng": 139.7688406,
    "place_id": "ChIJtxODuv6LGGAR6NpTDIqaLjI"
  },
  "place:サバティーニ・ディ・フィレンツェ東京店 〒100-0006 東京都千代田区有楽町2-2-3 ヒューリックスクエア東京3F": {
    "lat": 35.6730726,
    "lng": 139.76196299999998,
    "place_id": "ChIJserd8uWLGGAR99b_ykQN_kM"
  },
  "place:サファリカレーショップ中野店 〒164-0001 東京都中野区中野2-14-20": {
    "lat": 35.7050854,
    "lng": 139.66975639999998,
    "place_id": "ChIJ4aKZjD_zGGARC7-FOgMWaag"
  },
  "place:サリーヒルズ 〒150-0033 東京都渋谷区猿楽町26-2f棟 2F": {
    "lat": 35.6486395,
    "lng": 139.7013754,
    "place_id": "ChIJX_Xif0WLGGARWwe3gGxTEEw"
  },
  "place:サンシャインシティプリンスホテル 〒170-8440 東京都豊島区東池袋3-1-5": {
    "lat": 35.7295337,
    "lng": 139.7195456,
    "place_id": "ChIJq9y3qW-NGGARDKwO8EL9BX4"
  },
  "place:サンス・エ・サヴール 〒100-6335 東京都千代田区丸の内2-4-1 丸の内ビルディング35F": {
    "lat": 35.6810836,
    "lng": 139.76348819999998,
    "place_id": "ChIJH8vQ7fmLGGARVhTsbo1Nqs8"
  },
  "place:サンパティック 〒164-0002 東京都中野区上高田2丁目54-8 アイボリーファーストビル1F": {
    "lat": 35.7136595,
    "lng": 139.668976,
    "place_id": "ChIJzf1R9pjyGGARMS5LmtDeEKE"
  },
  "place:ザ ロイヤルパークホテル 東京羽田 〒144-0041 東京都大田区羽田空港2-6-5羽田空港第3旅客ターミナルビル内": {
    "lat": 35.5454613,
    "lng": 139.76872219999998,
    "place_id": "ChIJuU8-BVRhGGARhf99WtuKY08"
  },
  "place:ザ・キャピトルホテル 東急 〒100-0014 東京都千代田区永田町2-10-3": {
    "lat": 35.6739689,
    "lng": 139.74077359999998,
    "place_id": "ChIJpZM3l4eLGGARzA8KN9anTP4"
  },
  "place:ザ・ステーション カフェバー（新宿プリンスホテル内） 〒160-0021 東京都新宿区歌舞伎町1-30-1 B1F": {
    "lat": 35.6943605,
    "lng": 139.7002697,
    "place_id": "ChIJV5DG_cONGGARsRqVaN-v_jo"
  },
  "place:ザ・プリンスギャラリー 東京紀尾井町 〒102-8585 東京都千代田区紀尾井町1-2": {
    "lat": 35.6796441,
    "lng": 139.7371118,
    "place_id": "ChIJ4Z9j7XuMGGARAgZ2C6hMq5w"
  },
  "place:ザ・ロビー（ザ・ペニンシュラ東京内） 〒100-0006 東京都千代田区有楽町1-8-1 ザ・ペニンシュラ東京1F": {
    "lat": 35.674759099999996,
    "lng": 139.7604704,
    "place_id": "ChIJaYg-KPCLGGAR48E_vAA3k6s"
  },
  "place:シェ オリビエ 〒102-0074 東京都千代田区九段南4-1-10 グランドメゾン九段南 1F": {
    "lat": 35.691608599999995,
    "lng": 139.7411897,
    "place_id": "ChIJS7K7SWaMGGAR1iNGLScnIIc"
  },
  "place:シガーバー「R261 CIGAR & ROCK」（セルリアンタワー東急ホテル内） 〒150-8512 東京都渋谷区桜丘町26-1 セルリアンタワー東急ホテル タワーサイドテラス2F": {
    "lat": 35.6564093,
    "lng": 139.6993541,
    "place_id": "ChIJVwVGMqaLGGARFlRggPkelVI"
  },
  "place:シャンパンバー「The Rendez-Vous AWA」（帝国ホテル 東京 本館1階） 〒100-8558 東京都千代田区内幸町1-1-1": {
    "lat": 35.6727507,
    "lng": 139.75818329999998,
    "place_id": "ChIJI6YgYACLGGARR5iTrAjmBhc"
  },
  "place:ジュードゥマルシェ 〒160-0002 東京都新宿区四谷坂町12-11 BITEN 1F": {
    "lat": 35.6916265,
    "lng": 139.7261001,
    "place_id": "ChIJHUgwk_OMGGARF_26KVXUr3s"
  },
  "place:ジンギスカン 牡羊屋 中野店 〒164-0001 東京都中野区中野5-59-1 1F": {
    "lat": 35.7075998,
    "lng": 139.6664794,
    "place_id": "ChIJ1yDeGInzGGARWdvxWsDKJ6k"
  },
  "place:スカイレストラン634 〒131-0045 東京都墨田区押上1-1-2 東京スカイツリー天望デッキ内": {
    "lat": 35.710256,
    "lng": 139.81079459999998,
    "place_id": "ChIJUaJR8NaOGGARbaGu0XYUkl4"
  },
  "place:スシとワイン SUSHI SOUL 〒150-0031 東京都渋谷区桜丘町1番4号 渋谷サクラステージ SHIBUYAサイド 4階": {
    "lat": 35.656684299999995,
    "lng": 139.7022924,
    "place_id": "ChIJT3hN4zOLGGARzlsOUHuDxxw"
  },
  "place:スタンド JAPA SOBA HANAKO 丸の内店 〒100-0005 東京都千代田区丸の内1丁目4-1 丸の内永楽ビルディング iiyo!! B1F": {
    "lat": 35.684553699999995,
    "lng": 139.7649607,
    "place_id": "ChIJC4w-ABOLGGARGe0d9o8AsNs"
  },
  "place:スパイラル 渋谷店 〒150-0044 東京都渋谷区円山町14-2 福富ビル1F": {
    "lat": 35.6581652,
    "lng": 139.6943083,
    "place_id": "ChIJ3c8S4JGNGGAR_32FfHvdCOY"
  },
  "place:スンガリー新宿三丁目店 〒160-0022 東京都新宿区新宿3-21-6 新宿龍生堂ビルB1": {
    "lat": 35.6931854,
    "lng": 139.7023259,
    "place_id": "ChIJKxsG8tmMGGARVZdRDZCeFTk"
  },
  "place:スンガリー新宿東口本店 〒160-0021 東京都新宿区歌舞伎町2-45-6 千代田ビルB1": {
    "lat": 35.6968394,
    "lng": 139.700516,
    "place_id": "ChIJ-VAVGiiNGGARBVCicGsjN8Q"
  },
  "place:スーパーホテル東京・ＪＲ蒲田西口 〒144-0051 東京都大田区西蒲田5-19-17": {
    "lat": 35.564786999999995,
    "lng": 139.71414049999998,
    "place_id": "ChIJDfaPJ0NgGGARr2H2UbYK2H4"
  },
  "place:スーペルバッコ（Superbacco） 〒102-0094 東京都千代田区紀尾井町1-3 東京ガーデンテラス 3F": {
    "lat": 35.6792131,
    "lng": 139.7371124,
    "place_id": "ChIJ2zqB-LmNGGARP9UiWZmP-kw"
  },
  "place:セララバアド 〒151-0064 東京都渋谷区上原2-8-11 TWIZA上原1F": {
    "lat": 35.6657898,
    "lng": 139.684183,
    "place_id": "ChIJU8O-z07zGGAR4M_3Lx3xS4s"
  },
  "place:タイムズ スパ・レスタ 〒170-0013 東京都豊島区東池袋4-25-9 タイムズステーション池袋10-12階": {
    "lat": 35.7289193,
    "lng": 139.7173039,
    "place_id": "ChIJVVUVJG-NGGARsZzRktWK4pM"
  },
  "place:タワーズバー「ベロビスト」（セルリアンタワー東急ホテル内） 〒150-8512 東京都渋谷区桜丘町26-1 セルリアンタワー東急ホテル40F": {
    "lat": 35.6564093,
    "lng": 139.6993541,
    "place_id": "ChIJ2ehjBVeLGGARIpzejpXyUpU"
  },
  "place:タワーズレストラン「クーカーニョ」（セルリアンタワー東急ホテル内） 〒150-8512 東京都渋谷区桜丘町26-1 セルリアンタワー東急ホテル40F": {
    "lat": 35.6564093,
    "lng": 139.6993541,
    "place_id": "ChIJ2ehjBVeLGGARH27tf2Yr2TA"
  },
  "place:ティースイーツラボ・コンテナート 〒151-0053 東京都渋谷区代々木1-42-14 村野ビル1F": {
    "lat": 35.6830176,
    "lng": 139.6993278,
    "place_id": "ChIJmX2mvomNGGARubgEwsoCXec"
  },
  "place:テンキ 〒150-0031 東京都渋谷区桜丘町29-26 エクセレンスビルディング桜丘町 2F": {
    "lat": 35.6546514,
    "lng": 139.6983555,
    "place_id": "ChIJH2uLrlmLGGARfSw-AzPzkHM"
  },
  "place:トスカーナ料理とワインのお店 toscaneria 〒150-0022 東京都渋谷区恵比寿南1-17-6 コートモデリアサウス恵比寿101": {
    "lat": 35.6443379,
    "lng": 139.7104005,
    "place_id": "ChIJZWYS6z-LGGARMosguPHgO-k"
  },
  "place:トラットリア モンテトミ 〒130-0026 東京都墨田区両国3-11-1 1F": {
    "lat": 35.6933182,
    "lng": 139.7933797,
    "place_id": "ChIJ8x2b9jWJGGARi7kxopajkTY"
  },
  "place:トラットリア・リトルマルコ 〒101-0063 東京都千代田区神田淡路町1-4-1 友泉淡路町ビル1階": {
    "lat": 35.695984599999996,
    "lng": 139.7676304,
    "place_id": "ChIJu7qJqhyMGGARbJMAT8uPgtY"
  },
  "place:トラットリア日月 〒101-0054 東京都千代田区神田錦町2-3-10": {
    "lat": 35.6925307,
    "lng": 139.76261259999998,
    "place_id": "ChIJLWIJ9-aNGGARZVND-XXtJT0"
  },
  "place:ドーミーインPREMIUM渋谷神宮前 〒150-0001 東京都渋谷区神宮前6-24-4": {
    "lat": 35.6657612,
    "lng": 139.70233919999998,
    "place_id": "ChIJmY9a7qWMGGARc4-TKPozpX4"
  },
  "place:ニュー貝殻荘 〒102-0071 東京都千代田区富士見2-10-2 飯田橋ｸﾞﾗﾝﾌﾞﾙｰﾑｻｸﾗﾃﾗｽ2F": {
    "lat": 35.6988939,
    "lng": 139.7434578,
    "place_id": "ChIJQ9NqLkOMGGARMRgoyr0QoK8"
  },
  "place:バリラックス ザ ガーデン 新宿 〒163-0590 東京都新宿区西新宿1-26-2 新宿野村ビル B1階": {
    "lat": 35.6930514,
    "lng": 139.69493459999998,
    "place_id": "ChIJE6uvw9WMGGARJBZHinBaYRg"
  },
  "place:バンブーグラッシィ 〒150-0013 東京都渋谷区恵比寿3-9-29 シェビア恵比寿 B1F": {
    "lat": 35.644554,
    "lng": 139.7159005,
    "place_id": "ChIJwQOXbxSLGGARjTyCy18k2Xw"
  },
  "place:バー「オールドインペリアルバー」（帝国ホテル 東京 本館中2階） 〒100-8558 東京都千代田区内幸町1-1-1": {
    "lat": 35.6723631,
    "lng": 139.7587618,
    "place_id": "ChIJT7wVXe6LGGAR4RMHAiMU0FQ"
  },
  "place:バーラウンジ「インペリアルラウンジ アクア」（帝国ホテル 東京 本館17階） 〒100-8558 東京都千代田区内幸町1-1-1": {
    "lat": 35.6723214,
    "lng": 139.7582395,
    "place_id": "ChIJT7wVXe6LGGARAKgUWfe6k40"
  },
  "place:パティスリー レザネフォール 中野店 〒165-0026 東京都中野区新井5-5-10": {
    "lat": 35.7155182,
    "lng": 139.6678959,
    "place_id": "ChIJP4v21J7yGGARHfShPWMmcI8"
  },
  "place:パニーニ一番 〒151-0051 東京都渋谷区千駄ヶ谷1-21-3": {
    "lat": 35.6785967,
    "lng": 139.7096662,
    "place_id": "ChIJcXZSW76MGGARSNRWwll3thU"
  },
  "place:パーティースペース ガーネット（新宿プリンスホテル内） 〒160-0021 東京都新宿区歌舞伎町1-30-1 B1F": {
    "lat": 35.6943605,
    "lng": 139.7002697,
    "place_id": "ChIJ_QY_fACNGGARNwNZRex1rBE"
  },
  "place:ビアホイチョップ 〒164-0001 東京都中野区中野5-53-1栗原ビル1階": {
    "lat": 35.709058,
    "lng": 139.66667379999998,
    "place_id": "ChIJX-n_PpfyGGARp9QIFDGfi8M"
  },
  "place:ビストロ ヴァンラヴァン 〒136-0076 東京都江東区南砂6-11-29小島ビル1階": {
    "lat": 35.670364000000006,
    "lng": 139.836073,
    "place_id": "ChIJBSeKp2eIGGAR0ML0vrwqjZQ"
  },
  "place:ビストロガフ（Bistro Guf） 〒130-0022 東京都墨田区江東橋4-15-1": {
    "lat": 35.6946414,
    "lng": 139.8174819,
    "place_id": "ChIJo3SsDdmIGGARr4aEtTNoXxs"
  },
  "place:ビール工房 新宿 〒160-0023 東京都新宿区西新宿1-26-2 新宿野村ビルB2F": {
    "lat": 35.6929509,
    "lng": 139.6953653,
    "place_id": "ChIJUwb0wdWMGGARVFYXEZ7c_Io"
  },
  "place:フランス料理「レ セゾン」（帝国ホテル 東京 本館中2階） 〒100-8558 東京都千代田区内幸町1-1-1": {
    "lat": 35.6724056,
    "lng": 139.7583398,
    "place_id": "ChIJT7wVXe6LGGAR53FVJzNY8gU"
  },
  "place:ブッフェダイニング プリンスマルシェ（新宿プリンスホテル内） 〒160-0021 東京都新宿区歌舞伎町1-30-1 B2F": {
    "lat": 35.6946298,
    "lng": 139.7002785,
    "place_id": "ChIJhQpHkeyNGGARzWnCSctOMZ4"
  },
  "place:ブフェレストラン「インペリアルバイキング サール」（帝国ホテル 東京 本館17階） 〒100-8558 東京都千代田区内幸町1-1-1": {
    "lat": 35.6724056,
    "lng": 139.7583398,
    "place_id": "ChIJT7wVXe6LGGARH-ZjBH0Tlmw"
  },
  "place:ブボ・バルセロナ表参道店 〒150-0001 東京都渋谷区神宮前5-6-5 Path表参道B棟": {
    "lat": 35.6661453,
    "lng": 139.7087432,
    "place_id": "ChIJdTzKDqGMGGARPR7fZiHu0i8"
  },
  "place:ブラッスリー セント・ベルナルデュス 神田 〒101-0047 東京都千代田区内神田3-6-2 アーバンネット神田ビル1F": {
    "lat": 35.6904792,
    "lng": 139.76969309999998,
    "place_id": "ChIJ30-6DwGMGGARiVijQavS64s"
  },
  "place:ブラッセルズ大手町 〒100-0004 東京都千代田区大手町1-9-7 大手町フィナンシャルシティサウスタワー1F": {
    "lat": 35.687661,
    "lng": 139.76537430000002,
    "place_id": "ChIJ1YYWBweMGGARIY5pvEdxPto"
  },
  "place:ブラッセルズ神楽坂 〒162-0805 東京都新宿区矢来町75-1": {
    "lat": 35.7024344,
    "lng": 139.7328284,
    "place_id": "ChIJucPGzFeMGGARS27F0OVOpZ8"
  },
  "place:ブラッセルズ神田神保町 〒101-0052 東京都千代田区神田小川町3-16-1": {
    "lat": 35.6967315,
    "lng": 139.7600784,
    "place_id": "ChIJyZAT2BCMGGARLI6GGHovI0c"
  },
  "place:ブーランジュリー ラ・セゾン 本店 〒151-0053 東京都渋谷区代々木4-6-4 エクセレント代々木 1F": {
    "lat": 35.6784569,
    "lng": 139.69316039999998,
    "place_id": "ChIJ6UhfDMuMGGARMPC6couZ1WM"
  },
  "place:プティデリリウム タップ カフェ 〒151-0053 東京都渋谷区代々木2丁目2-1 新宿サザンテラス内": {
    "lat": 35.68591,
    "lng": 139.70076699999998,
    "place_id": "ChIJ9Vjvjc-MGGARKA3yqhKDPIA"
  },
  "place:プラスアルファキッチン 〒135-0048 東京都江東区門前仲町1-12-8 ミナミビル1階": {
    "lat": 35.673489499999995,
    "lng": 139.7945565,
    "place_id": "ChIJAVLCQROJGGARq390-A-qA6A"
  },
  "place:プレフリトーキョー 〒150-0031 東京都渋谷区桜丘町1-4 Shibuya Sakura Stage SHIBUYA SIDE 4F": {
    "lat": 35.6567199,
    "lng": 139.70237659999998,
    "place_id": "ChIJXfMREQCLGGARXugCcfNQRZs"
  },
  "place:プレミアホテル-CABIN-新宿 〒160-0021 東京都新宿区歌舞伎町2-40-3": {
    "lat": 35.697258,
    "lng": 139.70203999999998,
    "place_id": "ChIJ9e5O9yeNGGAR7mIlmgv8MSA"
  },
  "place:プロースト東京 ソーセージ＆燻製バル 秋葉原店 〒101-0021 東京都千代田区外神田4-4-2 HULIC&New AKIHABARA7F": {
    "lat": 35.7011617,
    "lng": 139.77179569999998,
    "place_id": "ChIJYwDPVDONGGARmBfwEiXbAq0"
  },
  "place:ヘイフンテラス（ザ・ペニンシュラ東京内） 〒100-0006 東京都千代田区有楽町1-8-1 ザ・ペニンシュラ東京2F": {
    "lat": 35.674631999999995,
    "lng": 139.76058849999998,
    "place_id": "ChIJBXOI1--LGGARWXSbmIs4wgs"
  },
  "place:ベジバル Itaru 池袋 ～Vegetable Bar & Organic～ 〒170-0013 東京都豊島区東池袋1-31-2 ルピナス池袋 1F": {
    "lat": 35.731719999999996,
    "lng": 139.71632599999998,
    "place_id": "ChIJR5xRcWaNGGARFSX28Ry5FQQ"
  },
  "place:ベッセルイン高田馬場駅前 〒169-0075 東京都新宿区高田馬場2丁目17番4号": {
    "lat": 35.7134291,
    "lng": 139.70539990000003,
    "place_id": "ChIJ__-_ODmNGGARrdNl9k2IbBo"
  },
  "place:ベルトラン ラーシェ ル ブルターニュ カグラザカ 〒162-0825 東京都新宿区神楽坂3-3-6": {
    "lat": 35.7016238,
    "lng": 139.741083,
    "place_id": "ChIJ9SW73lqMGGAR6l8OT2tKMzo"
  },
  "place:ホテルSUI神田 by ABEST 〒101-0044 東京都千代田区鍛冶町1丁目9-15": {
    "lat": 35.690775099999996,
    "lng": 139.7733003,
    "place_id": "ChIJ73poXLiPGGARW4uAuDJ6YYs"
  },
  "place:ホテルアジール東京蒲田 〒144-0051 東京都大田区西蒲田7丁目30-5": {
    "lat": 35.563158099999995,
    "lng": 139.7142034,
    "place_id": "ChIJGZgM31xgGGARZgJmCfAIcgc"
  },
  "place:ホテルウィングインターナショナルセレクト池袋 〒170-0013 東京都豊島区東池袋3-7-1": {
    "lat": 35.7326331,
    "lng": 139.717277,
    "place_id": "ChIJyYJ-HpSNGGARcXLPKY0Cybg"
  },
  "place:ホテルウィングインターナショナルプレミアム東京四谷 〒160-0004 東京都新宿区四谷3-14-1": {
    "lat": 35.6880393,
    "lng": 139.71845629999999,
    "place_id": "ChIJV0IRW-yMGGARX7omEG9tP0M"
  },
  "place:ホテルサンルートプラザ新宿 〒151-0053 東京都渋谷区代々木2-3-1": {
    "lat": 35.6870282,
    "lng": 139.69884249999998,
    "place_id": "ChIJNe9mqeOLGGARV5mPNz_El_A"
  },
  "place:ホテルトラスティ東京ベイサイド 〒135-0063 東京都江東区有明3-1-15": {
    "lat": 35.628805799999995,
    "lng": 139.7870447,
    "place_id": "ChIJx-NDxuWJGGARMHWZl6Vtv1g"
  },
  "place:ホテルバーグランティオス別邸 〒143-0016 東京都大田区大森北1-1-7": {
    "lat": 35.5890658,
    "lng": 139.7294521,
    "place_id": "ChIJSWjzeC1gGGAR0QrWURzorAk"
  },
  "place:ホテルマイステイズ御茶ノ水コンファレンスセンター 〒101-0063 東京都千代田区神田淡路町2-10-6": {
    "lat": 35.697375,
    "lng": 139.7684414,
    "place_id": "ChIJiymFlxyMGGAR8X1A6ZNl1yE"
  },
  "place:ホテルマイステイズ東池袋 〒170-0013 東京都豊島区東池袋4-39-13": {
    "lat": 35.7294678,
    "lng": 139.7238681,
    "place_id": "ChIJjQH_mXGNGGAR_oJvMlwxWc0"
  },
  "place:ホテルマイステイズ西新宿 〒160-0023 東京都新宿区西新宿7-14-14": {
    "lat": 35.6949249,
    "lng": 139.6973203,
    "place_id": "ChIJP95WHtaMGGARXUH4nc7FwvQ"
  },
  "place:ホテルメトロポリタン 〒171-8505 東京都豊島区西池袋1丁目6番1号": {
    "lat": 35.7281019,
    "lng": 139.70783129999998,
    "place_id": "ChIJ10L5hPaLGGARw7Hsz5bxKxc"
  },
  "place:ホテルローズガーデン新宿 〒160-0023 東京都新宿区西新宿8-1-3": {
    "lat": 35.69445160000001,
    "lng": 139.69370590000003,
    "place_id": "ChIJywcn0AqMGGARUlUzdWX_byI"
  },
  "place:ホテル龍名館お茶の水本店 〒101-0062 東京都千代田区神田駿河台3-4": {
    "lat": 35.6964475,
    "lng": 139.765614,
    "place_id": "ChIJ3ReUGRuMGGAR2xYgU5meccU"
  },
  "place:ホルモン和 〒131-0045 東京都墨田区押上1丁目18-6": {
    "lat": 35.7120849,
    "lng": 139.8159156,
    "place_id": "ChIJBXdGpCmPGGARShOL6kSSLxI"
  },
  "place:ボンズハウス~住宅街の隠れ家イタリアンビストロ~ 〒130-0011 東京都墨田区石原1-39-1": {
    "lat": 35.701461,
    "lng": 139.7981041,
    "place_id": "ChIJm1SIHPaPGGARUrCiyKa9otQ"
  },
  "place:ボードゲーム&ダイニングバーkurumari 〒164-0001 東京都中野区中野2-28-1 中野JMビル2F": {
    "lat": 35.7031011,
    "lng": 139.6659885,
    "place_id": "ChIJBWYmfpTyGGARoNLdv46j9Vs"
  },
  "place:マヌエル丸の内 〒100-0005 東京都千代田区丸の内3-3-1 新東京ビルB1": {
    "lat": 35.677607699999996,
    "lng": 139.7623692,
    "place_id": "ChIJi34-g_qLGGARsh4jsMFcuCI"
  },
  "place:マーブルアーチ 〒100-0011 東京都千代田区内幸町1丁目7-1 日比谷OKUROJI G21": {
    "lat": 35.6706134,
    "lng": 139.7593724,
    "place_id": "ChIJU2SgYeeLGGARMeTDIShFY0M"
  },
  "place:メイソン工房 〒150-0001 東京都渋谷区神宮前3-38-2 高橋ビル2F": {
    "lat": 35.67189,
    "lng": 139.7136619,
    "place_id": "ChIJPfAsVpiMGGARmSuug1t037Q"
  },
  "place:メキシカンダイナー ラ・エスキーナ SHIBUYA 〒150-0031 東京都渋谷区桜丘町1-4 渋谷サクラステージ SHIBUYAサイド 4F": {
    "lat": 35.6566865,
    "lng": 139.70229759999998,
    "place_id": "ChIJfQzydACLGGAR-nrxUnJTAKc"
  },
  "place:メルキュール東京日比谷 〒100-0011 東京都千代田区内幸町1-5-2": {
    "lat": 35.66937679999999,
    "lng": 139.7581271,
    "place_id": "ChIJ5yo42GeLGGARpbFr56B2_xo"
  },
  "place:ヤキガキヤ Oyster＆Wine 〒150-0051 東京都渋谷区千駄ケ谷5丁目20-10 ほぼ新宿のれん街倉庫別館": {
    "lat": 35.683172899999995,
    "lng": 139.7033246,
    "place_id": "ChIJV813y3iNGGARuTI9IW-NA8s"
  },
  "place:ラ メゾン フィニステール 〒150-0013 東京都渋谷区恵比寿3丁目1-1 中尾ビル2階": {
    "lat": 35.6454431,
    "lng": 139.7166785,
    "place_id": "ChIJ2fEGgBOLGGAR5N_POVQ8Xx0"
  },
  "place:ライオンシェア 〒151-0053 東京都渋谷区代々木3-1-7": {
    "lat": 35.6823039,
    "lng": 139.69645739999999,
    "place_id": "ChIJ5_Dkns6MGGARQMBjC8We2do"
  },
  "place:ラウンジ スリーゼ（アルカディア市ヶ谷 私学会館内） 〒102-0073 東京都千代田区九段北4-2-25 アルカディア市ヶ谷（私学会館）2F": {
    "lat": 35.692023899999995,
    "lng": 139.73748240000003,
    "place_id": "ChIJb6HtSGeMGGARMWzGxHD91Ys"
  },
  "place:ラウンジ「ランデブーラウンジ」（帝国ホテル 東京 本館1階） 〒100-8558 東京都千代田区内幸町1-1-1": {
    "lat": 35.6723214,
    "lng": 139.7582395,
    "place_id": "ChIJT7wVXe6LGGARfiSXsRx2Aio"
  },
  "place:ラトリエ 〒135-0002 東京都江東区住吉1-19-1 1F": {
    "lat": 35.690267,
    "lng": 139.8131446,
    "place_id": "ChIJp8bfgGiJGGARe2vAgn7ukeU"
  },
  "place:ラビスタ東京ベイ 〒135-0061 東京都江東区豊洲6-4-40": {
    "lat": 35.6466503,
    "lng": 139.78400879999998,
    "place_id": "ChIJCSu2TCiJGGARQvgvg43UcwM"
  },
  "place:ラルジャン／L'ARGENT 〒100-0013 東京都千代田区霞が関3丁目2-6 東京倶楽部ビルディング 2F 霞ダイニング": {
    "lat": 35.6705256,
    "lng": 139.7468514,
    "place_id": "ChIJDXFH5MyLGGARMytSvZtzpvM"
  },
  "place:ランス・ヤナギダテ 丸の内 〒100-6505 東京都千代田区丸の内1-5-1 新丸ビル5F": {
    "lat": 35.6825434,
    "lng": 139.7642869,
    "place_id": "ChIJB24osfmLGGARqIxYUjJ7gwg"
  },
  "place:ランチョン 〒101-0051 東京都千代田区神田神保町1-6": {
    "lat": 35.6961438,
    "lng": 139.75929990000003,
    "place_id": "ChIJc5NiOxGMGGAR0PMWjP7od20"
  },
  "place:ラ・バーズ・ドゥ・シェ リュイ 〒150-0034 東京都渋谷区代官山町20番23号 Forestgate代官山MAIN棟1-06": {
    "lat": 35.6484686,
    "lng": 139.70238039999998,
    "place_id": "ChIJgYu_cQCLGGARVwu1AK70JLU"
  },
  "place:ラ・ロシェル山王 〒100-0014 東京都千代田区永田町2-10-3 東急キャピトルタワー1F": {
    "lat": 35.673715,
    "lng": 139.7408375,
    "place_id": "ChIJpZM3l4eLGGARJadDa1RZPrA"
  },
  "place:ラー・エ・ミクニ 〒102-8322 東京都千代田区北の丸公園3-1 東京国立近代美術館内": {
    "lat": 35.690551299999996,
    "lng": 139.75457749999998,
    "place_id": "ChIJXUb7fQ2MGGARgbctV56leJ0"
  },
  "place:リストランテ ベニーレベニーレ 〒160-0022 東京都新宿区新宿3-5-4 レインボービレッジ8階": {
    "lat": 35.6913583,
    "lng": 139.70547209999998,
    "place_id": "ChIJ451SgaSMGGARnyuaFciWavk"
  },
  "place:リストランテ・ヒロ チェントロ 丸ビル 〒100-6335 東京都千代田区丸の内2-4-1 丸の内ビルディング 35F": {
    "lat": 35.6810389,
    "lng": 139.7637705,
    "place_id": "ChIJH8vQ7fmLGGARBUV-nrPvFkM"
  },
  "place:ル サロン ド ニナス 小田急百貨店新宿 〒160-0023 東京都新宿区西新宿1-5-1 小田急百貨店新宿店M2F": {
    "lat": 35.6925391,
    "lng": 139.6986288,
    "place_id": "ChIJr5kOkGH1GGARQjhtmi1ZjUY"
  },
  "place:ル サロン ド ニナス 日比谷 〒100-0006 東京都千代田区有楽町1-5-2 東宝日比谷プロムナードビル2F": {
    "lat": 35.6741662,
    "lng": 139.76013659999998,
    "place_id": "ChIJB_cZbkOLGGAR0kcL1raWpiA"
  },
  "place:ル・クロ・モンマルトル 〒162-0825 東京都新宿区神楽坂2-12Ryo1神楽坂1F": {
    "lat": 35.701309699999996,
    "lng": 139.7416293,
    "place_id": "ChIJCY12KFuMGGAR0O3mNyY-0Vg"
  },
  "place:レグリエ 〒150-0012 東京都渋谷区広尾1-4-10 鴻貴ビル1F": {
    "lat": 35.648551,
    "lng": 139.713784,
    "place_id": "ChIJYaYhsNuLGGAR07C8DAsFFI4"
  },
  "place:レストラン シャルム 〒151-0053 東京都渋谷区代々木1-45-6 YoyogiLeafビル1階": {
    "lat": 35.6822561,
    "lng": 139.6979691,
    "place_id": "ChIJUfC-xc6MGGARzEpo8taoi8A"
  },
  "place:レストラン シルクロ 〒100-0005 東京都千代田区丸の内1-4-5 三菱UFJ信託銀行本店ビル B1階": {
    "lat": 35.6833962,
    "lng": 139.76421589999998,
    "place_id": "ChIJ3ZWZWviLGGARS7DrWbBhks8"
  },
  "place:レストラン フォッセ（アルカディア市ヶ谷 私学会館内） 〒102-0073 東京都千代田区九段北4-2-25 アルカディア市ヶ谷（私学会館）2F": {
    "lat": 35.6920614,
    "lng": 139.7376193,
    "place_id": "ChIJb6HtSGeMGGARn8lCdfLfu7Q"
  },
  "place:レストランL'Atlas fils 〒160-0005 東京都新宿区愛住町2-5": {
    "lat": 35.6883566,
    "lng": 139.7186815,
    "place_id": "ChIJpYIuK8CNGGARdD3MHJEMP0c"
  },
  "place:レストランL'Atlas 〒162-0825 東京都新宿区神楽坂6-8-95 レストランラトラス": {
    "lat": 35.7033699,
    "lng": 139.7379296,
    "place_id": "ChIJV4u3sFCMGGARTUp8semXjFQ"
  },
  "place:レストランモナリザ 丸の内 〒100-6336 東京都千代田区丸の内2-4-1 丸ビル36階": {
    "lat": 35.681326000000006,
    "lng": 139.7635687,
    "place_id": "ChIJC4FC6fmLGGARm_ZfkLW-GnU"
  },
  "place:レストランモナリザ恵比寿本店 〒150-0021 東京都渋谷区恵比寿西1-14-4 1F": {
    "lat": 35.6476517,
    "lng": 139.7075925,
    "place_id": "ChIJf28cQEGLGGAReKy6F9k4KU0"
  },
  "place:レッドルーフイン蒲田／羽田東京 〒144-0051 東京都大田区西蒲田7-24-7": {
    "lat": 35.5635717,
    "lng": 139.7121942,
    "place_id": "ChIJl47irUJgGGARooIxkLxQ6JQ"
  },
  "place:ロティ シェ・リュイ 〒150-0034 東京都渋谷区代官山町17-5 E203": {
    "lat": 35.64902,
    "lng": 139.7025062,
    "place_id": "ChIJYxl0dUWLGGAR4wBLxS9jb-c"
  },
  "place:ワインバー マイアーレ 〒131-0032 東京都墨田区東向島2-30-6": {
    "lat": 35.718328299999996,
    "lng": 139.8179289,
    "place_id": "ChIJUZE3iiaPGGARKBJtbyv0AEo"
  },
  "place:ワインビストロ iitoki 〒171-0014 東京都豊島区池袋2丁目64-11 平和ビル 1F": {
    "lat": 35.735265000000005,
    "lng": 139.711262,
    "place_id": "ChIJ6-l11F-NGGARMconKNNvgf8"
  },
  "place:ワインビストロ アンフォラ 〒151-0051 東京都渋谷区千駄ヶ谷1-7-12 志水ビル2階": {
    "lat": 35.6785584,
    "lng": 139.710176,
    "place_id": "ChIJCWua-b2MGGARl4lc73Bw7os"
  },
  "place:ワイン＆ダイニング デューク 〒163-0550 東京都新宿区西新宿1-26-2 新宿野村ビル 50階": {
    "lat": 35.6931505,
    "lng": 139.69530319999998,
    "place_id": "ChIJE6uvw9WMGGARzVrbGdYFE5Q"
  },
  "place:ヴェトナム料理モッハイバー 〒164-0001 東京都中野区中野5丁目54-5": {
    "lat": 35.7088379,
    "lng": 139.6665804,
    "place_id": "ChIJAWyrPpfyGGARz2VuewuTMAY"
  },
  "place:ヴェルデュール（東武ホテルレバント東京内） 〒130-0013 東京都墨田区錦糸1-2-2": {
    "lat": 35.6971828,
    "lng": 139.8108658,
    "place_id": "ChIJw819AymJGGARTGhFTykdTRI"
  },
  "place:一心金子 〒102-0071 東京都千代田区富士見2-7-2プラーノモール302": {
    "lat": 35.7009897,
    "lng": 139.744711,
    "place_id": "ChIJVVXBhkSMGGAR_pFiacKL7jk"
  },
  "place:一番町 てる也 〒102-0082 東京都千代田区一番町15-3 SAビル地下1F": {
    "lat": 35.6861046,
    "lng": 139.7393557,
    "place_id": "ChIJXyGo5GSMGGARD7PYJpz7l1E"
  },
  "place:万ん卯 〒102-0094 東京都千代田区紀尾井町1-3 東京ガーデンテラス紀尾井町 紀尾井テラス": {
    "lat": 35.6793778,
    "lng": 139.737046,
    "place_id": "ChIJ4Z9j7XuMGGAR1FDTvuJRJHY"
  },
  "place:三井ガーデンホテル神宮外苑の杜プレミア 〒160-0013 東京都新宿区霞ヶ丘町11-3": {
    "lat": 35.6799475,
    "lng": 139.7155115,
    "place_id": "ChIJS0azsQSNGGARJ7gOosPe4FQ"
  },
  "place:三燈舎 SANTOSHAM 〒101-0052 東京都千代田区神田小川町3-2 古室ビル2F": {
    "lat": 35.6947842,
    "lng": 139.7626842,
    "place_id": "ChIJsw2B-mqNGGARnGg5qLOjwFk"
  },
  "place:下町割烹上総屋 〒131-0033 東京都墨田区向島2丁目2-10": {
    "lat": 35.7132313,
    "lng": 139.80545569999998,
    "place_id": "ChIJf2YRHduOGGAR43rPpBKcA5M"
  },
  "place:下関 春帆楼東京店 〒102-0093 東京都千代田区平河町2-7-9 JA共済ビル": {
    "lat": 35.6804394,
    "lng": 139.740043,
    "place_id": "ChIJ_dzXJ3qMGGARfzpGttwrxLQ"
  },
  "place:並木橋 鮨一 〒150-0002 東京都渋谷区渋谷3-15-5 グリームビル B1F": {
    "lat": 35.6555919,
    "lng": 139.70591299999998,
    "place_id": "ChIJa46cDOuLGGARoHFYP4t51Ms"
  },
  "place:中国名菜割烹 つる見 〒162-0825 東京都新宿区神楽坂3-6-40かぐらビル3F": {
    "lat": 35.700950299999995,
    "lng": 139.7395162,
    "place_id": "ChIJOwFHOGuNGGARV8sNsHBzOm4"
  },
  "place:中国料理 伊万里 〒101-0021 東京都千代田区外神田6-9-8": {
    "lat": 35.7049394,
    "lng": 139.7706154,
    "place_id": "ChIJl2SZlxyNGGAR7AJReUu5O4Y"
  },
  "place:中国料理 桃里 〒163-0550 東京都新宿区西新宿1-26-2 新宿野村ビル 50階": {
    "lat": 35.6930611,
    "lng": 139.69537359999998,
    "place_id": "ChIJMT_Mw9WMGGARYKchbs2uhRE"
  },
  "place:中国料理 翠（アルカディア市ヶ谷 私学会館内） 〒102-0073 東京都千代田区九段北4-2-25 アルカディア市ヶ谷（私学会館）2F": {
    "lat": 35.692009299999995,
    "lng": 139.7376979,
    "place_id": "ChIJb6HtSGeMGGAR7tvhg9Z9fzc"
  },
  "place:中国老舗 天津飯店 新宿本店 〒160-0023 東京都新宿区西新宿3丁目2−11 新宿三井ビルディング2号館 B1": {
    "lat": 35.6864075,
    "lng": 139.6931535,
    "place_id": "ChIJrZEE_dKMGGARU4h1yE7wsnQ"
  },
  "place:中国飯店 市ヶ谷店 〒102-0073 東京都千代田区九段北 4-1-7 九段センタービル LB1": {
    "lat": 35.693007099999996,
    "lng": 139.7394592,
    "place_id": "ChIJ7-1BdWeMGGARZt7MRFQ0onw"
  },
  "place:中國菜 李白 〒150-0013 東京都渋谷区恵比寿3-30-12 Mercury EBISU 1F": {
    "lat": 35.642880999999996,
    "lng": 139.7158805,
    "place_id": "ChIJqcQBLNCLGGARYqC_o8y5LNU"
  },
  "place:中華可菜点心 〒150-0031 東京都渋谷区桜丘町1-4 Shibuya Sakura Stage SHIBUYA SIDE 4F": {
    "lat": 35.65652010000001,
    "lng": 139.70250149999998,
    "place_id": "ChIJqYRmWgCLGGARUt37t4CncbI"
  },
  "place:中野バル・どんぐり 〒164-0001 東京都中野区中野5-57-10 CUBE中野3F": {
    "lat": 35.7080907,
    "lng": 139.6668077,
    "place_id": "ChIJDZmjSS_zGGAR4bxEJ0YhW4s"
  },
  "place:中野ビール工房 〒164-0001 東京都中野区中野5丁目53-4": {
    "lat": 35.7091723,
    "lng": 139.66662810000003,
    "place_id": "ChIJsaW7QJfyGGARK-i7Vx-735g"
  },
  "place:串あげもの 旬s 丸の内店 〒100-0005 東京都千代田区丸の内2-7-3 東京ビルTOKIA B1F": {
    "lat": 35.6786068,
    "lng": 139.7649357,
    "place_id": "ChIJHYps__qLGGARtw5uFbUVVRU"
  },
  "place:串カツぼっちゃんと恵比寿 〒150-0021 東京都渋谷区恵比寿西1-9-13 ステージファースト恵比寿 1・2F": {
    "lat": 35.6472319,
    "lng": 139.70806199999998,
    "place_id": "ChIJ08O3V7SLGGARnkkmTECwCQM"
  },
  "place:丸の内舞’s 〒100-0005 東京都千代田区丸の内1-1-3 日本生命丸の内ガーデンタワー2F": {
    "lat": 35.6845047,
    "lng": 139.76257239999998,
    "place_id": "ChIJA2pHXfeNGGARqcEnkreCQSQ"
  },
  "place:九段下 寿司政 〒102-0074 東京都千代田区九段南1-4-4": {
    "lat": 35.6952345,
    "lng": 139.7522282,
    "place_id": "ChIJbS0GS2uMGGARE_vV-2kWt08"
  },
  "place:九段下 寿白 〒102-0074 東京都千代田区九段南1-4-1": {
    "lat": 35.6949004,
    "lng": 139.75243179999998,
    "place_id": "ChIJHyqzshSMGGARC74EEBbGA1c"
  },
  "place:京成リッチモンドホテル東京押上 〒131-0045 東京都墨田区押上1-8-23": {
    "lat": 35.7109288,
    "lng": 139.8141536,
    "place_id": "ChIJq6pq3CmPGGAR9ELCvU0VjYE"
  },
  "place:京成リッチモンドホテル東京錦糸町 〒130-0022 東京都墨田区江東橋3-2-7": {
    "lat": 35.6936367,
    "lng": 139.8149441,
    "place_id": "ChIJvbMajdiIGGARKnb-Ihq5VAI"
  },
  "place:京成リッチモンドホテル東京門前仲町 〒135-0048 東京都江東区門前仲町2-8-9": {
    "lat": 35.672824899999995,
    "lng": 139.796505,
    "place_id": "ChIJw-j44kqJGGARjiySbF21kr4"
  },
  "place:人形町今半 新宿第一生命ビル店 〒163-0701 東京都新宿区西新宿2-7-1 新宿第一生命ビルディング1階": {
    "lat": 35.6913445,
    "lng": 139.6915022,
    "place_id": "ChIJc_7ltCrzGGAR2ExiesGimR4"
  },
  "place:人形町今半 東京ガーデンテラス紀尾井町店 〒102-0094 東京都千代田区紀尾井町1-3 東京ガーデンテラス紀尾井町 紀尾井テラス 3F": {
    "lat": 35.679220799999996,
    "lng": 139.7381666,
    "place_id": "ChIJNfuvG32MGGARBgTNgFqiPX4"
  },
  "place:今よし 大手町 〒100-0004 東京都千代田区大手町1-7-2 東京サンケイビル B2F": {
    "lat": 35.6869994,
    "lng": 139.7654691,
    "place_id": "ChIJUUzpCweMGGARz9BJVCr6AW4"
  },
  "place:今よし 麹町 〒102-0083 東京都千代田区麹町4-1-1": {
    "lat": 35.683745699999996,
    "lng": 139.7375692,
    "place_id": "ChIJ70AmU3uMGGAR2rjZvL-gLjI"
  },
  "place:今半万窯 新宿サザンタワー店 〒151-8583 東京都渋谷区代々木2-2-1 小田急サザンタワー4F": {
    "lat": 35.6865513,
    "lng": 139.7002461,
    "place_id": "ChIJzwyHGdCMGGARNoAtdpcnU-c"
  },
  "place:今彩 〒162-0825 東京都新宿区神楽坂6-26-8": {
    "lat": 35.703701099999996,
    "lng": 139.7364859,
    "place_id": "ChIJ24d7KFeMGGARYEU2O5Gip3Q"
  },
  "place:代官山 さん昇 〒150-0034 東京都渋谷区代官山町8-16": {
    "lat": 35.6517853,
    "lng": 139.70550989999998,
    "place_id": "ChIJC3pdt0SLGGAReVDzT6q2KJQ"
  },
  "place:代官山 間人 150-0033 東京都渋谷区猿楽町9-8 アーバンパーク代官山1-B03": {
    "lat": 35.6514561,
    "lng": 139.7028245,
    "place_id": "ChIJTxLfylqLGGARqypR8eqdGdk"
  },
  "place:代官山レストラン シェ・リュイ 〒150-0033 東京都渋谷区猿楽町20-15": {
    "lat": 35.6494224,
    "lng": 139.7007664,
    "place_id": "ChIJdwHN8k-LGGAR-zDPp4uzOwM"
  },
  "place:佐賀 雑穀 〒150-0042 東京都渋谷区宇田川町31-4 シノダビル7F": {
    "lat": 35.661283,
    "lng": 139.697898,
    "place_id": "ChIJjQycDqmMGGAREzn15kh40X4"
  },
  "place:個室焼肉 富士門 恵比寿 〒150-0021 東京都渋谷区恵比寿西1-30-14 エコー代官山B1F": {
    "lat": 35.6487141,
    "lng": 139.7060621,
    "place_id": "ChIJHRRy0H2LGGARTGrx4Eh_If0"
  },
  "place:備長炭火焼鳥 カドクラ商店 代々木公園店 〒151-0063 東京都渋谷区富ヶ谷1丁目51-4 野本ビル1F": {
    "lat": 35.66869510000001,
    "lng": 139.6896418,
    "place_id": "ChIJ1cVAmUzzGGARtnAsN6qOpHk"
  },
  "place:八べえ 〒136-0071 東京都江東区亀戸3-2-8 斉魯ビル 1F": {
    "lat": 35.701836799999995,
    "lng": 139.8206395,
    "place_id": "ChIJNQ81EtGIGGAR_xSwLYLHxi8"
  },
  "place:円山町わだつみ 〒150-0044 東京都渋谷区円山町6-1": {
    "lat": 35.6575136,
    "lng": 139.6949776,
    "place_id": "ChIJpd4pi1WLGGARRjjXal5d0aM"
  },
  "place:出汁しゃぶおばんざい おかか 市ヶ谷 〒102-0085 東京都千代田区六番町4-3 Gems市ヶ谷7F": {
    "lat": 35.6891599,
    "lng": 139.7352518,
    "place_id": "ChIJOTm8GmGMGGARSpvAVCpYS-I"
  },
  "place:出汁しゃぶおばんざい おかか 新宿 〒160-0023 東京都新宿区歌舞伎町1-16-3 セレサ陽栄新宿ビル8F": {
    "lat": 35.693753199999996,
    "lng": 139.7019418,
    "place_id": "ChIJPTS23NmMGGARwXubBQmonoQ"
  },
  "place:出汁しゃぶおばんざい おかか 東京 〒100-0004 東京都千代田区大手町2-3-1 大手町プレイス2F": {
    "lat": 35.6870529,
    "lng": 139.76671149999999,
    "place_id": "ChIJ78p7SwCNGGARe1CXhDjrIGo"
  },
  "place:割烹とんぼ 〒130-0001 東京都墨田区吾妻橋3-7-17 ライオンズマンション吾妻橋1F": {
    "lat": 35.708843099999996,
    "lng": 139.80466370000002,
    "place_id": "ChIJa-LVOdCOGGARRbWrHszvbVg"
  },
  "place:割烹ダイニング 波里 HARII 〒100-6590 東京都千代田区丸の内1丁目5-1 新丸の内ビルディング5F": {
    "lat": 35.6824547,
    "lng": 139.7640615,
    "place_id": "ChIJuch2teSLGGARgNaSnc1_UnI"
  },
  "place:割烹酒亭 三分亭 東京ミッドタウン日比谷 〒100-0006 東京都千代田区有楽町1-1-2 東京ミッドタウン日比谷 3F": {
    "lat": 35.6736691,
    "lng": 139.7592416,
    "place_id": "ChIJ9zfrI-6LGGARa-7D-xbybds"
  },
  "place:創作イタリアン肉バル スオーノ 〒130-0021 東京都墨田区緑1-28-11 イトーピア両国ステーションコート1F": {
    "lat": 35.6952116,
    "lng": 139.79774,
    "place_id": "ChIJoZLcX66JGGARv6kaiDKZm-I"
  },
  "place:加賀生麩割烹 神楽坂前田 〒162-0825 東京都新宿区神楽坂3-6": {
    "lat": 35.7008157,
    "lng": 139.7406695,
    "place_id": "ChIJQ-hQ_FqMGGARZbuwhDSj98c"
  },
  "place:北の大衆酒場 キタシブ 〒150-0042 東京都渋谷区宇田川町30-1 蓬菜屋ビル3F": {
    "lat": 35.660815,
    "lng": 139.698237,
    "place_id": "ChIJ9fvGqKmMGGARR4TxxlmwLYU"
  },
  "place:北国炉端 ときしらず飯田橋 〒102-0072 東京都千代田区飯田橋4-9-8 大和ビル5F": {
    "lat": 35.7015596,
    "lng": 139.745352,
    "place_id": "ChIJR6U9ZkSMGGAR2_aW489fUrM"
  },
  "place:北海もんじゃ×鉄板焼き KIBORI 〒160-0023 東京都新宿区歌舞伎町1-16-3 セレサ陽栄新宿ビル7F": {
    "lat": 35.6937679,
    "lng": 139.7019469,
    "place_id": "ChIJizL247aNGGAR7_cQD3pR1Vs"
  },
  "place:北海寿司と天ぷら すし山 新宿 〒160-0023 東京都新宿区歌舞伎町1-16-3 セレサ陽栄新宿ビル6F": {
    "lat": 35.6937679,
    "lng": 139.7019469,
    "place_id": "ChIJcT7QxT2NGGAR0wZP-hBx_no"
  },
  "place:匠 鮨おわな 〒150-0022 東京都渋谷区恵比寿南1-17-17 TIMEZONEテラスビル 4F": {
    "lat": 35.6447657,
    "lng": 139.7104181,
    "place_id": "ChIJVVWJ8j-LGGARG9J6uCuYogo"
  },
  "place:十勝ハーブ牛 焼肉 MONMOM 〒101-0051 東京都千代田区神田神保町3-3-2 J'z Tower 1階、2階": {
    "lat": 35.695625799999995,
    "lng": 139.7544868,
    "place_id": "ChIJs0kVvFCNGGARKrL8WTEbHgM"
  },
  "place:半蔵門ビストロBrainStorming 〒102-0083 東京都千代田区麹町3-1 コウジマチテラスB1": {
    "lat": 35.683886199999996,
    "lng": 139.7392724,
    "place_id": "ChIJ1dhvKe6NGGARPdXzPtbzEhI"
  },
  "place:南砂町 osteria Chivo 〒136-0076 東京都江東区南砂3-14-22": {
    "lat": 35.669372599999996,
    "lng": 139.8333538,
    "place_id": "ChIJseqJnl2IGGAR3Ix7qdTZ3ss"
  },
  "place:博多NIKONNE 〒100-0004 東京都千代田区大手町1-3-2 カンファレンスセンターB1F": {
    "lat": 35.6886625,
    "lng": 139.76355329999998,
    "place_id": "ChIJsYO1G2yNGGARiaJD3nZGOf0"
  },
  "place:博多もつ鍋幸とりもつえん KITTE丸の内店 〒100-0005 東京都千代田区丸の内2丁目7-2 JPタワーKITTE 5F": {
    "lat": 35.679925,
    "lng": 139.7651881,
    "place_id": "ChIJYbNONfqLGGAR04Btk8p4ZBU"
  },
  "place:博多満月 市ヶ谷店 〒102-0076 東京都千代田区五番町4-2 東プレビル2F": {
    "lat": 35.69029200000001,
    "lng": 139.735527,
    "place_id": "ChIJrelK72CMGGARFHFOYuaY1TI"
  },
  "place:厚焼きホットケーキのお店「ねこづき」 〒130-0012 東京都墨田区太平3-14-2 ミヤグチハウス1F": {
    "lat": 35.7017233,
    "lng": 139.8131856,
    "place_id": "ChIJGQrfc_2JGGARWcHI8c6nyd4"
  },
  "place:原始焼 火鉢 〒160-0021 東京都新宿区西新宿7-9-13 石川ビル2F": {
    "lat": 35.6949608,
    "lng": 139.6984266,
    "place_id": "ChIJ_W8AtxiNGGARZ-hGsdcjnvw"
  },
  "place:原宿 牡蠣屋 〒150-0001 東京都渋谷区神宮前6-31-21 東急プラザ原宿 ハラカド 5F 509区画": {
    "lat": 35.668489,
    "lng": 139.7048542,
    "place_id": "ChIJuSOQOgCNGGARnHcalaAAU2U"
  },
  "place:参鶏湯 tan 〒101-0047 東京都千代田区内神田3-2-12 ARTIO DOMANI 1F": {
    "lat": 35.689630099999995,
    "lng": 139.7692006,
    "place_id": "ChIJV74TMYeNGGAR_AfhTZWvIFU"
  },
  "place:向島 言問団子 〒131-0033 東京都墨田区向島5-5-22": {
    "lat": 35.7184846,
    "lng": 139.80908879999998,
    "place_id": "ChIJryVNmt6OGGARDgDQ4rXh6gI"
  },
  "place:味酒 やっぱ りきまる 〒160-0021 東京都新宿区歌舞伎町1-10-12 2F": {
    "lat": 35.694745399999995,
    "lng": 139.7031506,
    "place_id": "ChIJEaOyFX6NGGARbZ6VxLiE7vY"
  },
  "place:和・琉球料理〜隠れ家〜心ゆくる 〒171-0014 東京都豊島区池袋2-63-6 パレスガーデンミラノ102号": {
    "lat": 35.7350037,
    "lng": 139.71078119999999,
    "place_id": "ChIJ73eQuF6NGGARGXY-BfjtyYI"
  },
  "place:和漢香辛茶寮サハスラーラ 〒131-0046 東京都墨田区京島2丁目8-5": {
    "lat": 35.7144099,
    "lng": 139.8195327,
    "place_id": "ChIJJfCjEUGPGGAR2ZF1HtaWgZE"
  },
  "place:和牛焼肉 土古里 新宿NOWAビル店 〒160-0022 東京都新宿区新宿3-37-12 新宿NOWAビル 5F": {
    "lat": 35.6903892,
    "lng": 139.70138839999998,
    "place_id": "ChIJH_9NndCMGGARGiy6qpOSwMc"
  },
  "place:和牛焼肉 神楽坂 牛ます 〒162-0825 東京都新宿区神楽坂3-2 トレビスビル1F-2F": {
    "lat": 35.7016205,
    "lng": 139.74050169999998,
    "place_id": "ChIJecxJYNGNGGARLWM97V3XuW4"
  },
  "place:和牛焼肉とびうし 〒102-0071 東京都千代田区富士見2-2-12 KIDS001ビル4・5F": {
    "lat": 35.6994731,
    "lng": 139.7456637,
    "place_id": "ChIJrX3KvUOMGGARswxEPJNUwrk"
  },
  "place:和牛焼肉やくにく 新宿東口店 〒160-0022 東京都新宿区新宿3-26-14 新宿ミニムI 9F": {
    "lat": 35.691809299999996,
    "lng": 139.70238329999998,
    "place_id": "ChIJKxioKaSNGGARe9MQ0HXco64"
  },
  "place:和牛焼肉やくにく【徹】 〒160-0021 東京都新宿区歌舞伎町1-16-3 セレサ陽栄新宿ビル4F": {
    "lat": 35.6937679,
    "lng": 139.7019469,
    "place_id": "ChIJK52S3K-NGGAROhTdV0KVvf8"
  },
  "place:和風ダイニング＆バー FUGA（風雅）（新宿プリンスホテル内） 〒160-0021 東京都新宿区歌舞伎町1-30-1 25F": {
    "lat": 35.6944807,
    "lng": 139.70016479999998,
    "place_id": "ChIJiwcd4NeMGGARd_vQ-BkoXG8"
  },
  "place:和食 天ぷら 芳寿豚しゃぶしゃぶ 三代目 池袋じげもんとん 〒171-0022 東京都豊島区南池袋1-28-2 池袋パルコ本館 8F": {
    "lat": 35.730541099999996,
    "lng": 139.71212359999998,
    "place_id": "ChIJoRIisOWNGGARLCtGBAWOUxA"
  },
  "place:喫茶プペ 〒101-0054 東京都千代田区神田錦町3-13-11": {
    "lat": 35.6922412,
    "lng": 139.7622436,
    "place_id": "ChIJAWAfjA-MGGARS9xZbaQxZAs"
  },
  "place:四四A2 〒150-0013 東京都渋谷区恵比寿2-13-10 レンブラント広尾101": {
    "lat": 35.6456723,
    "lng": 139.7193351,
    "place_id": "ChIJdcYCsxOLGGAR1N19IJovYl4"
  },
  "place:四季ごはん 晴れ間。代々木八幡店 〒151-0064 東京都渋谷区上原1丁目1-20 1F": {
    "lat": 35.6683705,
    "lng": 139.6874574,
    "place_id": "ChIJvYEIi0vzGGARY8e9UeSlMTk"
  },
  "place:四川飯店 赤坂 〒102-0093 東京都千代田区平河町2-5-5 全国旅館会館ビル5・6F": {
    "lat": 35.6798475,
    "lng": 139.7393292,
    "place_id": "ChIJWdJ11nuMGGARgH4rQuIsdso"
  },
  "place:地どり屋つかだ 渋谷 〒150-0043 東京都渋谷区道玄坂2丁目6-1 渋谷岩崎ビル3F": {
    "lat": 35.6592287,
    "lng": 139.6990933,
    "place_id": "ChIJQ7yfbISNGGARiy2TWlfuEto"
  },
  "place:坂の上レストラン 〒162-0825 東京都新宿区神楽坂3丁目1": {
    "lat": 35.7017026,
    "lng": 139.74132219999998,
    "place_id": "ChIJjdT5wlqMGGARpdiSY0r4yBc"
  },
  "place:夏目亭 〒162-0825 東京都新宿区神楽坂3-2林ビル2階": {
    "lat": 35.701681,
    "lng": 139.740676,
    "place_id": "ChIJESxt5lqMGGARQtzdU5NC3D8"
  },
  "place:夜パフェ専門店 Parfaiteria beL 渋谷 〒150-0043 東京都渋谷区道玄坂1丁目7-10 渋谷道玄坂一丁目ビル 3F": {
    "lat": 35.6576097,
    "lng": 139.6993349,
    "place_id": "ChIJLYBZsFeLGGARXVSJXBBVeWc"
  },
  "place:大人洋食 Bistro1996, 〒130-0012 東京都墨田区太平1-14-9 加藤ビル2F": {
    "lat": 35.7008019,
    "lng": 139.8099005,
    "place_id": "ChIJJz7LoRGJGGARwfj-4VuNoMc"
  },
  "place:大和サンプル製作所 〒170-0012 東京都豊島区上池袋4-18-2 立松ビル101": {
    "lat": 35.740128999999996,
    "lng": 139.72080599999998,
    "place_id": "ChIJ88VBx2KNGGARKFXCZ7XY0RY"
  },
  "place:大塚 みや穂 〒170-0005 東京都豊島区南大塚3-48-5 大明ビル1F": {
    "lat": 35.7304989,
    "lng": 139.7273387,
    "place_id": "ChIJf1MQr3aNGGARDGzKF7KRuQE"
  },
  "place:大志満 椿壽 丸ノ内店 〒100-0005 東京都千代田区丸の内 1-6-3 丸ノ内ホテル7階": {
    "lat": 35.6834488,
    "lng": 139.76672460000003,
    "place_id": "ChIJaW5dH_mLGGAR6TvMQKNXKkk"
  },
  "place:大手町 梯子 〒100-0004 東京都千代田区大手町2丁目3-1 大手町プレイス1F": {
    "lat": 35.6869578,
    "lng": 139.7675338,
    "place_id": "ChIJ8_3IcOKNGGARbiWcR72FBg4"
  },
  "place:大手町ZION 〒101-0047 東京都千代田区内神田1-5-16アルテ大手町1F": {
    "lat": 35.6900161,
    "lng": 139.76598669999998,
    "place_id": "ChIJy7PtkAaMGGARsKefDexKN-4"
  },
  "place:大衆肉酒場一屋 〒131-0046 東京都墨田区京島3-48-9": {
    "lat": 35.7133939,
    "lng": 139.8243018,
    "place_id": "ChIJ_XUDmbePGGARTYDu2BRgUC0"
  },
  "place:天ぷら 天兼 〒160-0023 東京都新宿区西新宿1-5-1 小田急ハルク1階": {
    "lat": 35.6926263,
    "lng": 139.6980911,
    "place_id": "ChIJ_fFg4taMGGARzkeRkpAV6u0"
  },
  "place:天ぷら 天源 〒102-0093 東京都千代田区平河町2-3-10 ライオンズマンション 1F": {
    "lat": 35.682159999999996,
    "lng": 139.73982999999998,
    "place_id": "ChIJ7VSvU3qMGGARE556noMp6_4"
  },
  "place:天然温泉 豊穣の湯 ドーミーイン池袋 〒170-0013 東京都豊島区東池袋3-11-11": {
    "lat": 35.7318065,
    "lng": 139.7190125,
    "place_id": "ChIJQ_3YBx2NGGARl7pBJPflvLU"
  },
  "place:定食 居酒屋 木場 くぼ 〒135-0042 東京都江東区木場3-13-5": {
    "lat": 35.6747684,
    "lng": 139.8036665,
    "place_id": "ChIJAQCznxqJGGAR17cCQTbJrMM"
  },
  "place:寿司の惑星 水道橋 - SUSHI PLANET SUIDOBASHI - 〒101-0061 東京都千代田区神田三崎町2-17-5 稲葉ビル1F": {
    "lat": 35.7013009,
    "lng": 139.75316920000003,
    "place_id": "ChIJvUknFPKNGGARYAMFC7Z9c2o"
  },
  "place:寿司処やまざき 〒135-0061 東京都江東区豊洲6-6-1管理施設棟3階": {
    "lat": 35.644391399999996,
    "lng": 139.7845439,
    "place_id": "ChIJsRtAO9mLGGARFAb7IZ6xI-A"
  },
  "place:小岩井農場TOKYO 〒100-0005 東京都千代田区丸の内2-4-1 丸の内ビルディング 5F": {
    "lat": 35.6810751,
    "lng": 139.76416899999998,
    "place_id": "ChIJH8vQ7fmLGGAR5SWcg5vXj18"
  },
  "place:小料理早和 〒135-0016 東京都江東区東陽5-32-18 芳ビル2F": {
    "lat": 35.671765199999996,
    "lng": 139.81611519999998,
    "place_id": "ChIJ9QVgAbeJGGARyRJAP6DgyvY"
  },
  "place:小泉料理店 〒150-0021 東京都渋谷区恵比寿西1-10-12": {
    "lat": 35.6468439,
    "lng": 139.7074208,
    "place_id": "ChIJ-2mOvPuLGGARK5CTGoVzIcA"
  },
  "place:居酒屋 万喜 〒164-0001 東京都中野区中野5-52-4": {
    "lat": 35.7086166,
    "lng": 139.6654565,
    "place_id": "ChIJF65jypDyGGAR54eeOEDKY8o"
  },
  "place:巻き串と笑いのお店 六源 〒171-0031 東京都豊島区東池袋1-39-8 第81東京ビル B1F": {
    "lat": 35.732400999999996,
    "lng": 139.713852,
    "place_id": "ChIJSSxzViSNGGAR3-dej_zaz8o"
  },
  "place:平河町かなや 〒102-0093 東京都千代田区平河町1丁目5-9 厚生会館1階": {
    "lat": 35.6823426,
    "lng": 139.73843739999998,
    "place_id": "ChIJV8-HUQSNGGARy73WAoFdsXM"
  },
  "place:廣瀬與兵衛商店 〒101-0054 東京都千代田区神田錦町3-17-1 廣瀬ビル1F": {
    "lat": 35.6918937,
    "lng": 139.7606956,
    "place_id": "ChIJJbsVZheNGGARXAZ8G5pXkkE"
  },
  "place:御影蔵 丸ビル 〒100-6306 東京都千代田区丸の内2丁目4-1 丸の内ビルディング 6F": {
    "lat": 35.681258899999996,
    "lng": 139.7642378,
    "place_id": "ChIJH8vQ7fmLGGARw1N06fGWDKE"
  },
  "place:御料理ほりうち 〒160-0007 東京都新宿区荒木町9-15 土田ビル 1階": {
    "lat": 35.6900731,
    "lng": 139.7221324,
    "place_id": "ChIJLY-W8g6NGGARxbjvu7OzPfM"
  },
  "place:御苑前 せお 〒160-0022 東京都新宿区新宿1-3-5 新進ビル1F": {
    "lat": 35.6879406,
    "lng": 139.7118682,
    "place_id": "ChIJB9Ci4-mMGGARtv6Ovqt1ds8"
  },
  "place:志奈そば 田なか 〒170-0013 東京都豊島区東池袋2-19-2 第2八千代マンション 102": {
    "lat": 35.7307866,
    "lng": 139.7234231,
    "place_id": "ChIJwzfITHCNGGARUdlB5hN5k18"
  },
  "place:快眠ドライヘッドスパmyu恵比寿 〒150-0013 東京都渋谷区恵比寿1-24-3 uniteE403": {
    "lat": 35.64694610000001,
    "lng": 139.7153518,
    "place_id": "ChIJj4v1yRSLGGARyieOubpMujE"
  },
  "place:懐石 小室 〒162-0827 東京都新宿区若宮町35-4": {
    "lat": 35.6992908,
    "lng": 139.7384082,
    "place_id": "ChIJByniq1uMGGARIkzQSG_bwEA"
  },
  "place:手打ちそば そばしき 紀尾井町 〒102-0094 東京都千代田区紀尾井町1-2 東京ガーデンテラス紀尾井町 2階": {
    "lat": 35.6792003,
    "lng": 139.7373209,
    "place_id": "ChIJN1uE0NiNGGAR0Pkkx-k8_J4"
  },
  "place:手打蕎麦割烹 山せみ 〒151-0064 東京都渋谷区上原1-17-14": {
    "lat": 35.6692439,
    "lng": 139.6825958,
    "place_id": "ChIJA4-WQ0jzGGARy7uNATlFR44"
  },
  "place:招福楼 東京店 〒100-6336 東京都千代田区丸の内2丁目4-1 丸の内ビルディング 36F": {
    "lat": 35.6813499,
    "lng": 139.7638302,
    "place_id": "ChIJH8vQ7fmLGGARTLjjG-oAI3k"
  },
  "place:料亭「セルリアンタワー数寄屋」（セルリアンタワー東急ホテル内） 〒150-8512 東京都渋谷区桜丘町26-1 セルリアンタワー東急ホテルB2F": {
    "lat": 35.6564093,
    "lng": 139.6993541,
    "place_id": "ChIJY3VaNhqLGGARqdxwy5mRVc8"
  },
  "place:新宿 なだ万 〒160-0023 東京都新宿区西新宿2丁目7番2号 ハイアットリージェンシー東京3階": {
    "lat": 35.690853499999996,
    "lng": 139.69121719999998,
    "place_id": "ChIJ-dDhlm2LGGARBIoeY8S4bUU"
  },
  "place:新宿 星のなる木 〒160-0022 東京都新宿区新宿3-5-4 レインボービレッジ9階": {
    "lat": 35.6913583,
    "lng": 139.70547209999998,
    "place_id": "ChIJm59-ijqNGGARE1Qz5ybMYjI"
  },
  "place:新宿 鉄板焼ORCA 〒160-0022 東京都新宿区新宿3丁目12-11 石井ビルB1": {
    "lat": 35.691803,
    "lng": 139.706177,
    "place_id": "ChIJdTpff9uMGGARZ4qK5euGeJU"
  },
  "place:新宿なだ万賓館 〒160-0023 東京都新宿区西新宿1-5-1 新宿西口駅前ビル8階": {
    "lat": 35.6925129,
    "lng": 139.69855630000004,
    "place_id": "ChIJBxOp3ESNGGARh2NX4jJsd2U"
  },
  "place:新宿サロンドローズ 〒160-0023 東京都新宿区西新宿1丁目": {
    "lat": 35.6925148,
    "lng": 139.70418089999998,
    "place_id": "ChIJm26eztuMGGAR4YEoTS9exvM"
  },
  "place:新宿プリンスホテル 〒160-8487 東京都新宿区歌舞伎町1-30-1": {
    "lat": 35.6945414,
    "lng": 139.700179,
    "place_id": "ChIJAQDAl9eMGGAR3QSk73VsTrQ"
  },
  "place:新宿三丁目 ビストロ向日葵 〒160-0022 東京都新宿区新宿3-11-6 エクレ新宿ビル1F": {
    "lat": 35.6918605,
    "lng": 139.7063823,
    "place_id": "ChIJnavyf9yMGGARN7D81o39BW0"
  },
  "place:新宿牡蠣スター 〒160-0022 東京都新宿区新宿1丁目23-5サンサーラ御苑": {
    "lat": 35.6889205,
    "lng": 139.7142653,
    "place_id": "ChIJeYdpnumMGGARYadAB1lBDMo"
  },
  "place:新宿鉄板焼 雅‐Miyabi‐ 〒160-0021 東京都新宿区歌舞伎町1-2-13 新光ビル2F-（F）": {
    "lat": 35.694687699999996,
    "lng": 139.7043819,
    "place_id": "ChIJPYmADtmMGGAR2HOOWEXYpvM"
  },
  "place:日本料理 珀也 〒162-0825 東京都新宿区神楽坂3-6-22 ザルーム神楽坂B1": {
    "lat": 35.7010856,
    "lng": 139.74077459999998,
    "place_id": "ChIJIUax4nCNGGARKfCxKB1tL-8"
  },
  "place:日本料理「Japanese Cuisine 桜丘」（セルリアンタワー東急ホテル） 〒150-8512 東京都渋谷区桜丘町26-1 セルリアンタワー東急ホテル2F": {
    "lat": 35.6564093,
    "lng": 139.6993541,
    "place_id": "ChIJY3VaNhqLGGARqdxwy5mRVc8"
  },
  "place:日本料理「あけくれ」（東京イーストサイドホテル櫂会（カイエ）内） 〒135-0052 東京都江東区潮見2-8-11": {
    "lat": 35.6588637,
    "lng": 139.81799569999998,
    "place_id": "ChIJ8abOGRKJGGARrB93TXUkFt4"
  },
  "place:日本料理「帝国ホテル 寅黒」（帝国ホテル 東京 本館地下1階） 〒100-8558 東京都千代田区内幸町1-1-1": {
    "lat": 35.672369499999995,
    "lng": 139.758955,
    "place_id": "ChIJOwbvfLuLGGARZTYC3D7ELdk"
  },
  "place:日本料理たかはし 〒135-0004 東京都江東区森下1-7-6": {
    "lat": 35.686946299999995,
    "lng": 139.7976075,
    "place_id": "ChIJAbUHR2iJGGARuSJHAUeOBxw"
  },
  "place:日比谷 蟹みつ 〒100-0006 東京都千代田区有楽町1-1-2 東京ミッドタウン日比谷3階": {
    "lat": 35.673665299999996,
    "lng": 139.75937,
    "place_id": "ChIJR2YbJO6LGGARQE2lif-oS-w"
  },
  "place:日比谷松本楼 グリル＆ガーデンテラス 〒100-0012 東京都千代田区日比谷公園1-2": {
    "lat": 35.6736362,
    "lng": 139.7558559,
    "place_id": "ChIJy3CfE_KLGGARRpErqoBuCUE"
  },
  "place:日比谷松本楼 ボア・ド・ブローニュ 〒100-0012 東京都千代田区日比谷公園1-2": {
    "lat": 35.673693899999996,
    "lng": 139.75585999999998,
    "place_id": "ChIJy3CfE_KLGGARz_lNI1eGEd8"
  },
  "place:旬菜七福大黒 〒160-0023 東京都新宿区西新宿1-4-8 第3加藤ビルB1F": {
    "lat": 35.6929453,
    "lng": 139.6981399,
    "place_id": "ChIJ2VKH99aMGGARGRlZmfGkEFA"
  },
  "place:旭鮨 鮨たか 恵比寿ガーデンプレイス店 〒156-6038 東京都渋谷区恵比寿4-20-3恵比寿ガーデンプレイス38F": {
    "lat": 35.6420263,
    "lng": 139.7132427,
    "place_id": "ChIJzW-R2hWLGGARJUTTVjGkSsY"
  },
  "place:明日につなげる定食屋 アスショク 〒101-0054 東京都千代田区神田錦町3-21 10 OVER 9 1F": {
    "lat": 35.691582499999996,
    "lng": 139.7613408,
    "place_id": "ChIJD4tLmA-MGGARqHJvbMa-yNs"
  },
  "place:明神の湯 ドーミーインPREMIUM神田 〒101-0041 東京都千代田区神田須田町1-16": {
    "lat": 35.6955236,
    "lng": 139.77063809999999,
    "place_id": "ChIJnepn-wKMGGARhcMjmjbpsvs"
  },
  "place:春秋ツギハギ日比谷 〒100-0006 東京都千代田区有楽町1-1-1 日本生命日比谷ビルB1F": {
    "lat": 35.673108,
    "lng": 139.758249,
    "place_id": "ChIJ9yMXGu6LGGARYlFdxCJETaM"
  },
  "place:春秋溜池山王店 〒100-6127 東京都千代田区永田町2-11-1 山王パークタワー27F": {
    "lat": 35.6731829,
    "lng": 139.74068309999998,
    "place_id": "ChIJF2JDsoeLGGARQl7ufJ1JIR8"
  },
  "place:昼間のトミさん 〒130-0026 東京都墨田区両国3-11-1 1F": {
    "lat": 35.6933182,
    "lng": 139.7933797,
    "place_id": "ChIJ8x2b9jWJGGARi7kxopajkTY"
  },
  "place:暗闇坂宮下 丸の内 〒100-6336 東京都千代田区丸の内2-4-1 丸の内ビルディング36F": {
    "lat": 35.6813104,
    "lng": 139.7639709,
    "place_id": "ChIJH8vQ7fmLGGAR6kk5HQIzp_E"
  },
  "place:木挽町 大野 〒160-0004 東京都新宿区四谷三丁目6": {
    "lat": 35.688427,
    "lng": 139.72151,
    "place_id": "ChIJ3U44Y-2MGGARm71wXJJ9lBo"
  },
  "place:未来日本酒店&SAKE BAR 〒150-0042 東京都渋谷区宇田川町15-1": {
    "lat": 35.6607181,
    "lng": 139.6984821,
    "place_id": "ChIJ00JDbb-NGGARskZaF7A6kt8"
  },
  "place:東京 なだ万（帝国ホテル 東京内） 〒100-8558 東京都千代田区内幸町1-1-1 帝国ホテル 東京地下1階": {
    "lat": 35.6721416,
    "lng": 139.7585415,
    "place_id": "ChIJT7wVXe6LGGARjo4QjktiiaA"
  },
  "place:東京イン 〒143-0021 東京都大田区北馬込2-31-6": {
    "lat": 35.5972505,
    "lng": 139.711821,
    "place_id": "ChIJl3i0g5iKGGARrLw2V2O8wYY"
  },
  "place:東京イーストサイドホテル櫂会 〒135-0052 東京都江東区潮見2-8-11": {
    "lat": 35.6588637,
    "lng": 139.81799569999998,
    "place_id": "ChIJ8abOGRKJGGARrB93TXUkFt4"
  },
  "place:東京ベイコート倶楽部 〒135-0063 東京都江東区有明3-1-15": {
    "lat": 35.629290499999996,
    "lng": 139.7868073,
    "place_id": "ChIJ69Cdu--JGGAR4NhwYuLYPwg"
  },
  "place:東京鉄板居酒屋こだま 〒135-0047 東京都江東区富岡1丁目4-13 秀花 建物1F": {
    "lat": 35.6706541,
    "lng": 139.7973333,
    "place_id": "ChIJDQkSNfCJGGAR5YNNNXo63e4"
  },
  "place:東向島珈琲店 〒131-0032 東京都墨田区東向島1丁目34-7": {
    "lat": 35.72005720000001,
    "lng": 139.8154625,
    "place_id": "ChIJDTk5zyCPGGARTjF1LYZ1QA4"
  },
  "place:東急ステイ四谷 〒160-0004 東京都新宿区四谷2-1-3": {
    "lat": 35.6865471,
    "lng": 139.7267684,
    "place_id": "ChIJE4SlgYyMGGARRCsUaMJhSvc"
  },
  "place:東急ステイ新宿 〒160-0022 東京都新宿区新宿3-7-1": {
    "lat": 35.690878700000006,
    "lng": 139.7061755,
    "place_id": "ChIJ1a2PZNuMGGAR7fndjFXUbeM"
  },
  "place:東急ステイ新宿イーストサイド 〒160-0021 東京都新宿区歌舞伎町2-3-24": {
    "lat": 35.6967639,
    "lng": 139.706967,
    "place_id": "ChIJGzJuZLGNGGARnD2q9mkTruU"
  },
  "place:東急ステイ水道橋 〒101-0061 東京都千代田区神田三崎町1-1-12": {
    "lat": 35.70088,
    "lng": 139.75659919999998,
    "place_id": "ChIJa2JFGT6MGGARk2yB0Hwt0CI"
  },
  "place:東急ステイ池袋 〒171-0014 東京都豊島区池袋2-12-2": {
    "lat": 35.732336,
    "lng": 139.70727259999998,
    "place_id": "ChIJUZRmuF6NGGARZyhdTvhI69k"
  },
  "place:東急ステイ渋谷新南口 〒150-0002 東京都渋谷区渋谷3-26-21": {
    "lat": 35.654829899999996,
    "lng": 139.70519810000002,
    "place_id": "ChIJU0rXoVuLGGARun6MkO0mM2Q"
  },
  "place:東急ステイ西新宿 〒160-0023 東京都新宿区西新宿5-9-8": {
    "lat": 35.691047999999995,
    "lng": 139.68675299999998,
    "place_id": "ChIJfxZQ99XyGGARlb-RnHNWC6I"
  },
  "place:松尾ジンギスカン新宿三丁目店 〒160-0022 東京都新宿区新宿3-5-3 高山ランド会館5F": {
    "lat": 35.6911613,
    "lng": 139.7053626,
    "place_id": "ChIJV4N_dNuMGGAR0QkkDtoml-A"
  },
  "place:松阪牛 よし田 〒163-1453 東京都新宿区西新宿3丁目20番2号 東京オペラシティタワー 53階": {
    "lat": 35.6827898,
    "lng": 139.687092,
    "place_id": "ChIJUW8Awy3zGGARrL3sNFlettk"
  },
  "place:松阪牛 田じま 〒135-0016 東京都江東区東陽4-6-16-B1": {
    "lat": 35.670170299999995,
    "lng": 139.8195204,
    "place_id": "ChIJEaMukT6JGGARcAAIIQtQPiQ"
  },
  "place:枯朽 〒130-0003 東京都墨田区横川2-13-9": {
    "lat": 35.7048353,
    "lng": 139.81205060000002,
    "place_id": "ChIJwxF-tHuPGGARXHNgJh9fyTw"
  },
  "place:水たき 玄海 〒160-0022 東京都新宿区新宿5-5-1 玄海ビル": {
    "lat": 35.6918758,
    "lng": 139.71008519999998,
    "place_id": "ChIJSYndPt2MGGARtYlu5-qcgTw"
  },
  "place:水餃子 ＭＲ.ＬＥＥ 〒150-0031 東京都渋谷区桜丘町1番4号 渋谷サクラステージ SHIBUYAサイド 4階": {
    "lat": 35.6566842,
    "lng": 139.702292,
    "place_id": "ChIJ73LvEACLGGARbUhysVc4uRc"
  },
  "place:氵 〒171-0052 東京都豊島区南長崎5-17-15 石井店舗 A号": {
    "lat": 35.728355300000004,
    "lng": 139.68244099999998,
    "place_id": "ChIJUfNURwDtGGARgdbMqj3gUSU"
  },
  "place:江戸 深川屋 豊洲千客万来 〒135-0061 東京都江東区豊洲6丁目5番1号2階": {
    "lat": 35.6454545,
    "lng": 139.7832449,
    "place_id": "ChIJf3JAa_aJGGARvEAVVHnE3pw"
  },
  "place:池袋パルコ コリアンBBQビアガーデン 〒171-0022 東京都豊島区南池袋1-28-2 池袋PARCO本館屋上": {
    "lat": 35.7309511,
    "lng": 139.71247739999998,
    "place_id": "ChIJ79ZKdGeNGGAR9fhatH00Uig"
  },
  "place:池袋寅箱 〒171-0014 東京都豊島区池袋2-69-3メゾン王城1F": {
    "lat": 35.7354389,
    "lng": 139.7086749,
    "place_id": "ChIJEwrgUkKNGGARPtrEImdtOvc"
  },
  "place:沖縄ステーキバル マンチャーキッチン飯田橋 〒102-0071 東京都千代田区富士見2-9-11 1F": {
    "lat": 35.6993995,
    "lng": 139.74338889999999,
    "place_id": "ChIJZVnhKauNGGARvawOXb6exNc"
  },
  "place:泡貝（アワセル） 〒101-0021 東京都千代田区外神田2-1-6 宝生ビル1階": {
    "lat": 35.69945450000001,
    "lng": 139.7671955,
    "place_id": "ChIJZW-28RuMGGARyK-E3vgwKic"
  },
  "place:洋食＆イタリアン TERZO3（テルツォ） 〒130-0013 東京都墨田区錦糸1-5-9 比護ビル1F": {
    "lat": 35.6979798,
    "lng": 139.8108497,
    "place_id": "ChIJX-duDCmJGGARM-KtTNMisWA"
  },
  "place:海人酒房 新宿アイランドタワー 〒160-0023 東京都新宿区西新宿6-5-1 新宿アイランドタワーB1F": {
    "lat": 35.6933161,
    "lng": 139.6932833,
    "place_id": "ChIJc9CjEACNGGAR7Q06W1-ePPI"
  },
  "place:海鮮バイキングいろは 〒135-0061 東京都江東区豊洲6-5-1千客万来3階": {
    "lat": 35.6458386,
    "lng": 139.7832491,
    "place_id": "ChIJQy784C-JGGARIPImi6Cjb7U"
  },
  "place:深川 冨士見 〒135-0045 東京都江東区古石場2-18-5": {
    "lat": 35.6655255,
    "lng": 139.8005703,
    "place_id": "ChIJFffmBgmJGGARaGJVroQtACQ"
  },
  "place:深川宿 富岡八幡店 〒135-0047 東京都江東区富岡1-23-11 富岡八幡宮境内": {
    "lat": 35.6711047,
    "lng": 139.7989855,
    "place_id": "ChIJ3181EA6JGGARiYziwpUGY0M"
  },
  "place:清澄たか原 〒135-0024 東京都江東区清澄2-15-4 ベイウィンドウ清澄白河1F": {
    "lat": 35.6831843,
    "lng": 139.7967148,
    "place_id": "ChIJGR55CseJGGARiz6F6Ndy6Hw"
  },
  "place:渋谷 牡蠣屋 〒150-8377 東京都渋谷区宇田川町15-1 7F": {
    "lat": 35.6621373,
    "lng": 139.6991648,
    "place_id": "ChIJUXlDPwCNGGARLg5T3qn8ry0"
  },
  "place:渋谷サロンドローズ 〒150-0031 東京都渋谷区桜丘町7": {
    "lat": 35.6555854,
    "lng": 139.7015879,
    "place_id": "ChIJZcUXNQCLGGARGF7wBTr6Qf4"
  },
  "place:渋谷舌呑 〒150-0002 東京都渋谷区渋谷1-10-9 MIYAMASU TOWER1階": {
    "lat": 35.6605194,
    "lng": 139.7047984,
    "place_id": "ChIJ6_0ITQCNGGARCVEOsUf_lpQ"
  },
  "place:満天ノ秀そば 四ツ谷店 〒160-0004 東京都新宿区四谷1丁目23 第一ヒューテックビル 1階": {
    "lat": 35.6869971,
    "lng": 139.7276427,
    "place_id": "ChIJpcRYGaeNGGAR8vtobtQ2dM8"
  },
  "place:漢ラーメン 室 〒130-0022 東京都墨田区江東橋3-8-7 錦糸町駅前プラザビル1F": {
    "lat": 35.695347399999996,
    "lng": 139.81462639999998,
    "place_id": "ChIJl38By2mJGGARRYaFxKhESMk"
  },
  "place:炉端×Italian ALBERO 〒135-0016 東京都江東区東陽4-5-9第2鈴正ビル3階": {
    "lat": 35.670503599999996,
    "lng": 139.8190864,
    "place_id": "ChIJy8xoqviIGGARgtpiipoG2wA"
  },
  "place:炭火炉端と肉 金しゃもじ 渋谷店 〒150-0042 東京都渋谷区宇田川町33-8 塚田ビル B1F": {
    "lat": 35.6609124,
    "lng": 139.69680929999998,
    "place_id": "ChIJAylDSgCNGGAR5rZtmPxWCjc"
  },
  "place:炭火焼珈琲 蔵 〒171-0021 東京都豊島区西池袋1-39-1": {
    "lat": 35.7327114,
    "lng": 139.709803,
    "place_id": "ChIJ86P7b16NGGARQnPB24N3lIY"
  },
  "place:焼肉 The INNOCENT CARVERY 新丸ビル店 〒100-6505 東京都千代田区丸の内1-5-1 新丸の内ビルディング5F": {
    "lat": 35.6828675,
    "lng": 139.76478889999999,
    "place_id": "ChIJ7xxqsPmLGGARM3OVY3t5jEY"
  },
  "place:焼肉 スタミナ苑 〒136-0073 東京都江東区北砂5-9-3": {
    "lat": 35.680242299999996,
    "lng": 139.83411569999998,
    "place_id": "ChIJ40Kis_SIGGARnoyI9PLAyVc"
  },
  "place:焼肉 粋 (iki) 〒135-0034 東京都江東区永代1-2-9": {
    "lat": 35.6753011,
    "lng": 139.789178,
    "place_id": "ChIJaQtEOmqJGGARNoHen2Dd8yM"
  },
  "place:焼肉なが井 〒135-0048 東京都江東区門前仲町1-2-3": {
    "lat": 35.672254099999996,
    "lng": 139.7938743,
    "place_id": "ChIJp8ozW_mJGGAR7RWu1JwnYCg"
  },
  "place:焼肉京城水道橋店 〒101-0061 東京都千代田区神田三崎町2-10-3": {
    "lat": 35.7013004,
    "lng": 139.75397139999998,
    "place_id": "ChIJe4ebpD-MGGARksrpQ0_0cLs"
  },
  "place:焼肉北砂トラジ 〒136-0073 東京都江東区北砂4-2-9": {
    "lat": 35.6791957,
    "lng": 139.8278958,
    "place_id": "ChIJuw_yR_GIGGARuHAk-yCpF7o"
  },
  "place:焼肉大貫 〒160-0022 東京都新宿区新宿2-18-1 TWO FRONT BLDG 1階": {
    "lat": 35.6907616,
    "lng": 139.7081883,
    "place_id": "ChIJ41pzz9yMGGARYW-cdbxJ-u0"
  },
  "place:焼肉７８ 〒150-0031 東京都渋谷区桜丘町1番4号 渋谷サクラステージ SHIBUYAサイド 4階": {
    "lat": 35.6566958,
    "lng": 139.7023195,
    "place_id": "ChIJzSGgtc-LGGAR5BLMATC1KkQ"
  },
  "place:熟成和牛ステーキ Grilled AgingBeef 神田淡路町店 〒101-0048 東京都千代田区神田司町2-10 安和司町ビル1F": {
    "lat": 35.694586699999995,
    "lng": 139.7679635,
    "place_id": "ChIJkehDYQOMGGARr6-b5zwYmWY"
  },
  "place:熟成和牛焼肉 AgingBeef ワテラス神田秋葉原店 〒101-0063 東京都千代田区神田淡路町2-105 ワテラスアネックス 2F": {
    "lat": 35.6973804,
    "lng": 139.767904,
    "place_id": "ChIJOUlNehuMGGARI9cF-VYkE8M"
  },
  "place:熟成和牛焼肉エイジング・ビーフ TOKYO 新宿三丁目店 1620022 東京都新宿区新宿三丁目5-4レインボービレッジ601": {
    "lat": 35.6913583,
    "lng": 139.70547209999998,
    "place_id": "ChIJAQAwdNuMGGARaaZHrcd3eZ0"
  },
  "place:熟成鮨 万 〒150-0011 東京都渋谷区東4-6-5 ヴァビル301": {
    "lat": 35.656406499999996,
    "lng": 139.7138336,
    "place_id": "ChIJhYCgPtaLGGARhPJh138C1jY"
  },
  "place:熟成黒毛和牛焼肉 エイジング ・ ビーフ 神楽坂飯田橋店 東京都新宿区揚場町2-1軽子坂MNビル": {
    "lat": 35.7017902,
    "lng": 139.74231179999998,
    "place_id": "ChIJiyD_J0WMGGARobsrUfeMXis"
  },
  "place:牡蠣と和食 IKKOKU 〒150-0044 東京都渋谷区円山町6-3サンハイツ道玄坂102": {
    "lat": 35.6574156,
    "lng": 139.6951284,
    "place_id": "ChIJrXZrg9SLGGARvQBU_3_LPDM"
  },
  "place:珈琲伴茶夢 〒171-0031 東京都豊島区目白3-14-3グロワルビル地下1階": {
    "lat": 35.721997699999996,
    "lng": 139.7063292,
    "place_id": "ChIJK5EeB0SNGGARiVhoKohBaJ8"
  },
  "place:白虹 〒102-0074 東京都千代田区九段南2丁目5-5 石川ビルディング1F": {
    "lat": 35.692866599999995,
    "lng": 139.7439104,
    "place_id": "ChIJ13-bjmiMGGARrjLMpf6GPXw"
  },
  "place:相鉄フレッサイン 東京神田 〒101-0035 東京都千代田区神田紺屋町8-1": {
    "lat": 35.691653599999995,
    "lng": 139.7740572,
    "place_id": "ChIJTwH6YKqOGGARtOcO1LiHtHc"
  },
  "place:相鉄フレッサイン 神田大手町 〒101-0047 東京都千代田区内神田2-8-4": {
    "lat": 35.6905894,
    "lng": 139.76843019999998,
    "place_id": "ChIJC-xgxkKNGGARSD2CfNJUsCQ"
  },
  "place:眞一館 新宿本店 〒160-0021 東京都新宿区歌舞伎町2-28-13": {
    "lat": 35.6964986,
    "lng": 139.7035962,
    "place_id": "ChIJ8wOrYNiMGGARhXC90_7BC68"
  },
  "place:真不同 HONG KONG TEA ROOM 1946 〒100-6505 東京都千代田区丸の内1-5-1 新丸の内ビルディングB1F": {
    "lat": 35.6827995,
    "lng": 139.7640662,
    "place_id": "ChIJ1yh9oZ2LGGARlIpzROApKsM"
  },
  "place:神保町 五木田 〒101-0065 東京都千代田区西神田2丁目4-9 第二錦水ビル 1階": {
    "lat": 35.698363199999996,
    "lng": 139.7543583,
    "place_id": "ChIJVU7OsO6NGGAROzKrCp5C9gI"
  },
  "place:神楽坂 Shirukuya HANARE 〒162-0821 東京都新宿区津久戸町3-19 DeLCCS神楽坂津久戸町1F": {
    "lat": 35.7029638,
    "lng": 139.74068110000002,
    "place_id": "ChIJW-wamVqMGGARGuq3-xEauzA"
  },
  "place:神楽坂 おいしんぼ 〒162-0825 東京都新宿区神楽坂4-8": {
    "lat": 35.7025095,
    "lng": 139.7399508,
    "place_id": "ChIJK6I2h1qMGGAR5wG5O_uJPWQ"
  },
  "place:神楽坂 くろす 〒162-0825 東京都新宿区神楽坂3-6-79": {
    "lat": 35.701240999999996,
    "lng": 139.739905,
    "place_id": "ChIJY6F6g1qMGGARCUFr8rKB2ws"
  },
  "place:神楽坂 てっぱんや 〒162-0825 東京都新宿区神楽坂3-1-4": {
    "lat": 35.701539,
    "lng": 139.741394,
    "place_id": "ChIJjdT5wlqMGGART6po3B5tAFE"
  },
  "place:神楽坂 久露葉亭 〒162-0825 東京都新宿区神楽坂5-30": {
    "lat": 35.7017792,
    "lng": 139.73838039999998,
    "place_id": "ChIJ41v-AFuMGGAR6Q_bckbc4uM"
  },
  "place:神楽坂 和らく 〒162-0816 東京都新宿区白銀町2-3": {
    "lat": 35.703330699999995,
    "lng": 139.7387446,
    "place_id": "ChIJvcAND1CMGGARREOPIDPw8fU"
  },
  "place:神楽坂 坂の花 〒162-0828 東京都新宿区袋町3 神楽坂センタービル B1-A": {
    "lat": 35.701409,
    "lng": 139.738645,
    "place_id": "ChIJXdapalqMGGARiDRMwA1Wd3U"
  },
  "place:神楽坂 斗南 〒162-0825 東京都新宿区神楽坂3-2-31 大宗第三ビル1F": {
    "lat": 35.701572999999996,
    "lng": 139.7405794,
    "place_id": "ChIJpb5Z71qMGGARmtzGJK0PSSI"
  },
  "place:神楽坂 鮨 りん 〒162-0825 東京都新宿区神楽坂3丁目6": {
    "lat": 35.7009309,
    "lng": 139.7402445,
    "place_id": "ChIJVQMA_VqMGGARs2AH7TjQJu8"
  },
  "place:神楽坂 鴨匠 〒162-0825 東京都新宿区神楽坂3-2-36L.Vアネックス1F": {
    "lat": 35.701628299999996,
    "lng": 139.7408814,
    "place_id": "ChIJ9WPu51qMGGAR_jpuSoL61Iw"
  },
  "place:神楽坂SHUN 分家 〒162-0825 東京都新宿区神楽坂4-2-5": {
    "lat": 35.7022821,
    "lng": 139.7397422,
    "place_id": "ChIJq9YbiFqMGGARke7Hb7Duipo"
  },
  "place:神楽坂chouchou 〒162-0827 東京都新宿区若宮町11-5": {
    "lat": 35.700465,
    "lng": 139.7389969,
    "place_id": "ChIJy_SDr4uNGGARSLizGYX5wIE"
  },
  "place:福籠叉焼 〒165-0026 東京都中野区新井1丁目14-14": {
    "lat": 35.711070899999996,
    "lng": 139.6671409,
    "place_id": "ChIJ5R8pNK7zGGARsd0c9JD51ow"
  },
  "place:秋葉原カリガリ 総本店 〒101-0021 東京都千代田区外神田3-6-9 沖村ビル 1F": {
    "lat": 35.70283,
    "lng": 139.7700208,
    "place_id": "ChIJOQS29h6MGGARtFuHaWytgEo"
  },
  "place:稲水器 あまてらす 〒170-0013 東京都豊島区東池袋2-62-11 1F": {
    "lat": 35.733950799999995,
    "lng": 139.7169888,
    "place_id": "ChIJ4f2zGGSNGGARI1nQvNeOp1U"
  },
  "place:竹園（東武ホテルレバント東京内） 〒130-0013 東京都墨田区錦糸1-2-2": {
    "lat": 35.6970634,
    "lng": 139.8109335,
    "place_id": "ChIJsW2y5aeJGGAR0OOsMmi_H80"
  },
  "place:第一ホテル両国 〒130-0015 東京都墨田区横網1-6-1": {
    "lat": 35.698206,
    "lng": 139.79708259999998,
    "place_id": "ChIJwTdUyzSJGGARFojvru6-NSM"
  },
  "place:簾（東武ホテルレバント東京内） 〒130-0013 東京都墨田区錦糸1-2-2": {
    "lat": 35.697212799999996,
    "lng": 139.810939,
    "place_id": "ChIJBbNl_1yNGGARuA1NfRdQ4cs"
  },
  "place:米幸 〒102-0094 東京都千代田区紀尾井町1-2 東京ガーデンテラス紀尾井町 2階": {
    "lat": 35.6792787,
    "lng": 139.7375999,
    "place_id": "ChIJ5_gzMqeNGGARIay_JRxn8wg"
  },
  "place:米沢牛黄木 東京駅店 〒100-0005 東京都千代田区丸の内1-9-1 グランスタ八重北内 黒塀横丁地下一階": {
    "lat": 35.6822642,
    "lng": 139.76813629999998,
    "place_id": "ChIJGeYlX_mLGGARrwnDb3I__yg"
  },
  "place:紀尾井 なだ万（ホテルニューオータニ内） 〒102-8578 東京都千代田区紀尾井町4-1 ホテルニューオータニ ガーデンタワーロビー階": {
    "lat": 35.679896899999996,
    "lng": 139.735415,
    "place_id": "ChIJ89uL5HyMGGARsWsiF25L8ds"
  },
  "place:紀尾井町 八山 〒102-0094 東京都千代田区紀尾井町3-3 日本海事協会管理センターB1F": {
    "lat": 35.6820916,
    "lng": 139.7355447,
    "place_id": "ChIJH1uKdh2NGGARpdq9YMuDdX0"
  },
  "place:紀尾井町くろげ 〒102-0094 東京都千代田区紀尾井町1-3 東京ガーデンテラス3F": {
    "lat": 35.6794235,
    "lng": 139.7377535,
    "place_id": "ChIJR2JaZmCNGGARvK978qlmaFY"
  },
  "place:紀尾井町とんかつ・洋食ひとみ 〒102-0094 東京都千代田区紀尾井町1-3東京ガーデンテラス3F": {
    "lat": 35.6794218,
    "lng": 139.7372029,
    "place_id": "ChIJI-_SS-qNGGARVStYiRkqQhM"
  },
  "place:紀風 〒150-0013 東京都渋谷区恵比寿1-31-10 ターレル恵比寿1F": {
    "lat": 35.6468823,
    "lng": 139.7171721,
    "place_id": "ChIJQz96XROLGGARmDVoG0hsSRc"
  },
  "place:綴 -TSUZURI- 〒100-0006 東京都千代田区有楽町1-9-3 糖業会館・ニッポン放送本社ビル地下1階": {
    "lat": 35.6753141,
    "lng": 139.7606739,
    "place_id": "ChIJZ0RFJfCLGGARepj8okn4iX0"
  },
  "place:羊SUNRISE 神楽坂店 〒162-0828 東京都新宿区袋町2番地 杵屋ビル201": {
    "lat": 35.7016083,
    "lng": 139.7387656,
    "place_id": "ChIJ0yLklfaNGGARVNtieE7bJbE"
  },
  "place:美味研鑽 TETSU 〒101-0024 東京都千代田区神田和泉町1-2-22 中尾ビルB1F": {
    "lat": 35.6996415,
    "lng": 139.7758986,
    "place_id": "ChIJfy7WMaaOGGARgY69z35xiUQ"
  },
  "place:肉の田じま 〒135-0011 東京都江東区扇橋1-4-1": {
    "lat": 35.682414,
    "lng": 139.81151599999998,
    "place_id": "ChIJgQRrXh6JGGARVoml4ZEQXuM"
  },
  "place:肉の田じま カメイドクロック店 〒136-0071 東京都江東区亀戸6-31-6 カメイドクロック１階": {
    "lat": 35.695840000000004,
    "lng": 139.8293684,
    "place_id": "ChIJV1S_X5qJGGARbb1WzAdcTvc"
  },
  "place:肉会席ゆかわ 〒162-0825 東京都新宿区神楽坂3-1": {
    "lat": 35.7017495,
    "lng": 139.74126289999998,
    "place_id": "ChIJjdT5wlqMGGAR3uEsmw2zuC0"
  },
  "place:肉幸 〒150-0012 東京都渋谷区広尾5丁目19-2 PIPE1階": {
    "lat": 35.6490631,
    "lng": 139.71974369999998,
    "place_id": "ChIJi6YcVjGLGGARnQ7C4pwsQ3o"
  },
  "place:自然派ワインとフランス郷土料理 シュシュ 〒150-0031 東京都渋谷区桜丘町30-10 青野ビル 1F": {
    "lat": 35.6552662,
    "lng": 139.6980549,
    "place_id": "ChIJiyIh6FaLGGARGeZaF2j25xY"
  },
  "place:自然派ワインレストラン ボンクラ 〒100-0004 東京都千代田区大手町1丁目9-2": {
    "lat": 35.6882936,
    "lng": 139.76510829999998,
    "place_id": "ChIJtcBGVwaMGGARS0tqKOmzCfE"
  },
  "place:華林 〒130-0021 東京都墨田区緑1-20-6 LA CASA FELICE 1F": {
    "lat": 35.6950544,
    "lng": 139.799421,
    "place_id": "ChIJ-Wz9VyKJGGARnrGP7UvU65w"
  },
  "place:葉歩花庭 〒162-0821 東京都新宿区津久戸町3-3松井本社ビル1階": {
    "lat": 35.7028479,
    "lng": 139.7404105,
    "place_id": "ChIJPTtGm1qMGGARoy2xW20oSLg"
  },
  "place:蕎肆 穂乃香 〒130-0021 東京都墨田区緑1-25-7": {
    "lat": 35.6955294,
    "lng": 139.7988427,
    "place_id": "ChIJRypJ8zOJGGARLPq1gRB4iPE"
  },
  "place:蕎麦いっこん 〒150-0013 東京都渋谷区恵比寿1-21-17": {
    "lat": 35.64656,
    "lng": 139.7138227,
    "place_id": "ChIJeWrmegCLGGARDQHX5jFbAkQ"
  },
  "place:蜀郷香 〒160-0006 東京都新宿区舟町5-25 TSI FUNAMACHI 2F": {
    "lat": 35.6898044,
    "lng": 139.7216719,
    "place_id": "ChIJpR9ciu2MGGAR9cNlwWqL4UA"
  },
  "place:表参道 HYÈNE 〒150-0001 東京都渋谷区神宮前5丁目13-14": {
    "lat": 35.6662642,
    "lng": 139.7069262,
    "place_id": "ChIJ0z_FzySNGGAR-T06iiIvZ1M"
  },
  "place:表参道サロンドローズ 〒150-0002 東京都渋谷区渋谷2": {
    "lat": 35.6604671,
    "lng": 139.7086502,
    "place_id": "ChIJx4JpXYSLGGARZ0lb4v680bY"
  },
  "place:裏の山の木の子 恵比寿 〒150-0021 東京都渋谷区恵比寿西1丁目9-1 第2ともえビル2階": {
    "lat": 35.6473322,
    "lng": 139.7082413,
    "place_id": "ChIJu2PKLYeLGGAR6u1RNgtUXzA"
  },
  "place:裏の山の木の子 渋谷 〒150-0043 東京都渋谷区道玄坂1丁目3-11 渋谷一番ビル2F": {
    "lat": 35.6582722,
    "lng": 139.69963959999998,
    "place_id": "ChIJh_FyOR-LGGAR-Hmo6RL357w"
  },
  "place:西鉄イン新宿 〒160-0023 東京都新宿区西新宿7丁目23-2": {
    "lat": 35.6943063,
    "lng": 139.6943681,
    "place_id": "ChIJEe5fcCqNGGAR0tjdU35pPwU"
  },
  "place:讃アプローズ（帝国ホテル 東京内） 〒100-8558 東京都千代田区内幸町1-1-1 帝国ホテル東京本館中2階": {
    "lat": 35.672128,
    "lng": 139.75891199999998,
    "place_id": "ChIJT7wVXe6LGGARtaAcTOg1khM"
  },
  "place:豚捨 KITTE丸の内店 〒100-0005 東京都千代田区丸の内2-7-2 KITTE5階": {
    "lat": 35.6797501,
    "lng": 139.7652748,
    "place_id": "ChIJe7shtfuLGGARoZosPvcYROY"
  },
  "place:象印食堂 東京店 〒100-7005 東京都千代田区丸の内二丁目7番2号 JPタワーKITTE丸の内5階": {
    "lat": 35.679654,
    "lng": 139.76504409999998,
    "place_id": "ChIJ6080ghuLGGARgapoQnfS0f0"
  },
  "place:赤坂鳥幸 〒102-8223 東京都千代田区紀尾井町1-2 東京ガーデンテラス紀尾井町 3F": {
    "lat": 35.6794077,
    "lng": 139.7371306,
    "place_id": "ChIJoYwewoqNGGARmVCwheby85U"
  },
  "place:過門香 點 有楽町イトシア店 〒100-0006 東京都千代田区有楽町2-7-1 有楽町イトシアイトシアプラザ3F": {
    "lat": 35.674306,
    "lng": 139.76328390000003,
    "place_id": "ChIJL2ELaOWLGGARrXTcbh6MNq4"
  },
  "place:酒・肴 おまた 〒171-0021 東京都豊島区西池袋1-7-8 関ビル1階": {
    "lat": 35.7288588,
    "lng": 139.7071341,
    "place_id": "ChIJd6Q-iFyNGGAR7KA93IykJg4"
  },
  "place:酒場ジャロウ 〒150-0031 東京都渋谷区桜丘町1番4号 渋谷サクラステージ SHIBUYAサイド 4階": {
    "lat": 35.6566149,
    "lng": 139.7023308,
    "place_id": "ChIJQRi2GgCLGGARRutwn2p1lOQ"
  },
  "place:釀造科 oryzae 〒130-0013 東京都墨田区錦糸4-12-3 横田ビル 1F": {
    "lat": 35.6979045,
    "lng": 139.81673469999998,
    "place_id": "ChIJq6pDcdeIGGARhhip8M_uuE8"
  },
  "place:野乃鳥 日本橋 〒101-0044 東京都千代田区鍛冶町1-9-19 GEMS新日本橋6階": {
    "lat": 35.6904647,
    "lng": 139.7725862,
    "place_id": "ChIJkes67piNGGARSeaoUhVqbLc"
  },
  "place:野田焼売店 紀尾井本店 〒102-0094 東京都千代田区紀尾井町1-2 東京ガーデンテラス紀尾井町2F": {
    "lat": 35.679354599999996,
    "lng": 139.73760339999998,
    "place_id": "ChIJDb3NG_6NGGAR-X1PUmbwLCs"
  },
  "place:金のイタリアン 〒170-0013 東京都豊島区東池袋1丁目15-5 池袋第二ビル1F": {
    "lat": 35.7312741,
    "lng": 139.71482989999998,
    "place_id": "ChIJZXXGR2aNGGARIHrwFT4kw2o"
  },
  "place:鉄板 BANANA STEAK 〒150-0031 東京都渋谷区桜丘町1番4号 渋谷サクラステージ SHIBUYAサイド 4階": {
    "lat": 35.656574899999995,
    "lng": 139.70236599999998,
    "place_id": "ChIJISx0PACLGGARBQLqQWpEZNI"
  },
  "place:鉄板Diner JAKEN 新宿店 〒160-0022 東京都新宿区新宿3-9-9新宿ワタセイ・タマビルBF": {
    "lat": 35.6912288,
    "lng": 139.7068195,
    "place_id": "ChIJPeeKm9yMGGARrAu6aWPVbIk"
  },
  "place:鉄板中華 仁 〒164-0001 東京都中野区中野5丁目46−2 MSIプレイス 1階": {
    "lat": 35.708039899999996,
    "lng": 139.6669928,
    "place_id": "ChIJRfBP2pbyGGARCW6ywxSqCnE"
  },