show_name,parent_category,middle_category,child_category,address,tel,google_url,latitude,longitude,google_place_id
ICON,飲食,外国料理,その他,渋谷区代々木代々木1-41-4,080-7399-3894,,35.6826753,139.699743,ChIJ6eJIMc-MGGARcKGeCa0hgzg
ai's,飲食,外国料理,イタリア料理,渋谷区広尾1-1-38スクエアサイドビル1F,03-6712-6201,,35.64995860000001,139.7121127,ChIJI3SJD2qLGGARYMXPdKb9f8U
あいと電氣餅店,飲食,喫茶店・カフェ,その他,渋谷区富ヶ谷1-3-4川端ハイツ　1F,03-5738-7849,https://liff.line.me/1645278921-kWRPP32q/?accountId=denkimochi,35.669451,139.6896717,ElJKYXBhbiwg44CSMTUxLTAwNjMgVG9reW8sIFNoaWJ1eWEsIFRvbWlnYXlhLCAxLWNoxY1tZeKIkjPiiJLvvJQg5bed56uv44OP44Kk44OEIDFmIh4aHAoWChQKEglnMOlmS_MYYBE9JxlPJA5PkRICMWY
あいぱくTOKYO,飲食,喫茶店・カフェ,その他,渋谷区神宮前1-20-4アクシア原宿103C,03-6823-4761,,35.6715192,139.7047689,ElFKYXBhbiwg44CSMTUwLTAwMDEgVG9reW8sIFNoaWJ1eWEsIEppbmfFq21hZSwgMS1jaMWNbWXiiJIyMOKIku-8lCBBeGlh5Y6f5a6_IDEwM2MiIBoeChYKFAoSCeOKZzy7jBhgESaMDZ7O5h4UEgQxMDNj
Irish Pub Banshee,飲食,その他(バー・クラブ・スナックなど),その他,渋谷区宇田川町33-8エミリアビル1階,03-6809-0580,,35.6609124,139.6968093,EjYx6ZqOLCAzMy04IFVkYWdhd2FjaMWNLCBTaGlidXlhLCBUb2t5byAxNTAtMDA0MiwgSmFwYW4iIBoeChYKFAoSCfGBinqpjBhgEUqPvgoZbIg8EgQx6ZqO
アウルセカンドフロア,飲食,その他(バー・クラブ・スナックなど),カフェバー,渋谷区幡ヶ谷2-47-11田口ビル2F,080-9155-2960,,35.6792287,139.6771642,ElxKYXBhbiwg44CSMTUxLTAwNzIgVG9reW8sIFNoaWJ1eWEsIEhhdGFnYXlhLCAyLWNoxY1tZeKIkjQ34oiS77yR77yRIOODqeODlOOCuea4i-iwt-acrOeUuiAyZiIeGhwKFgoUChIJgchC6yTzGGARc0hTch5t9xkSAjJm
あおさんかく,飲食,日本料理,その他,渋谷区本町5-38-10SKプラネット101,03-6300-4923,,35.6838459,139.676462,ChIJ3yBW0CbzGGARUAyHY-7ogCU
青山煮干しラーメンハレルヤ,飲食,日本料理,ラーメン,渋谷区渋谷2-9-10青山台ビルB1,03-6433-5083,https://instagram.com/kidzhareruya?igshid=OGQ5ZDc2ODk2ZA==,35.6607504,139.7073814,EjBiMSwgMi1jaMWNbWUtOS0xMCBTaGlidXlhLCBUb2t5byAxNTAtMDAwMiwgSmFwYW4iHhocChYKFAoSCZNdRTtfixhgEVPJPZYh3BmJEgJiMQ
赤垣,飲食,日本料理,うなぎ,渋谷区初台1-38-11赤垣,080-6519-0307,,35.6803221,139.6869306,ChIJa3A_PDLzGGARK3kyYtKb5t0
赤札屋代々木店,飲食,居酒屋,居酒屋,渋谷区千駄ヶ谷4-29-12北参道ダイヤモンドパレス101,03-6459-2762,,35.6810394,139.7038643,Em1KYXBhbiwg44CSMTUxLTAwNTEgVG9reW8sIFNoaWJ1eWEsIFNlbmRhZ2F5YSwgNC1jaMWNbWXiiJIyOeKIku-8ke-8kiDljJflj4LpgZPjg4DjgqTjg6Tjg6Ljg7Pjg4njg5Hjg6zjgrkgMTAxIh8aHQoWChQKEgkfzZGnx4wYYBFbyPGHRHcp4hIDMTAx
akarimado,飲食,居酒屋,居酒屋,渋谷区幡ヶ谷2-8-15KODAビル幡ヶ谷1階,03-6273-6200,,35.67480490000001,139.6750405,ChIJkwMCiTzzGGARaklMNwGEXHQ
あきさば,飲食,ステーキ・焼肉,焼肉,渋谷区神宮前6丁目19-14神宮前ハッピービル,090-4220-2411,,35.6632826,139.7024057,ChIJHQNkN6aMGGAReiY6FQDFLVI
アキッチョ笹塚バンブー,飲食,外国料理,イタリア料理,渋谷区笹塚2-10-6今井ビル103,03-6276-0122,,35.6757003,139.6682699,EjsxMDMsIDItY2jFjW1lLTEwLTYgU2FzYXp1a2EsIFNoaWJ1eWEsIFRva3lvIDE1MS0wMDczLCBKYXBhbiIfGh0KFgoUChIJa6ycTBjzGGARzjnVdDAJqMwSAzEwMw
Aquavit,飲食,その他(バー・クラブ・スナックなど),バー,渋谷区宇田川町31-4シノダビルB1,090-1705-2834,,35.6612793,139.6978997,EkNTaGlub2RhIEJsZGcuLCBiMSwgMzEtNCBVZGFnYXdhY2jFjSwgU2hpYnV5YSwgVG9reW8gMTUwLTAwNDIsIEphcGFuIh4aHAoWChQKEgnB9ZUOqYwYYBHScpX9B1IkfxICYjE
AKUBI-台湾火鍋&クラフトビール-,飲食,外国料理,その他,渋谷区猿楽町2-13F93daikanyama 1F,03-6433-7987,,35.65051,139.7019868,ChIJHVqdXEWLGGARZRYaLaDPYWo
アサッテムニュ,飲食,外国料理,その他,渋谷区千駄ヶ谷3-17-5グエル・サカエ北参道 1F,03-6434-5436,,35.676029,139.7076586,EmNKYXBhbiwg44CSMTUxLTAwNTEgVG9reW8sIFNoaWJ1eWEsIFNlbmRhZ2F5YSwgMy1jaMWNbWXiiJIxN-KIku-8lSDjgrDjgqjjg6vjg7vjgrXjgqvjgqjljJflj4LpgZMgMWYiHhocChYKFAoSCcHeyhi8jBhgETD-X9cT9fmYEgIxZg
あさひや,飲食,日本料理,そば・うどん,渋谷区恵比寿南1-4-2アサヒヤビル7階,03-3713-8765,,35.646431,139.7092186,Ej436ZqOLCAxLWNoxY1tZS00LTIgRWJpc3VtaW5hbWksIFNoaWJ1eWEsIFRva3lvIDE1MC0wMDIyLCBKYXBhbiIgGh4KFgoUChIJ6f26WUCLGGARFBGtcMElso0SBDfpmo4
アジアンダイニングバー謝々ホテル,飲食,居酒屋,ダイニング・バー,渋谷区元代々木町2-9シティーハウス代々木公園1.2階,03-3467-7314,,35.6701209,139.6875202,EjoxLjLpmo4sIDItOSBNb3RveW95b2dpY2jFjSwgU2hpYnV5YSwgVG9reW8gMTUxLTAwNjIsIEphcGFuIiIaIAoWChQKEgk5me-2S_MYYBGu7MUAeROoWBIGMS4y6ZqO
アジアンキッチンラーイマーイ,飲食,外国料理,その他,渋谷区神宮前4-9-5,03-6434-0756,,35.667344,139.7110122,ChIJG8Tx56GMGGARNwDYeTzwbys
asianstandAMA,飲食,外国料理,東南アジア料理,渋谷区代々木1-33-11階,03-6455-5127,,35.6819444,139.6968427,ChIJOUe3pM6MGGAR0Sk9RnvKt58
Asian dining and bar sathi,飲食,外国料理,インド料理,渋谷区猿楽町23-6Scott side 代官山2f,03-3476-7080,,35.6489077,139.7017475,ChIJVVUVeUWLGGARLqN8yDyUGJM
Asian dining and bar bharat,飲食,外国料理,インド料理,渋谷区笹塚3丁目9番7号,03-3370-6577,,35.6772784,139.6690825,ChIJ4St08RjzGGAR9cUsNCwyfpQ
AsianDiningMomoCaveTokyo,飲食,外国料理,無国籍料理,渋谷区代々木4-5-1,03-3377-8455,,35.6786046,139.6927129,ChIJdfD2a8uMGGARWSZcs5T-pLQ
アジアンパーム  渋谷本町店,飲食,外国料理,東南アジア料理,渋谷区本町2-14-4SHビル1階,03-3372-9050,,35.6619707,139.703795,ChIJ0Qgx67KMGGARd2ZbObLZHPE
アジアン屋台バル　クアトロ,飲食,居酒屋,居酒屋,渋谷区恵比寿南1-7-8ニューライフ恵比寿102,03-3714-9196,,35.6462101,139.7097661,ChIJIxy_QkCLGGARVSAOWHGKgVc
味の店　たけ,飲食,日本料理,その他,渋谷区富ヶ谷2-21-13,03-3467-7441,,35.6614852,139.687558,ChIJs44-S1LzGGAR8D_HzYu0uP8
アスタリスク1103,飲食,喫茶店・カフェ,喫茶店・カフェ,渋谷区渋谷1-10-3スタープラザ青山　1F,03-6805-0656,,35.6606232,139.7051582,ChIJjaRKVKyLGGART73VMPiuILg
as always,飲食,居酒屋,ビアホール,渋谷区東3-20-8オリエンタルビル1F,03-6419-3039,https://www.instagram.com/as_always_goro,35.649852,139.7090779,EltKYXBhbiwg44CSMTUwLTAwMTEgVG9reW8sIFNoaWJ1eWEsIEhpZ2FzaGksIDMtY2jFjW1l4oiSMjDiiJLvvJgg44Kq44Oq44Ko44Oz44K_44Or44OT44OrIDFmIh4aHAoWChQKEgmVW2ctQosYYBE-25BkMW0WuhICMWY
あそぼうよ,飲食,居酒屋,居酒屋,渋谷区恵比寿1-26-12　フラット16 1F,080-9713-5100,,35.647245,139.7164092,ElZKYXBhbiwg44CSMTUwLTAwMTMgVG9reW8sIFNoaWJ1eWEsIEViaXN1LCAxLWNoxY1tZeKIkjI24oiS77yR77ySIOODleODqeODg-ODiO-8ke-8liAxZiIeGhwKFgoUChIJ0dnZqBSLGGAREZJTOgtpKTgSAjFm
UPLIGHT COFFEE,飲食,喫茶店・カフェ,喫茶店・カフェ,渋谷区渋谷2-23-16渋谷駅東口地下広場 B2F,03-6324-2739,,35.65771,139.70331,ChIJB9YTKYeLGGARfmv0zvgQjOA
アテド,飲食,居酒屋,居酒屋,渋谷区神泉町12-6,090-4397-0602,https://atedo.amebaownd.com/,35.6559795,139.6923859,ChIJd_p5XVWLGGARMul_AImRk9Y
ADENIAアデニア,飲食,外国料理,フランス料理,渋谷区鉢山町1番7号,03-5489-5151,,35.6534035,139.6988006,ChIJ5TB-31CLGGARiXgCp_dmCVw
アデージョ,飲食,その他(バー・クラブ・スナックなど),スナック・パブ・キャバレー,渋谷区道玄坂2丁目8-8コスモ渋谷館505,03-3770-7769,,35.6584695,139.6984936,ChIJd0Y1KVaLGGARIJi2R9VCb5U
アトリア参宮橋,飲食,喫茶店・カフェ,喫茶店・カフェ,渋谷区代々木4-50-13,03-6276-6777,,35.6784651,139.6915057,ChIJKV3uUcuMGGARL50LloR3n4c
アトリエレカイユ,飲食,外国料理,フランス料理,渋谷区千駄ヶ谷3-27-4小林ビル1階,03-6434-0234,,35.677089,139.7080094,ElNKYXBhbiwg44CSMTUxLTAwNTEgVG9reW8sIFNoaWJ1eWEsIFNlbmRhZ2F5YSwgMy1jaMWNbWXiiJIyN-KIku-8lCDlsI_mnpfjg5Pjg6sgMemajiIgGh4KFgoUChIJc49Gl76MGGARqnuYiNjTFywSBDHpmo4
あなくま,飲食,居酒屋,ダイニング・バー,渋谷区上原3-26-5幸信ビル101,03-5941-6122,,35.6641538,139.6759138,Ek9KYXBhbiwg44CSMTUxLTAwNjQgVG9reW8sIFNoaWJ1eWEsIFVlaGFyYSwgMy1jaMWNbWXiiJIyNuKIku-8lSDlubjkv6Hjg5Pjg6sgMTAxIh8aHQoWChQKEgkJgZiyRvMYYBFFfTexp56EahIDMTAx
ANANAS COFFEE,飲食,喫茶店・カフェ,喫茶店・カフェ,渋谷区神山町7-15イムーブル渋谷神山町4F,080-3816-1858,,35.6644986,139.6937312,El1KYXBhbiwg44CSMTUwLTAwNDcgVG9reW8sIFNoaWJ1eWEsIEthbWl5YW1hY2jFjSwgN-KIku-8ke-8liDjgqTjg6Djg7zjg5bjg6vmuIvosLfnpZ7lsbHnlLogNGYiHhocChYKFAoSCX0JlaetjBhgEawDyH_58p_HEgI0Zg
嗟哉,飲食,日本料理,ラーメン,渋谷区本町2-4-3,03-3375-8117,,35.6833688,139.6842261,ChIJUWv18C7zGGARwBuiTHWIJwE
anise_scone,飲食,喫茶店・カフェ,その他,渋谷区本町2-7-12,090-7807-6962,,35.6838269,139.6832111,ChIJc-idIS_zGGARy3I5VMRCemk
アネモネ,飲食,その他(バー・クラブ・スナックなど),バー,渋谷区神泉町12-7Foursビル1F,03-6455-1955,,35.656833,139.6927328,ChIJuwpeoKqMGGARElamYte8Bks
アバスク　イチャスエタメンディ,飲食,外国料理,スペイン料理,渋谷区渋谷2丁目12番11号松下ビル1階,03-5468-8908,http://www.abasque.com,35.65866740000001,139.7083924,EjMx6ZqOLCAyLWNoxY1tZS0xMi0xMSBTaGlidXlhLCBUb2t5byAxNTAtMDAwMiwgSmFwYW4iIBoeChYKFAoSCb-7z4ReixhgEfl886lD5fgKEgQx6ZqO
Afterhours,飲食,喫茶店・カフェ,喫茶店・カフェ,渋谷区富ヶ谷1-7-9,03-3481-5507,,35.6690835,139.6900506,ChIJsRP_oEzzGGARE6SQHjh0xS0
油そば　てつ,飲食,日本料理,ラーメン,渋谷区笹塚2-7-9ライブイン笹塚1階,080-3548-7155,,35.6751748,139.669026,ElpKYXBhbiwg44CSMTUxLTAwNzMgVG9reW8sIFNoaWJ1eWEsIFNhc2F6dWthLCAyLWNoxY1tZeKIkjfiiJLvvJkg44Op44Kk44OW44Kk44Oz56y55aGaIDHpmo4iIBoeChYKFAoSCf15qDwY8xhgEcNDMruIx8SxEgQx6ZqO
アミューズメントバーHATAGAYA EGG,飲食,その他(バー・クラブ・スナックなど),バー,渋谷区幡ヶ谷2-12-18幡ヶ谷第二中央ビル203,03-6304-2991,,35.6777947,139.6768656,ChIJJ9XxPQDzGGARi7LLVsfD_XA
あやとり,飲食,その他(バー・クラブ・スナックなど),バー,渋谷区恵比寿西1-3-9田中ビル302,080-1245-9215,,35.6487823,139.7083398,Em1KYXBhbiwg44CSMTUwLTAwMjEgVG9reW8sIFNoaWJ1eWEsIEViaXN1bmlzaGksIDEtY2jFjW1l4oiSM-KIku-8mSDjg57jg7zjg5bjg6vjg5Xjg63jg7Pjg4jjgqjjg5Pjgrnjg5Pjg6sgMzAyIh8aHQoWChQKEgkpoltjQYsYYBHPBNE5Z5mu6hIDMzAy
南国酒場　アヤパニ,飲食,居酒屋,居酒屋,渋谷区神山町5-3スパイシービル1F,03-5453-1288,,35.6656373,139.6938645,ElFKYXBhbiwg44CSMTUwLTAwNDcgVG9reW8sIFNoaWJ1eWEsIEthbWl5YW1hY2jFjSwgNeKIku-8kyDjgrnjg5HjgqTjgrfjg7zjg5Pjg6sgMWYiHhocChYKFAoSCcHO2IKtjBhgEX8AerYEf0R-EgIxZg
ARALE,飲食,居酒屋,居酒屋,渋谷区鶯谷町7-12GranDuo渋谷1F,03-6455-2378,,35.6528051,139.7019868,ChIJgwj0j1qLGGARa3FA6Lho-eQ
ありき,飲食,居酒屋,居酒屋,渋谷区西原3丁目17番4号星と月と空とビル102,080-2049-9294,,35.6701857,139.680619,El9KYXBhbiwg44CSMTUxLTAwNjYgVG9reW8sIFNoaWJ1eWEsIE5pc2hpaGFyYSwgMy1jaMWNbWXiiJIxN-KIku-8lCDjg5Xjg6njg6_jg7zjg4_jgqTjg4Qg5pifLOOBqCIjGiEKFgoUChIJWxjXBjjzGGARbx8nPQmnfWcSB-aYnyzjgag
アルティカセブン,飲食,その他(バー・クラブ・スナックなど),ライブハウス,渋谷区代々木1-41-3福井ビル2F,070-5360-3593,,35.6827916,139.6996532,Ek5KYXBhbiwg44CSMTUxLTAwNTMgVG9reW8sIFNoaWJ1eWEsIFlveW9naSwgMS1jaMWNbWXiiJI0MeKIku-8kyDnpo_kupXjg5Pjg6sgMmYiHhocChYKFAoSCa0X6zDPjBhgEY2ZWM7wuN5EEgIyZg
Areva,飲食,その他(バー・クラブ・スナックなど),カフェバー,渋谷区上原二丁目48-12東洋代々木上原コーポ103,03-4400-3590,,35.6679019,139.6820048,ChIJX-2EIAHzGGARdwxwBLsHpCk
アロハ豚珍串,飲食,外国料理,その他,渋谷区千駄ヶ谷3-52-3サニー原宿1階,03-3401-6800,,35.674605,139.7066044,ElZKYXBhbiwg44CSMTUxLTAwNTEgVG9reW8sIFNoaWJ1eWEsIFNlbmRhZ2F5YSwgMy1jaMWNbWXiiJI1MuKIku-8kyDjgrXjg4vjg7zljp_lrr8gMemajiIgGh4KFgoUChIJE6uqdbyMGGARxlzMCCRSxLESBDHpmo4
アロンズダイニング,飲食,外国料理,イタリア料理,渋谷区幡ヶ谷1-1-4 1F,070-6558-8171,,35.6775572,139.6786948,Ek9KYXBhbiwg44CSMTUxLTAwNzIgVG9reW8sIFNoaWJ1eWEsIEhhdGFnYXlhLCAxLWNoxY1tZeKIkjHiiJLvvJQg5rGg55Sw44OT44OrIDFmIh4aHAoWChQKEglbCK7eOvMYYBFBJ9Qfx5L3jhICMWY
OURDAYS,飲食,その他(バー・クラブ・スナックなど),バー,渋谷区笹塚3-40-1,090-4546-5067,,35.6788699,139.6683333,ChIJmw0qKx_zGGAR-hFJZkCv4gY
Bar Unkempt,飲食,その他(バー・クラブ・スナックなど),バー,渋谷区富ヶ谷1-14-20代々木公園セレナビル401,03-5738-8156,,35.66715780000001,139.6914366,El1KYXBhbiwg44CSMTUxLTAwNjMgVG9reW8sIFNoaWJ1eWEsIFRvbWlnYXlhLCAxLWNoxY1tZeKIkjE0IOS7o-OAheacqOWFrOWckuOCu-ODrOODiuODk-ODqyA0MDEiHxodChYKFAoSCZ1x-tOyjBhgEe5gb-2_bYA8EgM0MDE
庵狐　代官山店,飲食,日本料理,日本料理,渋谷区代官山町13-688DAIKANYAMA1階,03-6416-5189,,35.652873,139.7056775,ChIJ26h9TluLGGARS-J4D4qWn4E
庵狐　円山町店,飲食,居酒屋,居酒屋,渋谷区円山町25-4加藤ビル1F,03-5459-4083,,35.65616079999999,139.6938571,EklKYXBhbiwg44CSMTUwLTAwNDQgVG9reW8sIFNoaWJ1eWEsIE1hcnV5YW1hY2jFjSwgMjXiiJLvvJQg5Yqg6Jek44OT44OrIDFmIh4aHAoWChQKEgn75yycVYsYYBF4zVUJeYzeLBICMWY
アンコールワット,飲食,外国料理,東南アジア料理,渋谷区代々木1-38-13住研ビル1F,03-3370-3019,,35.6827343,139.7006021,ElFKYXBhbiwg44CSMTUxLTAwNTMgVG9reW8sIFNoaWJ1eWEsIFlveW9naSwgMS1jaMWNbWXiiJIzOOKIku-8ke-8kyDkvY_noJTjg5Pjg6sgMWYiHhocChYKFAoSCau8PU3PjBhgERIeFsxZIiZCEgIxZg
アンジェパティオ,飲食,外国料理,イタリア料理,渋谷区南平台町12-11,03-3476-7717,,35.6544242,139.6958991,ChIJBcQcIlSLGGARodjLgcq_Es0
按田餃子パワー店,飲食,外国料理,その他,渋谷区西原3-7-4渡部ビル1階,03-6407-9881,,35.66989179999999,139.6808598,ElJKYXBhbiwg44CSMTUxLTAwNjYgVG9reW8sIFNoaWJ1eWEsIE5pc2hpaGFyYSwgMy1jaMWNbWXiiJI34oiS77yVIOa4oemDqOODk-ODqyAx6ZqOIiAaHgoWChQKEgltyWj-R_MYYBGfaczIBkXxNhIEMemajg
按田餃子代々木上原本店,飲食,外国料理,その他,渋谷区西原3-21-2,03-6407-8813,,35.6705992,139.681915,ChIJVYEX4jfzGGARrWo9Rp1DKVo
あんちゅう,飲食,外国料理,イタリア料理,渋谷区上原2-48-9松崎ビル1,03-6804-8990,https://s.tabelog.com/tokyo/A1318/A131811/13223334/,35.6675456,139.6816758,Ek1KYXBhbiwg44CSMTUxLTAwNjQgVG9reW8sIFNoaWJ1eWEsIFVlaGFyYSwgMi1jaMWNbWXiiJI0OOKIku-8mSDmnb7ltI7jg5Pjg6sgMSIdGhsKFgoUChIJZaMhkEjzGGARngWKMv7JhZQSATE
Antelope,飲食,その他(バー・クラブ・スナックなど),バー,渋谷区広尾5-3-15HHBビル2F,03-4363-8561,,35.6479731,139.7207503,ChIJ3-cLlBKLGGARXMRfCe464-w
AND THE FRIET,飲食,外国料理,その他,渋谷区広尾5丁目16番1号,03-6434-7297,,35.6500512,139.7204293,ChIJdQuSOG2LGGAR8Tmxhoojn6w
andC,飲食,喫茶店・カフェ,喫茶店・カフェ,渋谷区千駄ヶ谷1-22-4吹上ビル1階　催事用,070-3149-9699,,35.678936,139.7091174,ElNKYXBhbiwg44CSMTUxLTAwNTEgVG9reW8sIFNoaWJ1eWEsIFNlbmRhZ2F5YSwgMS1jaMWNbWXiiJIyMuKIku-8lCDlkLnkuIrjg5Pjg6sgMemajiIgGh4KFgoUChIJn0vSVb6MGGARxzEnCaJGDsISBDHpmo4
ARMS,飲食,喫茶店・カフェ,喫茶店・カフェ,渋谷区代々木5-64-7神宮白鳳マンション1階,03-3466-5970,,35.6726053,139.6909978,El9KYXBhbiwg44CSMTUxLTAwNTMgVG9reW8sIFNoaWJ1eWEsIFlveW9naSwgNS1jaMWNbWXiiJI2NOKIku-8lyDnpZ7lrq7nmb3ps7Pjg57jg7Pjgrfjg6fjg7MgMemajiIgGh4KFgoUChIJh1EAzUrzGGARzQDHb_QJ3eMSBDHpmo4
ARMS TAKE OUT & DELIVERY,飲食,喫茶店・カフェ,ファーストフード,渋谷区富ヶ谷1-9-21レイ上原ビル1階,03-3466-5974,,35.668538,139.6901417,ElpKYXBhbiwg44CSMTUxLTAwNjMgVG9reW8sIFNoaWJ1eWEsIFRvbWlnYXlhLCAxLWNoxY1tZeKIkjniiJLvvJLvvJEg44Os44Kk5LiK5Y6f44OT44OrIDHpmo4iIBoeChYKFAoSCZ_JibxM8xhgEQF9INT9SWDMEgQx6ZqO
アーモンドホステルアンドカフェ,飲食,喫茶店・カフェ,喫茶店・カフェ,渋谷区元代々木町1-7almond hostel & cafe,050-3628-5577,https://almondhostelandcafe.tokyo,35.671901,139.6847812,ChIJjYPYITbzGGAR7EYg4vCaV2w
AYUR CEYLON Shibuya,飲食,その他(バー・クラブ・スナックなど),カフェバー,渋谷区円山町22-15,050-6870-5543,https://www.instagram.com/ayurceylon_shibuya/,35.6565765,139.6942584,ChIJd4uzmlWLGGARwrolviLmSAA
アールズバー,飲食,その他(バー・クラブ・スナックなど),バー,渋谷区恵比寿南1-2-12ブラウンベセル 地下1階,03-5724-3726,,35.6462075,139.7081852,EmZKYXBhbiwg44CSMTUwLTAwMjIgVG9reW8sIFNoaWJ1eWEsIEViaXN1bWluYW1pLCAxLWNoxY1tZeKIkjLiiJLvvJHvvJIg44OW44Op44Km44Oz44O044Kn44K744OrIOWcsOS4izEiIxohChYKFAoSCcuRseVAixhgEYZyfp7GiAbuEgflnLDkuIsx
yinega,飲食,外国料理,無国籍料理,渋谷区渋谷1-10-2志水ビル1F,03-8507-8728,,35.6606844,139.7050691,EkZKYXBhbiwg44CSMTUwLTAwMDIgVG9reW8sIFNoaWJ1eWEsIDEtY2jFjW1l4oiSMTDiiJLvvJIg5b-X5rC044OT44OrIDFmIh4aHAoWChQKEgkdaXGWWIsYYBFaExvSXlM_eBICMWY
Yellow,飲食,その他(バー・クラブ・スナックなど),バー,渋谷区恵比寿南1-8-9第一黄色いビル4F,03-5708-5979,,35.6460585,139.7089532,ElJKYXBhbiwg44CSMTUwLTAwMjIgVG9reW8sIFNoaWJ1eWEsIEViaXN1bWluYW1pLCAxLWNoxY1tZeKIkjjiiJLvvJkg5Lqs5Z-O44OT44OrIDRmIh4aHAoWChQKEglxEZX1QIsYYBFAgPKrezIxihICNGY
イエローカンパニー恵比寿本店,飲食,日本料理,その他,渋谷区東3-14-19オークヒルズ1階,03-5485-2723,https://www.yellowcompany.jp,35.6513468,139.7094943,ElpKYXBhbiwg44CSMTUwLTAwMTEgVG9reW8sIFNoaWJ1eWEsIEhpZ2FzaGksIDMtY2jFjW1l4oiSMTTiiJLvvJHvvJkg44Kq44O844Kv44OS44Or44K6IDHpmo4iIBoeChYKFAoSCQkpTVBCixhgEcVXCnlKlW49EgQx6ZqO
イエローハウス,飲食,喫茶店・カフェ,喫茶店・カフェ,渋谷区富ヶ谷1-6-14第2代々木公園ビル1階,050-3695-0383,https://www.instagram.com/yellowhouse_tomigaya,35.6691158,139.689497,El1KYXBhbiwg44CSMTUxLTAwNjMgVG9reW8sIFNoaWJ1eWEsIFRvbWlnYXlhLCAxLWNoxY1tZeKIkjbiiJLvvJHvvJAg5Luj44CF5pyo5YWs5ZyS44OT44OrIDHpmo4iIBoeChYKFAoSCS1pNWJL8xhgEcLwEbP5ww-cEgQx6ZqO
イエローママ,飲食,その他(バー・クラブ・スナックなど),バー,渋谷区道玄坂2-20-26エクシール道玄坂地下一階4号,03-6809-0768,,35.6593021,139.6967812,EkDkuIAsNCwgMi1jaMWNbWUtMjAtMjYgRMWNZ2VuemFrYSwgU2hpYnV5YSwgVG9reW8gMTUwLTAwNDMsIEphcGFuIiEaHwoWChQKEgk7McfyqYwYYBFI-O-DWM1wpRIF5LiALDQ
粋　恵比寿店,飲食,居酒屋,居酒屋,渋谷区恵比寿西1-13-2サンキビル2階,03-6416-3453,,35.6475137,139.7080107,EktTYW5raSBCbGRnLiwgMumajiwgMS1jaMWNbWUtMTMtMiBFYmlzdW5pc2hpLCBTaGlidXlhLCBUb2t5byAxNTAtMDAyMSwgSmFwYW4iIBoeChYKFAoSCUkrAxRBixhgEQSPga0b-9sOEgQy6ZqO
いく田,飲食,ステーキ・焼肉,焼肉,渋谷区代々木1-31-15第二宝山ビル1階,03-6304-2917,,35.6817931,139.702276,Ejsx6ZqOLCAxLWNoxY1tZS0zMS0xNSBZb3lvZ2ksIFNoaWJ1eWEsIFRva3lvIDE1MS0wMDUzLCBKYXBhbiIgGh4KFgoUChIJdZLaO8aMGGAR4lRhfghEHRgSBDHpmo4
イザカヤあだん,飲食,居酒屋,居酒屋,渋谷区広尾5-15-1日計広尾コーポ1F,03-3446-3295,,35.6502627,139.7211576,ChIJETC3Wm2LGGARcNslGsoHB9I
居酒屋　いしかり,飲食,居酒屋,居酒屋,渋谷区笹塚1-28-7レアヒビル102,03-3466-3265,,35.6729776,139.6671722,ChIJSU9QaRfzGGAROsJtOz0Loi4
居酒屋海 笹塚店,飲食,居酒屋,居酒屋,渋谷区笹塚2-16-4,03-3375-2283,,35.6743237,139.6660858,ChIJexyu8xnzGGARcsMrq5RYL6w
居酒屋　喜楽,飲食,居酒屋,居酒屋,渋谷区渋谷3-15-2F93 Shibuya II 5階,03-6427-7215,,35.6612662,139.7106438,ChIJ9ZuhNF6LGGARnD3a-7oR-ys
居酒屋　九四六屋,飲食,居酒屋,居酒屋,渋谷区道玄坂2ー23ー1小池ビルB1,03-5456-8587,,35.6606195,139.6960297,EjxiMSwgMi1jaMWNbWUtMjMtMSBExY1nZW56YWthLCBTaGlidXlhLCBUb2t5byAxNTAtMDA0MywgSmFwYW4iHhocChYKFAoSCRHy8x_mjRhgEbSMpnodBHBqEgJiMQ
居酒屋　佐藤,飲食,居酒屋,居酒屋,渋谷区恵比寿西1-8-2ウエストパレスビス103,03-6416-3703,,35.64722,139.7153418,ChIJq6q7yhSLGGARS6MW3I4MU0o
居酒屋七福,飲食,居酒屋,居酒屋,渋谷区富ヶ谷1-3-13マキビル104,03-3468-7729,,35.6693625,139.6891784,EjsxMDQsIDEtY2jFjW1lLTMtMTMgVG9taWdheWEsIFNoaWJ1eWEsIFRva3lvIDE1MS0wMDYzLCBKYXBhbiIfGh0KFgoUChIJHZjFekvzGGARJsG7HZ2n2IESAzEwNA
居酒屋　俊樹,飲食,居酒屋,居酒屋,渋谷区上原2-33-2ユニマットブルーポイント4F,03-3460-5225,,35.6645657,139.6781866,EldKYXBhbiwg44CSMTUxLTAwNjQgVG9reW8sIFNoaWJ1eWEsIFVlaGFyYSwgMi1jaMWNbWXiiJIzM-KIku-8kiDjgq3jg6Pjg5Pjg7Pjg4_jgqbjgrkgNGYiHhocChYKFAoSCauqsYFG8xhgEZA3_2g99oNAEgI0Zg
居酒屋千,飲食,居酒屋,居酒屋,渋谷区宇田川町26-5育真ビル4階,03-3464-2100,,35.6600118,139.6988155,EjY06ZqOLCAyNi01IFVkYWdhd2FjaMWNLCBTaGlidXlhLCBUb2t5byAxNTAtMDA0MiwgSmFwYW4iIBoeChYKFAoSCe8s2DSojBhgEbL_PI_MWqmbEgQ06ZqO
居酒屋のんきや,飲食,居酒屋,居酒屋,渋谷区神泉町10ー2第5岡崎ビル1階,03-3462-1267,,35.655488,139.6930106,ElBKYXBhbiwg44CSMTUwLTAwNDUgVG9reW8sIFNoaWJ1eWEsIFNoaW5zZW5jaMWNLCAxMOKIku-8kiDnrKzvvJXlsqHltI7jg5Pjg6sgMemajiIgGh4KFgoUChIJJeWvElWLGGARUxUd2kMs61cSBDHpmo4
居酒屋ふくみ,飲食,居酒屋,居酒屋,渋谷区東3-25-3ライオンズプラザ恵比寿B 1,03-3400-7031,,35.6486733,139.7100055,ChIJ45llTteLGGARRP9Gm2v4QaI
居酒屋メッカ,飲食,居酒屋,居酒屋,渋谷区笹塚2-22-1松原ビル1階,03-3376-0081,,35.6737881,139.664242,Ejwx6ZqOLCAyLWNoxY1tZS0yMi0xIFNhc2F6dWthLCBTaGlidXlhLCBUb2t5byAxNTEtMDA3MywgSmFwYW4iIBoeChYKFAoSCWnRH0Aa8xhgEQoqf-Dv8NBHEgQx6ZqO
ITACHI,飲食,ステーキ・焼肉,ステーキ,渋谷区円山町1-3skビル　2F,03-3770-3315,,35.6566135,139.6943282,ChIJNddJdKqMGGARlGZAYj25kO8
イタチカクー,飲食,外国料理,イタリア料理,渋谷区桜丘町24-3インエステートビルB1,03-6886-2496,,35.6567222,139.7007801,ElJKYXBhbiwg44CSMTUwLTAwMzEgVG9reW8sIFNoaWJ1eWEsIFNha3VyYWdhb2thY2jFjSwgMjTiiJLvvJMg44OV44Ki44OD44OI77yR77yRIGIxIh4aHAoWChQKEgmZeJBlV4sYYBFIeGjJV7yDLxICYjE
イタリアン　 chim chim,飲食,外国料理,イタリア料理,渋谷区恵比寿南1-9-12ピトレスクビル1階,03-5722-5333,,35.645818,139.7091468,EmxKYXBhbiwg44CSMTUwLTAwMjIgVG9reW8sIFNoaWJ1eWEsIEViaXN1bWluYW1pLCAxLWNoxY1tZeKIkjniiJLvvJHvvJIg77yw77yp77y077y077yv77yy77yl77yz77yx77y177ylIDHpmo4iIBoeChYKFAoSCRcmQ2BAixhgEWxGATCBfeZxEgQx6ZqO
イタリアンレストランズッカ,飲食,外国料理,イタリア料理,渋谷区桜丘町10-4モドマルシェビル1階,03-6416-4384,,35.6543143,139.7024854,Ejox6ZqOLCAxMC00IFNha3VyYWdhb2thY2jFjSwgU2hpYnV5YSwgVG9reW8gMTUwLTAwMzEsIEphcGFuIiAaHgoWChQKEgnlhFNoWosYYBFmxZ5J0ckXdRIEMemajg
イタリアンレストランLIFE,飲食,外国料理,イタリア料理,渋谷区富ヶ谷1-9-19STビル1階,03-3467-3479,,35.6671825,139.689223,ChIJadbF2UzzGGARneqoEY_Y2-8
一堂,飲食,居酒屋,居酒屋,渋谷区千駄ヶ谷1-28-4,03-3402-5580,,35.6805435,139.7092275,ChIJOdEdn7-MGGAR9f13gq68Ilg
181cellar北参道,飲食,外国料理,イタリア料理,渋谷区千駄ヶ谷3-6-1ガレリア原宿1F,03-6447-5618,,35.6761062,139.7042424,ChIJ5UWpDLmMGGARx_M8eJ2WrSs
１８合同会社,飲食,居酒屋,居酒屋,渋谷区代々木1丁目58番7号ヴェラハイツ代々木店舗103,03-4400-8918,,35.6845484,139.7005906,ChIJWw_6cM-MGGARCXtCuTkhjPQ
いちひく,飲食,日本料理,その他,渋谷区神宮前2-20-121FーB号,03-3403-8188,,35.6736057,139.7109231,ChIJGaqF_JeMGGARFyzTQj_kjX8
一食,飲食,日本料理,その他,渋谷区西原1-7-8ツインパレスK1 101,03-6873-9120,,35.6738786,139.6817356,Ej5rMSwxMDEsIDEtY2jFjW1lLTctOCBOaXNoaWhhcmEsIFNoaWJ1eWEsIFRva3lvIDE1MS0wMDY2LCBKYXBhbiIiGiAKFgoUChIJjdrMaTfzGGARCu4oAoVpmG8SBmsxLDEwMQ
いっぷく処　浅葱,飲食,喫茶店・カフェ,喫茶店・カフェ,渋谷区猿楽町2-11氷川ビル401号室,03-6416-5475,,35.6533025,139.7045199,EkxKYXBhbiwg44CSMTUwLTAwMzMgVG9reW8sIFNoaWJ1eWEsIFNhcnVnYWt1Y2jFjSwgMuKIku-8ke-8kSDmsLflt53jg5Pjg6sgNDAxIh8aHQoWChQKEgmdFxoYW4sYYBGBxjMPxmKzmxIDNDAx
いづまるキッチン,飲食,日本料理,その他,渋谷区代々木3-13-1スマイルヨヨギ1A,080-6523-7718,,35.6840176,139.6949421,ChIJZ1-bRvKNGGARbry4omqguC4
イドコロネ,飲食,居酒屋,ダイニング・バー,渋谷区本町2-33-2初台ワールドマンション2階,080-6868-0504,,35.6840808,139.6824833,ChIJs3WZTMzzGGARV2qfDmjRFWA
イナホノシズク,飲食,居酒屋,居酒屋,渋谷区初台1-11-15南洋ビル1-A,03-5350-2608,,35.6795818,139.6868501,ChIJy66rMzLzGGARaoRDw7SS0mM
イナホノシズク二号店,飲食,居酒屋,居酒屋,渋谷区初台1-37-1光ビル1F,03-3377-7737,,35.6802815,139.6867404,Ek1KYXBhbiwg44CSMTUxLTAwNjEgVG9reW8sIFNoaWJ1eWEsIEhhdHN1ZGFpLCAxLWNoxY1tZeKIkjM34oiS77yRIOWFieODk-ODqyAxZiIeGhwKFgoUChIJY6q9PDLzGGARdzgg1ZSz2ZsSAjFm
今尽,飲食,日本料理,その他,渋谷区広尾3-1-26,03-3498-4600,,35.6568969,139.7144541,ChIJBwpcMWaLGGARsqGGsnkvxSE
イルプレージョ,飲食,外国料理,イタリア料理,渋谷区上原1-17-7フレニティハウス2F,03-6407-1271,,35.6689867,139.682563,ChIJlwhiXEjzGGARoJKQ9NaalHE
いわて屋,飲食,居酒屋,居酒屋,渋谷区千駄ヶ谷3-16-17NOCE KITASANDO 1F,03-6825-4033,,35.6783688,139.7055537,ChIJhZw22riMGGARF95drS3lJ2A
InG,飲食,居酒屋,ダイニング・バー,渋谷区本町2-43-4ヴァーチェストーンハウス1A,090-2757-1276,,35.6845916,139.6840286,EmhKYXBhbiwg44CSMTUxLTAwNzEgVG9reW8sIFNoaWJ1eWEsIEhvbm1hY2hpLCAyLWNoxY1tZeKIkjQz4oiS77yUIOODtOOCoeODvOODgeOCp-OCueODiOODvOODs-ODj-OCpuOCuSAxYSIeGhwKFgoUChIJK7C-2i7zGGARa64RtA7qeh0SAjFh
in the house,飲食,その他(バー・クラブ・スナックなど),バー,渋谷区神宮前三丁目31番20号,090-6197-6274,,35.6725257,139.7110235,ChIJXySNr6KMGGAR5IJJwYK0Y7E
インダストリアルラウンジ,飲食,その他(バー・クラブ・スナックなど),バー,渋谷区恵比寿西1-8-2ウエストパレス205,03-3461-1989,,35.6477533,139.70825,ChIJVVXlEkGLGGAR6KEAN8zC17k
インド料理サモサ初台店,飲食,外国料理,インド料理,渋谷区本町2-4-101F,03-3377-3378,,35.6841176,139.6828422,ChIJ_91mOS_zGGARTptFDiY6Fxw
E・A・T GRILL＆BAR,飲食,外国料理,その他,渋谷区千駄ヶ谷4丁目10番4号千駄ヶ谷グリーンランドビル1階,03-6447-2218,,35.6799118,139.7063687,ElxKYXBhbiwg44CSMTUxLTAwNTEgVG9reW8sIFNoaWJ1eWEsIFNlbmRhZ2F5YSwgNC1jaMWNbWXiiJIxMOKIku-8lCDjg53jgqLjgr3jg4vjgqjmnZHlsbEgMemajiIgGh4KFgoUChIJQQs-rbiMGGAR4KkjX4Q4KSASBDHpmo4
イーツファン,飲食,居酒屋,居酒屋,渋谷区道玄坂1-7-8新井ビル3階,03-6455-1829,,35.6575155,139.6991565,Ej0z6ZqOLCAxLWNoxY1tZS03LTggRMWNZ2VuemFrYSwgU2hpYnV5YSwgVG9reW8gMTUwLTAwNDMsIEphcGFuIiAaHgoWChQKEgmv_5CxV4sYYBEG6b0qFnM_XBIEM-majg
Ui食堂,飲食,喫茶店・カフェ,喫茶店・カフェ,渋谷区神山町9-5ホーリーランドAmi1階,03-5738-8920,,35.6642735,139.6947869,EjlhbWkx6ZqOLCA5LTUgS2FtaXlhbWFjaMWNLCBTaGlidXlhLCBUb2t5byAxNTAtMDA0NywgSmFwYW4iIxohChYKFAoSCSsBCkusjBhgERnE8oTF7kO3EgdhbWkx6ZqO
Whisky Gibier,飲食,その他(バー・クラブ・スナックなど),バー,渋谷区西原3-21-1 1F2号,03-3466-2640,,35.6707188,139.6818855,EjwxZjIsIDMtY2jFjW1lLTIxLTEgTmlzaGloYXJhLCBTaGlidXlhLCBUb2t5byAxNTEtMDA2NiwgSmFwYW4iHxodChYKFAoSCQ1hxuM38xhgEcJR7yAyP0FKEgMxZjI
WEPwafflefactory,飲食,喫茶店・カフェ,喫茶店・カフェ,渋谷区神山町25-17UpperHillscourt101,03-6416-8242,,35.6628705,139.6880166,ChIJ80w4ZlLzGGAR04ZdyvIwuac
ウエトミ×アオギリ,飲食,居酒屋,居酒屋,渋谷区上原1丁目1-21,03-5790-9990,,35.6685165,139.6876028,ChIJ_134i0vzGGARovGU-RRCRd0
ウエハラキッチン,飲食,喫茶店・カフェ,喫茶店・カフェ,渋谷区上原3-1-17,03-6804-9390,,35.66798259999999,139.6816259,ChIJR_EgiUjzGGAR7n2CGvyXIgg
上原の酒場　でばちか,飲食,居酒屋,居酒屋,渋谷区上原1-35-6第16菊地ビルB102,03-6451-5547,,35.6696114,139.6818681,EllKYXBhbiwg44CSMTUxLTAwNjQgVG9reW8sIFNoaWJ1eWEsIFVlaGFyYSwgMS1jaMWNbWXiiJIzNeKIku-8liDnrKzvvJHvvJboj4rlnLDjg5Pjg6sgYjEwMiIgGh4KFgoUChIJO93uE0jzGGARMLadMc9VegwSBGIxMDI
上原の酒場　でばやし,飲食,居酒屋,居酒屋,渋谷区上原1-32-18小林ビル2階,03-6407-9782,,35.6689706,139.6802844,Ejsy6ZqOLCAxLWNoxY1tZS0zMi0xOCBVZWhhcmEsIFNoaWJ1eWEsIFRva3lvIDE1MS0wMDY0LCBKYXBhbiIgGh4KFgoUChIJpWC56EfzGGARws3V53XMj7MSBDLpmo4
UEHARA PARLOR,飲食,喫茶店・カフェ,喫茶店・カフェ,渋谷区上原1-36-12内藤ビル2F,03-5761-6559,,35.6694336,139.6823383,ElFKYXBhbiwg44CSMTUxLTAwNjQgVG9reW8sIFNoaWJ1eWEsIFVlaGFyYSwgMS1jaMWNbWXiiJIzNuKIku-8ke-8kiDlhoXol6Tjg5Pjg6sgMmYiHhocChYKFAoSCbdgSUBI8xhgEfVDBV61L8UmEgIyZg
ウォータリングホール,飲食,居酒屋,ビアホール,渋谷区千駄ヶ谷5-26-5代々木シティホームズ103,03-6380-6115,,35.6838018,139.7040412,EjwxMDMsIDUtY2jFjW1lLTIyLTUgU2VuZGFnYXlhLCBTaGlidXlhLCBUb2t5byAxNTEtMDA1MSwgSmFwYW4iHxodChYKFAoSCQEA3IDGjBhgESDT6OqRAW_nEgMxMDM
魚音,飲食,日本料理,日本料理,渋谷区初台1-11-12,03-5371-5055,,35.6793864,139.6863416,ChIJ472IKzLzGGAR6w5poJWA5sE
UO-SAO,飲食,居酒屋,居酒屋,渋谷区上原1丁目17-11,03-6407-0355,,35.6692063,139.6823736,ChIJOadIQkjzGGARKVZqdGvhyUo
魚まみれ眞吉恵比寿店,飲食,居酒屋,居酒屋,渋谷区恵比寿南1-11-1松本ビル1階,03-5794-8350,,35.6455166,139.7094789,Ej8x6ZqOLCAxLWNoxY1tZS0xMS0xIEViaXN1bWluYW1pLCBTaGlidXlhLCBUb2t5byAxNTAtMDAyMiwgSmFwYW4iIBoeChYKFAoSCe12XOElixhgEWkVHbCZE0xNEgQx6ZqO
魚まみれ眞吉渋谷宮益坂店,飲食,居酒屋,居酒屋,渋谷区渋谷1-10-12宮城ビル1階,03-6418-8318,,35.66074520000001,139.7048299,EktKYXBhbiwg44CSMTUwLTAwMDIgVG9reW8sIFNoaWJ1eWEsIDEtY2jFjW1l4oiSMTDiiJLvvJHvvJIg5a6u5Z-O44OT44OrIDHpmo4iIBoeChYKFAoSCSXR0ZBYixhgEd4BJIgsAR2-EgQx6ZqO
魚まみれ眞吉神宮前本館場末店,飲食,居酒屋,居酒屋,渋谷区神宮前2-19-16,03-3401-3917,,35.6739658,139.7107036,ChIJCUW6Q72MGGARq1vslo5FWuQ
魚まみれ眞吉代々木八幡店,飲食,居酒屋,居酒屋,渋谷区富ヶ谷1-2-13高松DCビルB1F-A,03-6804-9220,https://tabelog.com/tokyo/A1318/A131810/13215752/,35.6693944,139.688884,EltKYXBhbiwg44CSMTUxLTAwNjMgVG9reW8sIFNoaWJ1eWEsIFRvbWlnYXlhLCAxLWNoxY1tZeKIkjLiiJLvvJHvvJMg6auY5p2-77yk77yj44OT44OrIGIxZixhIiEaHwoWChQKEgmL3T53S_MYYBFA4FWkVjyxRBIFYjFmLGE
魚ゆう,飲食,日本料理,日本料理,渋谷区神泉町17-16,03-3461-4460,,35.6581249,139.6918653,ChIJe45D2qqMGGARthpsLvB2UtE
鰾,飲食,日本料理,日本料理,渋谷区西原3-22-5,03-5790-9377,,35.6705415,139.6827525,ChIJdzjSJUjzGGARSpYYtAZFwh8
ウサギの上り坂,飲食,その他(バー・クラブ・スナックなど),バー,渋谷区代々木1-54-2小林ビル2階,03-6273-5338,,35.6840675,139.7006206,ElBKYXBhbiwg44CSMTUxLTAwNTMgVG9reW8sIFNoaWJ1eWEsIFlveW9naSwgMS1jaMWNbWXiiJI1NOKIku-8kiDlsI_mnpfjg5Pjg6sgMumajiIgGh4KFgoUChIJ8-7IaM-MGGARUsN0CqM-9AsSBDLpmo4
兎屋,飲食,日本料理,日本料理,渋谷区笹塚1-10-6シーティービル1F,03-5454-9003,,35.6735209,139.6696419,ElBKYXBhbiwg44CSMTUxLTAwNzMgVG9reW8sIFNoaWJ1eWEsIFNhc2F6dWthLCAxLWNoxY1tZeKIkjEw4oiS77yWIOesueWhmuODk-ODqyAxZiIeGhwKFgoUChIJY12uwRfzGGARqij2gzFvORkSAjFm
カフェ　ウズナオムオム,飲食,喫茶店・カフェ,喫茶店・カフェ,渋谷区神宮前5丁目17-8原宿XS 203,03-3499-2337,http://www.uznaomom.jp.net,35.665857,139.705356,EklIYXJhanVrdSBYcywgMjAzLCA1LWNoxY1tZS0xNy04IEppbmfFq21hZSwgU2hpYnV5YSwgVG9reW8gMTUwLTAwMDEsIEphcGFuIh8aHQoWChQKEglpBLSjpowYYBGhdXAGin1CJRIDMjAz
WOODBERRY COFFEE 渋谷店,飲食,喫茶店・カフェ,喫茶店・カフェ,渋谷区東2-20-18,03-5962-7518,,35.6536448,139.7091655,ChIJYceH1kKLGGARdRUr_BiZhUQ
WOODBERRY COFFEE 代官山店,飲食,喫茶店・カフェ,喫茶店・カフェ,渋谷区恵比寿南3-7-1,03-6451-0446,,35.6464163,139.702286,ChIJFzRsCUaLGGARcwuJuEibGig
うな賀,飲食,日本料理,うなぎ,渋谷区本町1丁目2-2榎本ビル2階　第3区画,090-1774-0333,,35.681281,139.6856417,ElJKYXBhbiwg44CSMTUxLTAwNzEgVG9reW8sIFNoaWJ1eWEsIEhvbm1hY2hpLCAxLWNoxY1tZeKIkjLiiJLvvJIg5qaO5pys44OT44OrIDIs56ysIiEaHwoWChQKEglZxxQCLvMYYBEDeJxBPjyuxRIFMiznrKw
うなぎ  ふじもと,飲食,日本料理,うなぎ,渋谷区千駄ヶ谷3丁目15番12号,03-3401-6551,,35.6766079,139.7070831,ChIJRb70r76MGGARtgeAxUFknlg
うなとり×宇奈とと　笹塚店,飲食,居酒屋,居酒屋,渋谷区笹塚1-57-16,080-6266-8037,https://s.tabelog.com/tokyo/A1318/A131808/13277010/party/,35.67391560000001,139.667232,ChIJgdDS2BnzGGAR48e1BkLvh4k
うにtoいくら,飲食,居酒屋,居酒屋,渋谷区円山町7-5WHARF渋谷道玄坂6階,03-5422-3913,,35.6571748,139.6955376,ChIJ6Txr8FWLGGARZym9EsXbA1k
uni-BAR,飲食,その他(バー・クラブ・スナックなど),バー,渋谷区笹塚3-28-3後藤ビル1F,090-4845-2087,,35.6748906,139.6626174,EjoxZiwgMy1jaMWNbWUtMjgtMyBTYXNhenVrYSwgU2hpYnV5YSwgVG9reW8gMTUxLTAwNzMsIEphcGFuIh4aHAoWChQKEgkpDQwPG_MYYBHoJORADwolaxICMWY
うめ組,飲食,居酒屋,居酒屋,"渋谷区笹塚2-27-5B,sビル1F",03-6381-6633,,35.6751534,139.6662552,ChIJ2cVIhRnzGGAR3pFU1rtBOoY
ULTIMO,飲食,外国料理,イタリア料理,渋谷区西原3-24-1アムール代々木上原 104号,090-5419-9700,,35.6711294,139.6833008,ChIJewWUGADzGGARy00xSjaPjFE
urura,飲食,外国料理,フランス料理,渋谷区松濤1丁目29-2　スクエアビル 2F,03-3770-0149,,35.6600042,139.6950798,ElVKYXBhbiwg44CSMTUwLTAwNDYgVG9reW8sIFNoaWJ1eWEsIFNoxY10xY0sIDEtY2jFjW1l4oiSMjniiJLvvJIg44K544Kv44Ko44Ki44OT44OrIDJmIh4aHAoWChQKEgkrujnKq4wYYBG-31Xg0sdA0hICMmY
ouahouah,飲食,喫茶店・カフェ,喫茶店・カフェ,渋谷区恵比寿西2-18-6代官山ウイング102,03-6433-7875,,35.6496071,139.7052081,ElxKYXBhbiwg44CSMTUwLTAwMjEgVG9reW8sIFNoaWJ1eWEsIEViaXN1bmlzaGksIDItY2jFjW1l4oiSMTjiiJLvvJEg5Luj5a6Y5bGx44Km44Kj44Oz44KwIDEwMiIfGh0KFgoUChIJZ0KIZ0SLGGARxudjJ2u2oisSAzEwMg
OOTONG RUM HALL,飲食,その他(バー・クラブ・スナックなど),バー,渋谷区幡ヶ谷2-47-11田口ビル1階,03-6762-5128,,35.6792287,139.6771642,El5KYXBhbiwg44CSMTUxLTAwNzIgVG9reW8sIFNoaWJ1eWEsIEhhdGFnYXlhLCAyLWNoxY1tZeKIkjQ34oiS77yR77yRIOODqeODlOOCuea4i-iwt-acrOeUuiAx6ZqOIiAaHgoWChQKEgmByELrJPMYYBFzSFNyHm33GRIEMemajg
EIGHT COFFEE,飲食,喫茶店・カフェ,喫茶店・カフェ,渋谷区恵比寿1-11-8TCビル1階,080-6621-3150,,35.6463854,139.7123745,Ejox6ZqOLCAxLWNoxY1tZS0yMC0xMSBFYmlzdSwgU2hpYnV5YSwgVG9reW8gMTUwLTAwMTMsIEphcGFuIiAaHgoWChQKEgmvcnmxaosYYBESmJUjSJvCrRIEMemajg
EXCITE LUCKY,飲食,居酒屋,ダイニング・バー,渋谷区笹塚3-31-10笹塚サンハイツ,080-5071-7498,,35.6755029,139.6622627,ChIJ2csvbBvzGGARoetzIFV2WiU
es Cafe Bar & Beauty Salon,飲食,喫茶店・カフェ,その他,渋谷区東3丁目25番6号楠ビル2F,03-6721-7680,,35.6485255,139.7100779,EjkyZiwgMy1jaMWNbWUtMjUtNiBIaWdhc2hpLCBTaGlidXlhLCBUb2t5byAxNTAtMDAxMSwgSmFwYW4iHhocChYKFAoSCblqS75BixhgEdEMHlYZ6s7WEgIyZg
エスグロッソ,飲食,外国料理,イタリア料理,渋谷区道玄坂1-11-3フォースワンビル1F,03-3464-7878,,35.657686,139.69886,ChIJF4jBtFeLGGAROrOaZvF6oAo
渋谷エクセルホテル東急　エスタシオンカフェ,飲食,喫茶店・カフェ,喫茶店・カフェ,渋谷区道玄坂1-12-2,03-5457-0133,,35.6581148,139.6982359,ChIJ41sVMFaLGGARMXpxDHJpOc8
Ethnic Dining TSUBAKI GARDEN,飲食,外国料理,インド料理,渋谷区東1-3-1カミニート1F 4号,050-5590-3642,,35.6575476,139.7081702,Ejc0LCAxLWNoxY1tZS0zLTEgSGlnYXNoaSwgU2hpYnV5YSwgVG9reW8gMTUwLTAwMTEsIEphcGFuIh0aGwoWChQKEgl7sSE7XIsYYBEGSDjQ07hfOhIBNA
etain cafe and bar,飲食,喫茶店・カフェ,喫茶店・カフェ,渋谷区東2-15-1trias215 101,090-2335-4325,,35.6535859,139.7096464,ChIJb8qC2UKLGGAROuFv8P42cVw
エッセ,飲食,外国料理,イタリア料理,渋谷区恵比寿南2-4-19,03-6412-7130,,35.6450283,139.7074069,ChIJ65g0uUCLGGAR29k346_NUDc
N9Y　奥渋店,飲食,ステーキ・焼肉,ステーキ,渋谷区宇田川町37-11大久保ビル　1階,03-5738-8315,,35.6622376,139.6955647,Ejcx6ZqOLCAzNy0xMSBVZGFnYXdhY2jFjSwgU2hpYnV5YSwgVG9reW8gMTUwLTAwNDIsIEphcGFuIiAaHgoWChQKEgkrcPD3q4wYYBEal7r9rcsulhIEMemajg
エノテカミヤヂ,飲食,外国料理,イタリア料理,渋谷区渋谷2-2-4青山アルコーブ202,03-6427-4393,,35.6605322,139.7086596,ChIJ__8v_F6LGGAReG_7Mq3EMZQ
evergreen cafe restaurant EBISU,飲食,喫茶店・カフェ,喫茶店・カフェ,渋谷区恵比寿南1-26-1,03-5724-3660,,35.6426967,139.7119374,ChIJfdkQjBWLGGAR7B5m-_IulSI
恵比寿　今市,飲食,居酒屋,居酒屋,渋谷区恵比寿西1-13-6,03-6455-1717,,35.64740080000001,139.7078411,ChIJ-1x1FkGLGGARI6A_s7TXjE0
恵比寿エスクラシコ,飲食,外国料理,イタリア料理,渋谷区恵比寿1-24-11-1Fグラッセ,03-6277-1612,https://es-classico.jp/,35.6467248,139.715292,ElZKYXBhbiwg44CSMTUwLTAwMTMgVG9reW8sIFNoaWJ1eWEsIEViaXN1LCAxLWNoxY1tZeKIkjI04oiS77yR77yRIO-8p--8su-8oe-8s--8s--8pSAxZiIeGhwKFgoUChIJCetsyBSLGGAR7aix00yoo3YSAjFm
恵比寿　牡蠣ツ端,飲食,居酒屋,居酒屋,渋谷区恵比寿南1-9-2AIビルB1F,03-6452-3414,,35.64722,139.7153418,ChIJq6q7yhSLGGARS6MW3I4MU0o
恵比寿　吉乃坐,飲食,日本料理,日本料理,渋谷区恵比寿4-24-4キエイビル1階,03-5793-5776,https://kichinoza.jp/,35.6452792,139.7158905,ElJKYXBhbiwg44CSMTUwLTAwMTMgVG9reW8sIFNoaWJ1eWEsIEViaXN1LCA0LWNoxY1tZeKIkjI04oiS77yUIOOCreOCqOOCpOODk-ODqyAx6ZqOIiAaHgoWChQKEgnXJ0yIFIsYYBFutEeW5Q29bhIEMemajg
恵比寿　黒帯,飲食,居酒屋,居酒屋,渋谷区恵比寿西1-13-6ブラッサムZEN4階,03-6277-5916,https://tabelog.com/tokyo/A1303/A130302/13153105/,35.64740080000001,139.7078411,EkF6ZW406ZqOLCAxLWNoxY1tZS0xMy02IEViaXN1bmlzaGksIFNoaWJ1eWEsIFRva3lvIDE1MC0wMDIxLCBKYXBhbiIjGiEKFgoUChIJ-1x1FkGLGGARI6A_s7TXjE0SB3plbjTpmo4
EBISU SIX,飲食,その他(バー・クラブ・スナックなど),カフェバー,渋谷区恵比寿3-3-2ニューケイクレセント2f,03-5422-9888,,35.6452664,139.7179565,ChIJ900slhOLGGARz15DWKyM5Po
恵比寿食堂　美星,飲食,居酒屋,居酒屋,渋谷区恵比寿南1-7-8ニューライフ恵比寿203,03-6712-2199,,35.6462101,139.7097661,ChIJIxy_QkCLGGARVSAOWHGKgVc
恵比寿シーシャgreen,飲食,喫茶店・カフェ,その他,渋谷区恵比寿西1-8-10EBISU高橋ビル3F,070-4792-7380,,35.64722,139.7153418,EjczZiwgMS1jaMWNbWUtMjYtMSBFYmlzdSwgU2hpYnV5YSwgVG9reW8gMTUwLTAwMTMsIEphcGFuIh4aHAoWChQKEgmrqrvKFIsYYBFLoxbcjgxTShICM2Y
エビスSTARバー,飲食,その他(バー・クラブ・スナックなど),バー,渋谷区恵比寿南1-8-9第一黄色いビル3階,050-3138-4869,,35.6460585,139.7089532,ElRKYXBhbiwg44CSMTUwLTAwMjIgVG9reW8sIFNoaWJ1eWEsIEViaXN1bWluYW1pLCAxLWNoxY1tZeKIkjjiiJLvvJkg5Lqs5Z-O44OT44OrIDPpmo4iIBoeChYKFAoSCXERlfVAixhgEUCA8qt7MjGKEgQz6ZqO
ebisu diner olive,飲食,その他(バー・クラブ・スナックなど),バー,渋谷区東3-6-9,03-6427-7911,,35.6514585,139.7111409,ChIJN_oJc0KLGGARIS19gYXuGG8
恵比寿ダルマット,飲食,外国料理,イタリア料理,渋谷区恵比寿西2-7-8Sリトリート 1F/B1F,03-3780-9955,https://www.dal-matto.com/,35.6497528,139.7058165,ChIJdVlbe0SLGGARLD6i5EFqQ20
ebisu NUKA factory.,飲食,日本料理,小料理,渋谷区恵比寿4-10-8エビスビル102,03-5422-8362,,35.6454802,139.7146935,EkVFYmlzdSBCbGRnLiwgMTAyLCA0LWNoxY1tZS0xMC04IEViaXN1LCBTaGlidXlhLCBUb2t5byAxNTAtMDAxMywgSmFwYW4iHxodChYKFAoSCXkOLVu8ixhgEa80msTmukfrEgMxMDI
えびすのARALE,飲食,居酒屋,居酒屋,渋谷区恵比寿西1-7-15KATOHビル203,090-5325-2786,,35.6478539,139.7087687,ChIJAQDAC0GLGGARO9J-KXG8QMI
恵比寿　ハジカミ,飲食,居酒屋,居酒屋,渋谷区恵比寿西1-3-9田中ビル1階,03-6427-8755,,35.6487823,139.7083398,Em5KYXBhbiwg44CSMTUwLTAwMjEgVG9reW8sIFNoaWJ1eWEsIEViaXN1bmlzaGksIDEtY2jFjW1l4oiSM-KIku-8mSDjg57jg7zjg5bjg6vjg5Xjg63jg7Pjg4jjgqjjg5Pjgrnjg5Pjg6sgMemajiIgGh4KFgoUChIJKaJbY0GLGGARzwTROWeZruoSBDHpmo4
恵比寿橋酒場TUGI,飲食,居酒屋,居酒屋,渋谷区広尾1-12-16,03-6277-2332,,35.64814459999999,139.7153219,ChIJWcw3P2uLGGARmC9Z5PgNgDw
EBISUBASHI珊瑚,飲食,外国料理,イタリア料理,渋谷区恵比寿1-16-18,03-6450-3348,,35.64781310000001,139.7149428,ChIJEbCqO2uLGGARUbaE4Bxs6iY
恵比寿BAR  BASE,飲食,その他(バー・クラブ・スナックなど),バー,渋谷区恵比寿1-12-7三恵31ビル4階B号室,090-9821-8158,,35.6465355,139.71214,ElJKYXBhbiwg44CSMTUwLTAwMTMgVG9reW8sIFNoaWJ1eWEsIEViaXN1LCAxLWNoxY1tZeKIkjEy4oiS77yXIOS4ieaBte-8k--8keODk-ODqyA0Ih0aGwoWChQKEgn5xmGlaosYYBEfnbI1S18FpRIBNA
恵比寿BAR  BASE2,飲食,その他(バー・クラブ・スナックなど),バー,渋谷区恵比寿1-5-8初鹿野ビル2階,03-5860-2123,,35.6472167,139.7113972,EktIYWppa2FubyBCdWlsZGluZywgMumajiwgMS1jaMWNbWUtNS04IEViaXN1LCBTaGlidXlhLCBUb2t5byAxNTAtMDAxMywgSmFwYW4iIBoeChYKFAoSCaeP5CZAixhgEbMUr1EF5VoCEgQy6ZqO
恵比寿ブラッカウズ,飲食,外国料理,その他,渋谷区恵比寿西2-11-9東光ホワイトビル1Fブラッカウズ,03-3477-2914,,35.6496052,139.7069754,El5KYXBhbiwg44CSMTUwLTAwMjEgVG9reW8sIFNoaWJ1eWEsIEViaXN1bmlzaGksIDItY2jFjW1l4oiSMTHiiJLvvJkg5p2x5YWJ44Ob44Ov44Kk44OI44OT44OrIDFmIh4aHAoWChQKEgmvq_btQ4sYYBFcqhGknJgpiRICMWY
恵比寿ホルモン龍村,飲食,ステーキ・焼肉,焼肉,渋谷区恵比寿南1-4-17GinzaK2ビル4階,03-6303-0065,,35.64722,139.7153418,Ejk06ZqOLCAxLWNoxY1tZS0yNi0xIEViaXN1LCBTaGlidXlhLCBUb2t5byAxNTAtMDAxMywgSmFwYW4iIBoeChYKFAoSCauqu8oUixhgEUujFtyODFNKEgQ06ZqO
恵比寿　宮崎ダイニング　ヒムカテラス,飲食,居酒屋,ダイニング・バー,渋谷区恵比寿西1-20-8コンド恵比寿,03-6416-4966,https://g.co/kgs/GKFHLr,35.646449,139.7065295,ChIJ_0YgLUGLGGARSgQGjmMhvQs
えびす焼魚食堂,飲食,日本料理,その他,渋谷区恵比寿3-1-2エビサンビル101,03-6432-5777,,35.6454213,139.7167583,ChIJl_pcgBOLGGARwT2cLyoDgXk
恵比寿横丁　だるまてんぐ,飲食,居酒屋,居酒屋,渋谷区恵比寿1-7-2オークビル1階,03-3440-1250,,35.6482226,139.7107674,Ejgx6ZqOLCAxLWNoxY1tZS03LTIgRWJpc3UsIFNoaWJ1eWEsIFRva3lvIDE1MC0wMDEzLCBKYXBhbiIgGh4KFgoUChIJ5ykGz0GLGGARC0_jfxeqSQ0SBDHpmo4
恵比寿489,飲食,その他(バー・クラブ・スナックなど),カフェバー,渋谷区恵比寿南2-1-6鳥居ビル5階,070-8470-9256,,35.6458343,139.7070985,Ek5Ub3JpaSBCdWlsZGluZywgNemajiwgMi1jaMWNbWUtMS02IEViaXN1bWluYW1pLCBTaGlidXlhLCBUb2t5byAxNTAtMDAyMiwgSmFwYW4iIBoeChYKFAoSCbFIgtBAixhgESiclY2glLbBEgQ16ZqO
エビスルンバ,飲食,その他(バー・クラブ・スナックなど),バー,渋谷区恵比寿南2-3-3第一恵比寿マンション地下15室,090-4960-2634,,35.6453564,139.7078898,ChIJT0SM9ESLGGAR3adPy0GVR1k
恵比寿和顔,飲食,居酒屋,居酒屋,渋谷区恵比寿南1-2-12,03-3715-5554,,35.6462075,139.7081852,ChIJy5Gx5UCLGGARhnJ-nsaIBu4
EBIZO,飲食,外国料理,その他,渋谷区道玄坂2丁目19-3ライオンズマンション104,03-6416-3105,,35.6590828,139.6963802,Ej0xMDQsIDItY2jFjW1lLTE5LTMgRMWNZ2VuemFrYSwgU2hpYnV5YSwgVG9reW8gMTUwLTAwNDMsIEphcGFuIh8aHQoWChQKEgkRTBn1qYwYYBFwAtim_Zn1thIDMTA0
エビン代々木・北参道店,飲食,外国料理,インド料理,渋谷区千駄ヶ谷4-27-13,03-6432-9973,,35.6808324,139.7042188,ChIJs65wC8eMGGAR0a2-N9jFa34
FFF yoyogipark,飲食,外国料理,無国籍料理,渋谷区富ヶ谷1-2-8スタジオリオネビルB1,090-7261-6852,,35.6697895,139.6895054,ChIJFerHbkvzGGARn_uA-Cn0vNM
eponym coffee,飲食,喫茶店・カフェ,喫茶店・カフェ,渋谷区本町4-18-2黒田屋ハイツ1F,03-6300-5519,,35.6884217,139.68031,ElBKYXBhbiwg44CSMTUxLTAwNzEgVG9reW8sIFNoaWJ1eWEsIEhvbm1hY2hpLCA0LWNoxY1tZeKIkjE4IOm7kueUsOWxi-ODj-OCpOODhCAxZiIeGhwKFgoUChIJCzQoBtjyGGARzLVVOdd7rYkSAjFm
エマラウンジ,飲食,外国料理,イタリア料理,渋谷区道玄坂1-14-9ソシアルビル2F,03-3461-6699,,35.65735069999999,139.6980377,EjwyZiwgMS1jaMWNbWUtMTQtOSBExY1nZW56YWthLCBTaGlidXlhLCBUb2t5byAxNTAtMDA0MywgSmFwYW4iHhocChYKFAoSCQOsaUZWixhgEXyQK9Zs4XOCEgIyZg
MK  snack & bar,飲食,その他(バー・クラブ・スナックなど),バー,渋谷区桜丘町16-8アトラス桜丘ビル2階,080-4132-2056,,35.6564596,139.7009381,ChIJ5wBgrH-LGGARHtDud9vV8QY
Ms Bar oeld,飲食,その他(バー・クラブ・スナックなど),バー,渋谷区上原1-1-23ステイエム代々木公園1階,090-4679-4876,,35.668658,139.6876427,Ejox6ZqOLCAxLWNoxY1tZS0xLTIzIFVlaGFyYSwgU2hpYnV5YSwgVG9reW8gMTUxLTAwNjQsIEphcGFuIiAaHgoWChQKEgnX3pyOS_MYYBEnPCr6XS9bShIEMemajg
LA JUICE&BAR,飲食,その他(バー・クラブ・スナックなど),カフェバー,渋谷区広尾5-1-40プラスリノ広尾3F,080-7509-0612,https://instagram.com/lajuiceandbar?igshid=MzRlODBiNWFlZA==,35.6489304,139.7179004,ChIJz47v7EqLGGAROxoX3gIZu_w
LA17,飲食,その他(バー・クラブ・スナックなど),バー,渋谷区道玄坂1-19-8斉丸道玄坂ビル2階,03-5428-5078,,35.656697,139.695819,El1KYXBhbiwg44CSMTUwLTAwNDMgVG9reW8sIFNoaWJ1eWEsIETFjWdlbnpha2EsIDEtY2jFjW1l4oiSMTniiJLvvJgg5paJ5Li46YGT546E5Z2C44OT44OrIDLpmo4iIBoeChYKFAoSCRGqQudVixhgESE3DujPFHjDEgQy6ZqO
L.C.d.B,飲食,喫茶店・カフェ,喫茶店・カフェ,渋谷区代官山町15-8,03-6873-7602,,35.649977,139.7029143,ChIJT4X6E0WLGGAR72dK0EDqWLg
ELMO+,飲食,外国料理,イタリア料理,渋谷区笹塚1-56-18京王クラウン街笹塚A-2東,03-6300-4362,,35.6737486,139.6675524,ChIJweXSfBfzGGAR2ZXex4EuDjU
円,飲食,その他(バー・クラブ・スナックなど),スナック・パブ・キャバレー,渋谷区幡ヶ谷2-8-5近藤ビル地下1階,03-3374-5571,,35.6779946,139.6772495,Ek5KYXBhbiwg44CSMTUxLTAwNzIgVG9reW8sIFNoaWJ1eWEsIEhhdGFnYXlhLCAyLWNoxY1tZeKIkjjiiJLvvJUg6L-R6Jek44OT44OrIDEiHRobChYKFAoSCb3dXsok8xhgEXCqIRGyNWTJEgEx
遠藤商店,飲食,その他(バー・クラブ・スナックなど),その他,渋谷区代々木3-22-1文化学園,03-3299-2078,,35.6857951,139.6939249,ChIJ3SskcNKMGGARyx8pKjJz2Ww
縁家とりつぎ,飲食,居酒屋,居酒屋,渋谷区元代々木町11-1田中ビル1F,03-3468-5389,,35.6702289,139.6850098,EktKYXBhbiwg44CSMTUxLTAwNjIgVG9reW8sIFNoaWJ1eWEsIE1vdG95b3lvZ2ljaMWNLCAxMeKIku-8kSDnlLDkuK3jg5Pjg6sgMWYiHhocChYKFAoSCR835JZJ8xhgEQzcozC4NB2fEgIxZg
えんらい,飲食,居酒屋,居酒屋,渋谷区渋谷2-8-7青山宮野ビル103,03-6805-0343,https://sakaba.co.jp/,35.6604094,139.7072844,EkZKYXBhbiwg44CSMTUwLTAwMDIgVG9reW8sIFNoaWJ1eWEsIDItY2jFjW1l4oiSOCDpnZLlsbHlrq7ph47jg5Pjg6sgMTAzIh8aHQoWChQKEgnXkDEkX4sYYBHqu8IWbjwkTxIDMTAz
A9,飲食,その他(バー・クラブ・スナックなど),バー,渋谷区西原3-22-14西原水垣ビル1階,03-3481-8089,,35.6708023,139.6821537,Ej4x6ZqOLCAzLWNoxY1tZS0yMi0xNCBOaXNoaWhhcmEsIFNoaWJ1eWEsIFRva3lvIDE1MS0wMDY2LCBKYXBhbiIgGh4KFgoUChIJUTSO4DfzGGARThdgRdkzwTASBDHpmo4
おいちゃん,飲食,居酒屋,居酒屋,渋谷区神山町9-14白樺ビル102,03-6804-8609,,35.6636281,139.6943037,EjYxMDIsIDktMTQgS2FtaXlhbWFjaMWNLCBTaGlidXlhLCBUb2t5byAxNTAtMDA0NywgSmFwYW4iHxodChYKFAoSCSVcLVCsjBhgEYPD9KR5ChdUEgMxMDI
欧風カレー　café de キュリー,飲食,喫茶店・カフェ,喫茶店・カフェ,渋谷区千駄ヶ谷2-33-1,03-3475-9777,,35.6763769,139.7124891,ChIJjdgnMZaMGGAR6QnBUf6_zaA
欧風カレーMURAO,飲食,外国料理,インド料理,渋谷区代々木2-1-1新宿マインズタワーB1,070-5542-0748,,35.6865412,139.6988507,ChIJ70GnKtCMGGARUjRY_BLFFfo
沖縄居酒屋 香の帆,飲食,居酒屋,居酒屋,渋谷区宇田川町10-1パークビル5階,03-6273-9243,,35.6625524,139.6969508,EkRLaWZ1bmUgQmxkZy4sIDXpmo4sIDEwLTEgVWRhZ2F3YWNoxY0sIFNoaWJ1eWEsIFRva3lvIDE1MC0wMDQyLCBKYXBhbiIgGh4KFgoUChIJswvkTamMGGARRbb9xYklRC8SBDXpmo4
オキナワンダイニング島物語,飲食,居酒屋,ダイニング・バー,渋谷区幡ヶ谷2-8-5近藤ビルB1,03-3374-2095,,35.6779946,139.6772495,Ek9KYXBhbiwg44CSMTUxLTAwNzIgVG9reW8sIFNoaWJ1eWEsIEhhdGFnYXlhLCAyLWNoxY1tZeKIkjjiiJLvvJUg6L-R6Jek44OT44OrIGIxIh4aHAoWChQKEgm93V7KJPMYYBFwqiERsjVkyRICYjE
奥渋魚力,飲食,日本料理,日本料理,渋谷区神山町40-4,03-3467-6709,,35.6647343,139.6929223,ChIJKWUYba2MGGARboIOxZ5-O8Y
奥渋谷 もつ焼のんき,飲食,居酒屋,居酒屋,渋谷区神山町4-18フィルトップ神山1F,03-6416-8883,https://next-gf.com/store/,35.6651566,139.6929593,ChIJqWK8b62MGGARBbFlkSKQ6Gs
オクノシブヤ,飲食,喫茶店・カフェ,喫茶店・カフェ,渋谷区神山町7-15ホワイトハイム大嵩 102,03-6804-9889,https://okunoshibuya.ifreagroup.co.jp/,35.6644899,139.6936302,El9KYXBhbiwg44CSMTUwLTAwNDcgVG9reW8sIFNoaWJ1eWEsIEthbWl5YW1hY2jFjSwgN-KIku-8ke-8lSDjg5vjg6_jgqTjg4jjg4_jgqTjg6DlpKfpq5gg5aSnLOW1qSIjGiEKFgoUChIJuyw3CK2MGGAReYiKyyt5V4cSB-Wkpyzltak
aux,飲食,外国料理,無国籍料理,渋谷区上原1-2-3auxビル1f,03-6884-7248,,35.6692064,139.6828422,ChIJ1U6XVUjzGGARzxiKmtwqTGA
OKEI TAPROOM オケタプ,飲食,居酒屋,ビアホール,渋谷区代々木一丁目52-4ベルテ南新宿B1階,03-5309-2346,,35.6834655,139.6994542,EldKYXBhbiwg44CSMTUxLTAwNTMgVG9reW8sIFNoaWJ1eWEsIFlveW9naSwgMS1jaMWNbWXiiJI1MuKIku-8lCDjg5njg6vjg4bljZfmlrDlrr8gYjHpmo4iIRofChYKFAoSCVPahRfPjBhgEdttu_se5U0YEgViMemajg
お好み焼きえん　参宮橋2号店,飲食,ステーキ・焼肉,その他,渋谷区代々木4-5-1参宮橋ダイヤビル110号室,03-4361-9525,http://okonomiyaki-en.com/secondshop/,35.6786046,139.6927129,EjgxMTAsIDQtY2jFjW1lLTUtMSBZb3lvZ2ksIFNoaWJ1eWEsIFRva3lvIDE1MS0wMDUzLCBKYXBhbiIfGh0KFgoUChIJdfD2a8uMGGARWSZcs5T-pLQSAzExMA
お好み焼きえん　幡ヶ谷店,飲食,居酒屋,居酒屋,渋谷区幡ヶ谷2-8-5,03-6258-4597,,35.6779946,139.6772495,ChIJvd1eyiTzGGARcKohEbI1ZMk
お好み焼きえん　初台店,飲食,日本料理,お好み焼き,渋谷区初台1丁目36-1,03-6822-1610,http://hatsudai.okonomiyaki-en.com/,35.6800706,139.6860697,ChIJESSbIDLzGGARsC4ddIxdTko
お好み焼　天現寺亭,飲食,日本料理,お好み焼き,渋谷区広尾5丁目25番6号,03-3444-0538,,35.6477963,139.7214593,ChIJlVCKgxKLGGARI_Vsxk6pSTY
お好み焼き　はち,飲食,日本料理,お好み焼き,渋谷区笹塚1-58-13フィエスタ笹塚5階,03-6300-9876,http://okonomiyaki-hachi.com,35.6737465,139.6664495,EltKYXBhbiwg44CSMTUxLTAwNzMgVG9reW8sIFNoaWJ1eWEsIFNhc2F6dWthLCAxLWNoxY1tZeKIkjU44oiS77yR77yTIOesueWhmuS4readkeODk-ODqyA16ZqOIiAaHgoWChQKEgnLd4LjGfMYYBGIs0W6OGb2FxIENemajg
お好み焼・もんじゃ焼　ええとこ代々木店,飲食,日本料理,お好み焼き,渋谷区千駄ヶ谷5-22-3都営千駄ヶ谷アパート2号棟1階,03-6312-1818,https://yoyogi.eetoko.net/,35.6834215,139.7038627,EjwyLDEsIDUtY2jFjW1lLTIyLTMgU2VuZGFnYXlhLCBTaGlidXlhLCBUb2t5byAxNTEtMDA1MSwgSmFwYW4iHxodChYKFAoSCZuH9IfGjBhgEcSXj0EEc9MVEgMyLDE
おこめ茶屋 米米-めめ-,飲食,日本料理,その他,渋谷区笹塚1-56-18京王クラウン街笹塚,03-6300-5073,,35.6737486,139.6675524,ChIJweXSfBfzGGAR2ZXex4EuDjU
おこめどき,飲食,喫茶店・カフェ,喫茶店・カフェ,渋谷区神宮前5丁目29番10号クリプトメリア神宮前ビル1F,03-6803-8956,,35.6643835,139.7032384,El1KYXBhbiwg44CSMTUwLTAwMDEgVG9reW8sIFNoaWJ1eWEsIEppbmfFq21hZSwgNS1jaMWNbWXiiJIyOeKIku-8ke-8kCDjgq_jg6rjg5fjg4jjg6Hjg6rjgqIgMWYiHhocChYKFAoSCXe6TGamjBhgERDK8rKmnACcEgIxZg
お酒とスパイス カンテラ,飲食,居酒屋,ダイニング・バー,渋谷区幡ヶ谷2-12-18幡ヶ谷中央第二ビル,03-3463-1809,,35.6777517,139.6766813,ChIJ_a2tsyTzGGARvy1LUqsHz3k
押競満寿,飲食,外国料理,その他,渋谷区元代々木町25-5RAJIKUMAR BLD 1F,03-6804-7256,,35.6713795,139.6853944,ChIJw0mhAjbzGGARhk6GX7cXFh4
ＯＺＹ,飲食,外国料理,その他,渋谷区鶯谷町1-2パル代官山1階,080-4669-6097,,35.6536912,139.7049032,Ejgx6ZqOLCAxLTIgVWd1aXN1ZGFuaWNoxY0sIFNoaWJ1eWEsIFRva3lvIDE1MC0wMDMyLCBKYXBhbiIgGh4KFgoUChIJFaAHFFuLGGARHvc1ajiQZfYSBDHpmo4
おすし磯部,飲食,日本料理,寿司,渋谷区元代々木町2-11GSハイム第二代々木公園101,03-6885-7515,,35.6713795,139.6853944,ChIJw0mhAjbzGGARhk6GX7cXFh4
オステリア　しん介,飲食,外国料理,イタリア料理,渋谷区恵比寿1-22-10カマスヤビル　B101号室,03-6447-7709,,35.646432,139.7142945,Ek5HcmFuIER1byBFYmlzdSBJSUksIGIxMDEsIDEtY2jFjW1lLTIyLTEwIEViaXN1LCBTaGlidXlhLCBUb2t5byAxNTAtMDAxMywgSmFwYW4iIBoeChYKFAoSCSmP-NYUixhgEXLXfUD-hCQ6EgRiMTAx
オステリア スミヴィノ,飲食,外国料理,イタリア料理,,03-3372-7709,https://tabelog.com/tokyo/A1318/A131807/13006890/,,,
オステリア　ラ.リベラ,飲食,外国料理,イタリア料理,渋谷区恵比寿南1-18-11西田ビル1F,03-6452-4853,,35.6451067,139.7106401,ElZKYXBhbiwg44CSMTUwLTAwMjIgVG9reW8sIFNoaWJ1eWEsIEViaXN1bWluYW1pLCAxLWNoxY1tZeKIkjE44oiS77yR77yRIOilv-eUsOODk-ODqyAxZiIeGhwKFgoUChIJD3Ed9D-LGGAR8YFsRr-UTxoSAjFm
Osteria Ricco,飲食,外国料理,イタリア料理,渋谷区幡ヶ谷1-33-6ビューハイム幡ヶ谷102,03-5454-0004,,35.6764397,139.6765377,ChIJT3KmQjvzGGAR9VQlK2VICII
お惣菜と煎餅もんじゃさとう,飲食,日本料理,その他,渋谷区富ヶ谷1-9-22AIUビル1階,03-6804-9703,,35.6671825,139.689223,ChIJadbF2UzzGGARneqoEY_Y2-8
O'denbarうまみ代官山店,飲食,日本料理,その他,渋谷区代官山町13-8キャッスルマンション代官山104,03-6416-9209,,35.6504243,139.7048989,ChIJ215l8USLGGARZlBrW8tal5o
おにぎり原宿三丁目たるら,飲食,日本料理,その他,渋谷区神宮前1-21-2 1F,03-6674-0799,,35.6722701,139.7041609,EjsxZiwgMS1jaMWNbWUtMjEtMiBKaW5nxattYWUsIFNoaWJ1eWEsIFRva3lvIDE1MC0wMDAxLCBKYXBhbiIeGhwKFgoUChIJvxbAA7uMGGAR7-HsNraNkJASAjFm
表参道バル　エルヴエロ,飲食,居酒屋,居酒屋,渋谷区神宮前5-50-6サクセス青山ビル2階,03-6427-7197,,35.6630344,139.7100321,ChIJTyhBycGLGGARhkmwNP2nr1Q
オラスイーツ,飲食,喫茶店・カフェ,パーラー,渋谷区笹塚1-60-7サンコーポビル1f,080-5512-6921,,35.6732531,139.6640925,EllKYXBhbiwg44CSMTUxLTAwNzMgVG9reW8sIFNoaWJ1eWEsIFNhc2F6dWthLCAxLWNoxY1tZeKIkjYw4oiS77yXIOOCteODs-OCs-ODvOODneODk-ODqyAxZiIeGhwKFgoUChIJgSDJbRrzGGARt8jLXwOho0cSAjFm
オリエンタルテーブルアマ恵比寿店,飲食,外国料理,東南アジア料理,渋谷区恵比寿1-4-1恵比寿ア-バンハウス104,03-5420-0557,,35.6476642,139.7116013,El9KYXBhbiwg44CSMTUwLTAwMTMgVG9reW8sIFNoaWJ1eWEsIEViaXN1LCAxLWNoxY1tZeKIkjTiiJLvvJEg5oG15q-U5a-_44Ki44O844OQ44Oz44OP44Km44K5IDEwNCIfGh0KFgoUChIJQ38fKkCLGGARwftEw1XNn2YSAzEwNA
オリエンタルテーブルアマ代々木店,飲食,外国料理,東南アジア料理,渋谷区代々木1-32-12パリス　ビル3階,03-3374-3599,,35.68265299999999,139.7020965,Ejsz6ZqOLCAxLWNoxY1tZS0zMi0xMiBZb3lvZ2ksIFNoaWJ1eWEsIFRva3lvIDE1MS0wMDUzLCBKYXBhbiIgGh4KFgoUChIJM6YmEMaMGGARtcVS4XJBA1QSBDPpmo4
お料理Miee,飲食,日本料理,小料理,渋谷区千駄ヶ谷3-3-3エグゼクティブ原宿B1-C,03-6434-9566,,35.6766453,139.706159,EmFKYXBhbiwg44CSMTUxLTAwNTEgVG9reW8sIFNoaWJ1eWEsIFNlbmRhZ2F5YSwgMy1jaMWNbWXiiJIz4oiS77yTIOOCqOOCsOOCvOOCr-ODhuOCo-ODluWOn-WuvyBiMSxjIiAaHgoWChQKEgmB_19JuYwYYBGMh86wulNU0RIEYjEsYw
俺の炉ばた恵比寿,飲食,外国料理,イタリア料理,渋谷区恵比寿西一丁目7番12号MKTビル 2F,03-6416-3991,,35.6479137,139.7085044,ElFKYXBhbiwg44CSMTUwLTAwMjEgVG9reW8sIFNoaWJ1eWEsIEViaXN1bmlzaGksIDEtY2jFjW1l4oiSN-KIku-8ke-8kiBNS1Tjg5Pjg6sgMmYiHhocChYKFAoSCQneJA1BixhgESHUEMff0zhHEgIyZg
音楽茶房Buddy-Buddy,飲食,その他(バー・クラブ・スナックなど),カフェバー,渋谷区本町1-58-6木下ビル　1F,03-6300-6033,,35.6819165,139.6821144,ElBKYXBhbiwg44CSMTUxLTAwNzEgVG9reW8sIFNoaWJ1eWEsIEhvbm1hY2hpLCAxLWNoxY1tZeKIkjU44oiS77yWIOacqOS4i-ODk-ODqyAxZiIeGhwKFgoUChIJTWINny_zGGARxLjCPSuG-uISAjFm
オンザヒル,飲食,外国料理,イタリア料理,渋谷区恵比寿西2-15-9代官山フラット一階,03-6455-0719,,35.6500916,139.7055673,El9KYXBhbiwg44CSMTUwLTAwMjEgVG9reW8sIFNoaWJ1eWEsIEViaXN1bmlzaGksIDItY2jFjW1l4oiSMTXiiJLvvJkg5Luj5a6Y5bGx44OV44Op44OD44OIIOS4gOmajiIiGiAKFgoUChIJ18TLY0SLGGARWWKqBgSQbSUSBuS4gOmajg
On The Wine,飲食,外国料理,イタリア料理,渋谷区桜丘町30-9桜丘芳和ビルB1,03-6416-5673,,35.6551723,139.698123,ElJKYXBhbiwg44CSMTUwLTAwMzEgVG9reW8sIFNoaWJ1eWEsIFNha3VyYWdhb2thY2jFjSwgMzDiiJLvvJkg5qGc5LiY6Iqz5ZKM44OT44OrIGIxIh4aHAoWChQKEgk3_8XCVosYYBHt65WhAPemlBICYjE
ONZS,飲食,外国料理,フランス料理,渋谷区猿楽町2-14プラスリノ猿楽町3F,03-6712-7041,https://onzs-shibuya.com/,35.6534337,139.704869,Ek5KYXBhbiwg44CSMTUwLTAwMzMgVG9reW8sIFNoaWJ1eWEsIFNhcnVnYWt1Y2jFjSwgMuKIku-8ke-8lCDjg4rjgqzjgqrjg5Pjg6sgM2YiHhocChYKFAoSCUkF_RVbixhgEexjXeAkYkzLEgIzZg
ONZE,飲食,居酒屋,居酒屋,渋谷区笹塚3-19-2,080-1178-6035,,35.6773244,139.6669645,ChIJKTULPxnzGGARy8N_euPLHRw
穏田珈琲,飲食,喫茶店・カフェ,喫茶店・カフェ,渋谷区神宮前4-13-2,03-6434-0460,,35.6676526,139.7097144,ChIJUehLj6GMGGARQqAD1eSY28g
オーガニック鮨大内,飲食,日本料理,寿司,渋谷区渋谷2丁目8-4佐野ビル1F,03-3407-3543,,35.6604945,139.7075071,Ei8xZiwgMi1jaMWNbWUtOC00IFNoaWJ1eWEsIFRva3lvIDE1MC0wMDAyLCBKYXBhbiIeGhwKFgoUChIJy7LCI1-LGGARPLC9EMU9s-YSAjFm
Ocho Taqueria Mexican オーチョ タケリア メキシカン,飲食,外国料理,その他,渋谷区神宮前2丁目3-30 B1F第2竹上ビル,03-3470-0308,https://www.instagram.com/ocho_taqueria_mexican/,35.6743055,139.71278,EkDnq7ks5LiKLCAyLWNoxY1tZS0zLTMwIEppbmfFq21hZSwgU2hpYnV5YSwgVG9reW8gMTUwLTAwMDEsIEphcGFuIiMaIQoWChQKEglRObryl4wYYBHaEsL0wRK1gRIH56u5LOS4ig
オーツー,飲食,その他(バー・クラブ・スナックなど),バー,渋谷区幡ヶ谷2-12-17清水荘1F-A,03-4296-3960,,35.6780271,139.6769206,Ej0xZixhLCAyLWNoxY1tZS0xMi0xNyBIYXRhZ2F5YSwgU2hpYnV5YSwgVG9reW8gMTUxLTAwNzIsIEphcGFuIiAaHgoWChQKEgl7DIS2JPMYYBHrQ1JoXt8qFxIEMWYsYQ
オー・ペシェ・グルマン,飲食,外国料理,フランス料理,渋谷区幡ヶ谷2-24-2須原屋ビル1階,03-6276-6332,http://instagram.com/aupechegourmand.hatagaya,35.676135,139.6722156,ElVKYXBhbiwg44CSMTUxLTAwNzIgVG9reW8sIFNoaWJ1eWEsIEhhdGFnYXlhLCAyLWNoxY1tZeKIkjI04oiS77ySIOmgiOWOn-Wxi-ODk-ODqyAx6ZqOIiAaHgoWChQKEgmPVXrJIvMYYBHb93F4gwHrKBIEMemajg
海,飲食,居酒屋,居酒屋,渋谷区笹塚2-16-4アロービル101,03-3375-2283,,35.6743115,139.6659901,ChIJy4ub8xnzGGAR-w08R4M34BU
海月,飲食,日本料理,その他,渋谷区渋谷2-2-4アルコーブ青山204,03-3486-5778,,35.6605322,139.7086596,ChIJ__8v_F6LGGAReG_7Mq3EMZQ
海鮮処向井,飲食,日本料理,日本料理,渋谷区神泉町15-61F,080-7652-6625,,35.656833,139.6927328,ChIJuwpeoKqMGGARElamYte8Bks
海鮮ワイン酒房　VINDUSTRY,飲食,外国料理,イタリア料理,渋谷区神山町4-18フィルトップ神山　2F,03-6804-7034,https://m.facebook.com/vindustryshibuya/,35.6651566,139.6929593,ChIJqWK8b62MGGARBbFlkSKQ6Gs
カイトバル,飲食,外国料理,イタリア料理,渋谷区恵比寿西1-7-13スウィングビル1F,03-6416-9930,,35.6479982,139.7084149,ChIJ3RjFNcCLGGARUTsFHU2Dbuc
Counter Sharing imantokoro,飲食,その他(バー・クラブ・スナックなど),バー,渋谷区宇田川町37-15ARISTO渋谷 Le Comptoir 内,090-3662-3924,https://www.instagram.com/imantokoro/,35.662569,139.6951395,ChIJ7cZHD5yNGGARv1H-q60NKoE
隠れ酒場　円空,飲食,居酒屋,居酒屋,渋谷区道玄坂1-15-7アネックスサクマ201,03-6416-5290,,35.6569686,139.6975232,EktBbm5leCBTYWt1bWEsIDIwMSwgMS1jaMWNbWUtMTUtNyBExY1nZW56YWthLCBTaGlidXlhLCBUb2t5byAxNTAtMDA0MywgSmFwYW4iHxodChYKFAoSCU3GDEJWixhgESgKQqPXLY1UEgMyMDE
カジュアル日本酒バー94,飲食,居酒屋,居酒屋,渋谷区南平台町1-6,03-6416-3993,,35.6555642,139.6969425,ChIJVaVCj1aLGGARGE51_NpJA2Y
カタネカフェ,飲食,喫茶店・カフェ,喫茶店・カフェ,渋谷区西原1-7-5,03-3466-9834,,35.6736994,139.6822117,ChIJX7UdbTfzGGARdYOkUi7Fz0E
カタラタス,飲食,その他(バー・クラブ・スナックなど),その他,渋谷区桜丘町16-14ドルチェ渋谷B202,03-3461-6615,,35.65673770000001,139.7013209,EkpEb2xjZSBTaGlidXlhLCBiMjAyLCAxNi0xNCBTYWt1cmFnYW9rYWNoxY0sIFNoaWJ1eWEsIFRva3lvIDE1MC0wMDMxLCBKYXBhbiIgGh4KFgoUChIJ96fFYVeLGGARS1QRihsqiVgSBGIyMDI
割烹季誠,飲食,日本料理,日本料理,渋谷区幡ヶ谷2-25-3アーバン幡ヶ谷1F,03-6383-3639,https://www.instagram.com/kappou.kise?igsh=cnR4azJtN2xrdHlz&utm_source=qr,35.6760086,139.6717861,EllKYXBhbiwg44CSMTUxLTAwNzIgVG9reW8sIFNoaWJ1eWEsIEhhdGFnYXlhLCAyLWNoxY1tZeKIkjI14oiS77yTIOOCouODvOODkOODs-W5oeODtuiwtyAxZiIeGhwKFgoUChIJK3vstiLzGGAR351dSAN-8wwSAjFm
かつお食堂,飲食,日本料理,その他,渋谷区鶯谷町7-12B1,03-6877-5324,,35.6528051,139.7019868,ChIJgwj0j1qLGGARa3FA6Lho-eQ
かなた,飲食,居酒屋,居酒屋,渋谷区宇田川町31-9ハナテイビル 6階,050-3467-7019,,35.6612459,139.6979749,ChIJkcBaCamMGGARp8mHuq09FzM
カフェアンソロジア,飲食,その他(バー・クラブ・スナックなど),カフェバー,渋谷区富ヶ谷1-12-7田村ビル101,03-3485-7865,,35.66727729999999,139.6919959,EmNKYXBhbiwg44CSMTUxLTAwNjMgVG9reW8sIFNoaWJ1eWEsIFRvbWlnYXlhLCAxLWNoxY1tZeKIkjEy4oiS77yXIOOCqOOCpOODiOODkOOCpOOCqOOCpOODgeODk-ODqyAxMDEiHxodChYKFAoSCTFODNuyjBhgEdtGI0UREshYEgMxMDE
Cafe1008,飲食,喫茶店・カフェ,喫茶店・カフェ,渋谷区神宮前1-1-10SCC千駄ヶ谷コミュニティセンター内,080-4078-9273,,35.6740783,139.7066542,ChIJj0lYJAeNGGARIrf218hsPEE
Cafe＆Bar1985,飲食,喫茶店・カフェ,喫茶店・カフェ,渋谷区道玄坂2-22-6CREA道玄坂1F,03-6427-0551,,35.6596288,139.6956206,EjwxZiwgMi1jaMWNbWUtMjItMiBExY1nZW56YWthLCBTaGlidXlhLCBUb2t5byAxNTAtMDA0MywgSmFwYW4iHhocChYKFAoSCcNvIC6qjBhgETZNvulvCTGIEgIxZg
Cafe&bar The4th EBISU,飲食,その他(バー・クラブ・スナックなど),バー,渋谷区恵比寿南2-3-12je1ビル2F,03-5724-3409,,35.6454367,139.7075718,ChIJAQAAwUCLGGARO9l2ntL-EYM
Cafe＆Bar　753～nagomi～,飲食,その他(バー・クラブ・スナックなど),バー,渋谷区笹塚2-14-6ディアレストケイオーB1F,03-3376-5555,,35.67454530000001,139.6668445,ChIJqbWA6hnzGGARiYGu1fj5GkI
カフェアンドバーニコ,飲食,その他(バー・クラブ・スナックなど),カフェバー,渋谷区千駄ヶ谷4-29-12北参道ダイヤモンドパレス106,03-6384-5957,,35.6810394,139.7038643,Em1KYXBhbiwg44CSMTUxLTAwNTEgVG9reW8sIFNoaWJ1eWEsIFNlbmRhZ2F5YSwgNC1jaMWNbWXiiJIyOeKIku-8ke-8kiDljJflj4LpgZPjg4DjgqTjg6Tjg6Ljg7Pjg4njg5Hjg6zjgrkgMTA2Ih8aHQoWChQKEgkfzZGnx4wYYBFbyPGHRHcp4hIDMTA2
Cafe and Bar Margarita,飲食,その他(バー・クラブ・スナックなど),カフェバー,渋谷区幡ヶ谷2-5-4セイジョービル2F,03-6276-2217,https://www.instagram.com/takepal_margarita/?hl=ja,35.6785109,139.6776782,EjkyZiwgMi1jaMWNbWUtNS00IEhhdGFnYXlhLCBTaGlidXlhLCBUb2t5byAxNTEtMDA3MiwgSmFwYW4iHhocChYKFAoSCf0CxM8k8xhgETawRTTLgQMGEgIyZg
cafe＆Bar Rooster,飲食,その他(バー・クラブ・スナックなど),バー,渋谷区恵比寿南2-2-1込山ビルB1,03-3760-3909,http://www.ebisu-rooster.com,35.6459098,139.7075219,ChIJ113C3ECLGGARZBTY5-tgGEg
cafe&diningポポラーレ,飲食,外国料理,イタリア料理,渋谷区本町3-44-2カーサS1階,03-5371-3557,,35.6878898,139.681534,ElNKYXBhbiwg44CSMTUxLTAwNzEgVG9reW8sIFNoaWJ1eWEsIEhvbm1hY2hpLCAzLWNoxY1tZeKIkjQ04oiS77ySIO-8s-OCq-ODvOOCtSBzMemajiIhGh8KFgoUChIJW837ESjzGGARLHqtwvexzV4SBXMx6ZqO
Cafe tomarigi,飲食,喫茶店・カフェ,喫茶店・カフェ,渋谷区大山町46番12号THEONETHIRD大山町401号室,080-4530-0707,,35.6684704,139.6778581,EjU0MDEsIDQ2LTEyIMWMeWFtYWNoxY0sIFNoaWJ1eWEsIFRva3lvIDE1MS0wMDY1LCBKYXBhbiIfGh0KFgoUChIJ02LgekfzGGAR06CAxQu1bbQSAzQwMQ
カフェ・ド・チャコ,飲食,喫茶店・カフェ,喫茶店・カフェ,渋谷区恵比寿1-33-10タキセビル1階,03-5860-2110,,35.6466192,139.7163693,ElJKYXBhbiwg44CSMTUwLTAwMTMgVG9reW8sIFNoaWJ1eWEsIEViaXN1LCAxLWNoxY1tZeKIkjMz4oiS77yT77yTIOa7neeArOODk-ODqyAx6ZqOIiAaHgoWChQKEgmPGCqiFIsYYBFtYKTiABciuRIEMemajg
カフェナイン,飲食,喫茶店・カフェ,喫茶店・カフェ,渋谷区代々木5-38-6ガーリックビル1階,03-6875-0353,,35.6711509,139.6901104,EllKYXBhbiwg44CSMTUxLTAwNTMgVG9reW8sIFNoaWJ1eWEsIFlveW9naSwgNS1jaMWNbWXiiJIzOOKIku-8liDjgqzjg7zjg6rjg4Pjgq_jg5Pjg6sgMemajiIgGh4KFgoUChIJV_--I0vzGGARvQs5WtPP_-cSBDHpmo4
cafeNABE,飲食,喫茶店・カフェ,喫茶店・カフェ,渋谷区本町2-39-1eフラット1f,03-6276-8333,,35.6841176,139.6828422,ChIJ_91mOS_zGGARTptFDiY6Fxw
cafe nook,飲食,喫茶店・カフェ,喫茶店・カフェ,渋谷区代々木1-37-3岩崎ビル地下1階,03-3373-7009,https://www.facebook.com/yoyogi.cafenook,35.6837339,139.7010394,Ek1KYXBhbiwg44CSMTUxLTAwNTMgVG9reW8sIFNoaWJ1eWEsIFlveW9naSwgMS1jaMWNbWXiiJIzN-KIku-8kyDlsqnltI7jg5Pjg6sgMSIdGhsKFgoUChIJHdYcXM-MGGARtxdnOoahpFESATE
cafebar home S,飲食,その他(バー・クラブ・スナックなど),カフェバー,渋谷区恵比寿南1-7-8ニューライフ恵比寿204,03-6303-2916,,35.6462101,139.7097661,ChIJIxy_QkCLGGARVSAOWHGKgVc
cafebar LIL,飲食,喫茶店・カフェ,喫茶店・カフェ,渋谷区代々木5-67-8MAKITAKIビル3階,03-5738-8162,,35.670704,139.690341,Ej0z6ZqOLCA1LWNoxY1tZS02Ny01LTY3IFlveW9naSwgU2hpYnV5YSwgVG9reW8gMTUxLTAwNTMsIEphcGFuIiAaHgoWChQKEgljg6A5S_MYYBFkA9tppFuuxhIEM-majg
カフェフラッティーザスタンダードトウキョウ,飲食,喫茶店・カフェ,喫茶店・カフェ,渋谷区千駄ヶ谷1-21-4かがみビル1階,03-6271-4568,,35.6786904,139.7095717,ElZKYXBhbiwg44CSMTUxLTAwNTEgVG9reW8sIFNoaWJ1eWEsIFNlbmRhZ2F5YSwgMS1jaMWNbWXiiJIyMeKIku-8lCDjgYvjgYzjgb_jg5Pjg6sgMemajiIgGh4KFgoUChIJZ-vYWr6MGGARqg19HEgO4nUSBDHpmo4
Cafe ミカエル,飲食,喫茶店・カフェ,喫茶店・カフェ,渋谷区代々木5-55-5 2F「隠れのみ処諸星」内,090-8047-8480,,35.677889,139.6918169,EjgyZiwgNS1jaMWNbWUtNTUtNSBZb3lvZ2ksIFNoaWJ1eWEsIFRva3lvIDE1MS0wMDUzLCBKYXBhbiIeGhwKFgoUChIJveXiN8uMGGAR_Y_gA2EbihcSAjJm
Cafe Midori,飲食,喫茶店・カフェ,喫茶店・カフェ,渋谷区神宮前2-3-28,090-9840-1225,,35.6743962,139.7130476,ChIJpZqZjZeMGGARr7CCAYwAon4
カフェRaiRai,飲食,喫茶店・カフェ,喫茶店・カフェ,渋谷区西原2-28-1,03-3466-5503,,35.6755488,139.6779695,ChIJneHSrjvzGGARrf9xomvJDEw
カフェル・ポミエ,飲食,喫茶店・カフェ,喫茶店・カフェ,渋谷区神宮前5-8-2日本看護協会ビル2階,03-6427-9193,,35.6668998,139.7079318,Ejwy6ZqOLCA1LWNoxY1tZS04LTIgSmluZ8WrbWFlLCBTaGlidXlhLCBUb2t5byAxNTAtMDAwMSwgSmFwYW4iIBoeChYKFAoSCamo2mahjBhgEV-vTbaVaJP7EgQy6ZqO
カフェ・レストラン泥人形,飲食,喫茶店・カフェ,喫茶店・カフェ,渋谷区千駄ヶ谷4-20-2民主青年会館　B1,03-3404-3646,,35.6810482,139.7073823,EldKYXBhbiwg44CSMTUxLTAwNTEgVG9reW8sIFNoaWJ1eWEsIFNlbmRhZ2F5YSwgNC1jaMWNbWXiiJIyMOKIku-8kiDnrKzvvJLjg5vjg6rjg5Pjg6sgYjEiHhocChYKFAoSCWucsabAjBhgEeb1NRN0_N4aEgJiMQ
カフェフラッティーザスタンド,飲食,喫茶店・カフェ,喫茶店・カフェ,渋谷区千駄ヶ谷3-33-6101,03-6447-0697,,35.6791144,139.7090103,ChIJa-VXVb6MGGARLD9ICpuY7Eg
株式会社ALAWA,飲食,その他(バー・クラブ・スナックなど),バー,渋谷区恵比寿4-9-1武川ビル2階,080-1166-2935,,35.6460794,139.7125339,Ek5KYXBhbiwg44CSMTUwLTAwMTMgVG9reW8sIFNoaWJ1eWEsIEViaXN1LCA0LWNoxY1tZeKIkjniiJLvvJEg5q2m5bed44OT44OrIDLpmo4iIBoeChYKFAoSCf3SXksVixhgEbBKuBPMaZ55EgQy6ZqO
株式会社宇治園裏参道ガーデン店,飲食,喫茶店・カフェ,喫茶店・カフェ,渋谷区神宮前4-15-2裏参道ガーデン1F壱番,070-4448-0217,,35.668557,139.710839,ChIJDVccHaKMGGAR4ogtmzCN6wg
株式会社nsp,飲食,居酒屋,居酒屋,渋谷区宇田川町37-14塚田ビル2階,03-6416-8806,,35.6625495,139.6952257,Ejcy6ZqOLCAzNy0xNCBVZGFnYXdhY2jFjSwgU2hpYnV5YSwgVG9reW8gMTUwLTAwNDIsIEphcGFuIiAaHgoWChQKEgn_bTUMrIwYYBG8bFxSHi7XoBIEMumajg
株式会社太陽食堂,飲食,居酒屋,居酒屋,渋谷区幡ヶ谷2-8-10リッシェル幡ヶ谷103号,03-3374-7350,,35.6775651,139.6772203,EjsxMDMsIDItY2jFjW1lLTgtMTAgSGF0YWdheWEsIFNoaWJ1eWEsIFRva3lvIDE1MS0wMDcyLCBKYXBhbiIfGh0KFgoUChIJEfCgSjvzGGARVzEJYWoHXr4SAzEwMw
株式会社花菱,飲食,日本料理,うなぎ,渋谷区道玄坂2-16-7花菱ビル1階,03-3461-2622,,35.6583806,139.6966516,Ek9IYW5hYmlzaGkgQmxkZy4sIDHpmo4sIDItY2jFjW1lLTE2LTcgRMWNZ2VuemFrYSwgU2hpYnV5YSwgVG9reW8gMTUwLTAwNDMsIEphcGFuIiAaHgoWChQKEgm7wnP8qYwYYBE8JZXbN5hfdxIEMemajg
株式会社　松木家,飲食,日本料理,その他,渋谷区円山町6-8松木家ビル1階　　,03-3461-2651,,35.657231,139.6946818,Ek1KYXBhbiwg44CSMTUwLTAwNDQgVG9reW8sIFNoaWJ1eWEsIE1hcnV5YW1hY2jFjSwgNuKIku-8mCDmnb7mnKjlrrbjg5Pjg6sgMemajiIgGh4KFgoUChIJ-bIlilWLGGARjcNYkKIV18ISBDHpmo4
Cabotte,飲食,外国料理,フランス料理,渋谷区桜丘町12-5桜丘Kビル　地下1階,03-3462-7790,,35.6542838,139.7012488,Ek5KYXBhbiwg44CSMTUwLTAwMzEgVG9reW8sIFNoaWJ1eWEsIFNha3VyYWdhb2thY2jFjSwgMTLiiJLvvJUg5qGc5LiY77yr44OT44OrIDEiHRobChYKFAoSCXdvN6BQixhgEaTAVgf8O0eJEgEx
comecafe  Osamu bar,飲食,喫茶店・カフェ,喫茶店・カフェ,渋谷区鶯谷町8-10代官山トゥエルブ2 2F-A,090-6538-138,,35.6532078,139.703882,EjkyLDJmLCA4LTEwIFVndWlzdWRhbmljaMWNLCBTaGlidXlhLCBUb2t5byAxNTAtMDAzMiwgSmFwYW4iIBoeChYKFAoSCbds4-FaixhgESUoVQU6U9WuEgQyLDJm
かもん,飲食,その他(バー・クラブ・スナックなど),バー,渋谷区上原1-35-9,080-6776-1122,,35.6696173,139.6814352,ChIJU3VRDkjzGGAR7gDkYHHQPh0
粥麺楽屋喜々,飲食,外国料理,中国料理,渋谷区神宮前2-6-6秀和外苑レジデンス,03-5474-6691,https://tabelog.com/tokyo/A1306/A130603/13020662/,35.6726964,139.7123195,ChIJL0XasP6NGGARnDHD062BOno
唐揚げ餃子忠吉,飲食,居酒屋,居酒屋,渋谷区本町3丁目8番10号,03-6276-7779,,35.6890199,139.6832908,ChIJf9y2LSjzGGARPDcTXZd_R5M
カラオケスナックМ,飲食,その他(バー・クラブ・スナックなど),スナック・パブ・キャバレー,渋谷区神山町9-14白樺ビル103,070-4531-0717,,35.6636281,139.6943037,EjYxMDMsIDktMTQgS2FtaXlhbWFjaMWNLCBTaGlidXlhLCBUb2t5byAxNTAtMDA0NywgSmFwYW4iHxodChYKFAoSCSVcLVCsjBhgEYPD9KR5ChdUEgMxMDM
Carasawagi Bar,飲食,その他(バー・クラブ・スナックなど),バー,渋谷区笹塚1-57-10笹塚駅前ビル2F,03-5388-9785,https://r.gnavi.co.jp/8grmdk8y0000/?sc_lid=smp_top_01,35.6740114,139.6669843,EjsyZiwgMS1jaMWNbWUtNTctMTAgU2FzYXp1a2EsIFNoaWJ1eWEsIFRva3lvIDE1MS0wMDczLCBKYXBhbiIeGhwKFgoUChIJOQkO3hnzGGARXb4De34WEqYSAjJm
CALLASTOKYO,飲食,その他(バー・クラブ・スナックなど),カフェバー,渋谷区富ヶ谷2-45-21,070-8354-8282,,35.6676595,139.6875779,ChIJx5f1bUzzGGAR5Dn3PEJahfQ
辛トォンデジ,飲食,外国料理,韓国料理,渋谷区道玄坂1-20-12MT道玄坂ビル1F,03-3464-6653,,35.65769969999999,139.6991605,ChIJFeuytleLGGARRIlzIIuHbk4
カリヒオ,飲食,外国料理,インド料理,渋谷区幡ヶ谷2-48-7細谷荘1F,03-5371-0125,,35.6794782,139.6768527,Ek1KYXBhbiwg44CSMTUxLTAwNzIgVG9reW8sIFNoaWJ1eWEsIEhhdGFnYXlhLCAyLWNoxY1tZeKIkjQ44oiS77yYIOe0sOiwt-iNmCAxZiIeGhwKFgoUChIJjQTojSTzGGARQ5gTbGZvUt0SAjFm
カリビアンレストランサニーカフェ,飲食,外国料理,その他,渋谷区広尾1-6-6第一三輪ビル102,03-6456-2217,,35.6485277,139.7145808,ElNKYXBhbiwg44CSMTUwLTAwMTIgVG9reW8sIFNoaWJ1eWEsIEhpcm9vLCAxLWNoxY1tZeKIkjbiiJLvvJYg56ys77yR5LiJ6Lyq44OT44OrIDEwMiIfGh0KFgoUChIJC2YHG2uLGGAR1Z440S4MsXkSAzEwMg
CARIMELLO,飲食,外国料理,その他,渋谷区富ヶ谷1-8-7飯島ビル1階,03-5453-8518,,35.6685907,139.6908146,ElFKYXBhbiwg44CSMTUxLTAwNjMgVG9reW8sIFNoaWJ1eWEsIFRvbWlnYXlhLCAxLWNoxY1tZeKIkjjiiJLvvJcg6aOv5bO244OT44OrIDHpmo4iIBoeChYKFAoSCUcJobZM8xhgEVwa80YzNrDwEgQx6ZqO
CURRY&SPICE 青い鳥,飲食,外国料理,その他,渋谷区幡ヶ谷2丁目47-12ハウス満盛 2F,03-6276-0082,,35.6792088,139.6770851,ChIJ1b-ulCTzGGARf0Egk_2Ij1A
かわど,飲食,喫茶店・カフェ,喫茶店・カフェ,渋谷区恵比寿1-8-14大黒ビル1F 恵比寿ストア内 かわど,090-2036-4639,,35.6477087,139.7099257,ChIJ8cjMtkGLGGAR-n8M1hFE_l4
韓国家庭料理アシア,飲食,外国料理,韓国料理,渋谷区代々木4-5-1ダイヤビル109,03-5371-2005,,35.6786046,139.6927129,EjgxMDksIDQtY2jFjW1lLTUtMSBZb3lvZ2ksIFNoaWJ1eWEsIFRva3lvIDE1MS0wMDUzLCBKYXBhbiIfGh0KFgoUChIJdfD2a8uMGGARWSZcs5T-pLQSAzEwOQ
韓国語で話せBAR,飲食,その他(バー・クラブ・スナックなど),バー,渋谷区猿楽町2-14プラスリノ猿楽町4階,090-1976-1000,,35.6534337,139.704869,ElBKYXBhbiwg44CSMTUwLTAwMzMgVG9reW8sIFNoaWJ1eWEsIFNhcnVnYWt1Y2jFjSwgMuKIku-8ke-8lCDjg4rjgqzjgqrjg5Pjg6sgNOmajiIgGh4KFgoUChIJSQX9FVuLGGAR7GNd4CRiTMsSBDTpmo4
韓国食堂トォンデジ,飲食,外国料理,韓国料理,渋谷区桜丘町16番地7鈴木ビル1F,03-3770-2939,,35.6564106,139.7010796,EkxKYXBhbiwg44CSMTUwLTAwMzEgVG9reW8sIFNoaWJ1eWEsIFNha3VyYWdhb2thY2jFjSwgMTbiiJLvvJcg6Yi05pyo44OT44OrIDFmIh4aHAoWChQKEgnRYw5eV4sYYBEAQeV249elKxICMWY
韓国料理らーたん,飲食,外国料理,韓国料理,渋谷区笹塚1-58-13フィエスタ笹塚3F,03-5304-4884,,35.6737465,139.6664495,EllKYXBhbiwg44CSMTUxLTAwNzMgVG9reW8sIFNoaWJ1eWEsIFNhc2F6dWthLCAxLWNoxY1tZeKIkjU44oiS77yR77yTIOesueWhmuS4readkeODk-ODqyAzZiIeGhwKFgoUChIJy3eC4xnzGGARiLNFujhm9hcSAjNm
CANTINA REGALO,飲食,外国料理,イタリア料理,渋谷区代々木4-6-2宍戸ビルB1F,03-6383-3384,,35.6783509,139.6929474,EkFQcm94aW1hLCBiMWYsIDQtY2jFjW1lLTYtMiBZb3lvZ2ksIFNoaWJ1eWEsIFRva3lvIDE1MS0wMDUzLCBKYXBhbiIfGh0KFgoUChIJQzDpEsuMGGARIVz3pWd6KmcSA2IxZg
カンパイ!BUTTON,飲食,その他(バー・クラブ・スナックなど),カフェバー,渋谷区笹塚1-57-10笹塚駅前ビル2F WAIGAYA内,03-6680-7371,https://instagram.com/canpai_button?igshid=YmMyMTA2M2Y,35.6740358,139.6669007,ChIJjc_13RnzGGARO3IwULdeva0
カーサベッラ,飲食,外国料理,イタリア料理,渋谷区神宮前2-3-30第二竹上ビルB1,03-6804-1495,http://www.hostariacasabella.com/,35.6743055,139.71278,EkDnq7ks5LiKLCAyLWNoxY1tZS0zLTMwIEppbmfFq21hZSwgU2hpYnV5YSwgVG9reW8gMTUwLTAwMDEsIEphcGFuIiMaIQoWChQKEglRObryl4wYYBHaEsL0wRK1gRIH56u5LOS4ig
カーニャパッソ,飲食,居酒屋,ダイニング・バー,渋谷区代々木1-32-9吉川代々木ビルB1F,070-1537-7237,,35.6820593,139.7024256,ElJKYXBhbiwg44CSMTUxLTAwNTMgVG9reW8sIFNoaWJ1eWEsIFlveW9naSwgMS1jaMWNbWXiiJIzMeKIku-8kSDku6PjgIXmnKjjg5Pjg6sgYjFmIh8aHQoWChQKEgkxsPo-xowYYBED-gZdIwjChRIDYjFm
コズミックダイニング・GAILA,飲食,外国料理,無国籍料理,渋谷区初台1-36-1,03-5388-8437,,35.6800706,139.6860697,ChIJESSbIDLzGGARsC4ddIxdTko
GatemoTabum　ガテモタブン,飲食,外国料理,その他,渋谷区上原1-22-5,03-3466-9590,https://www.gatemotabum.com/,35.6684619,139.682573,ChIJmb4L9kjzGGARLPMqwlWB7WM
GATO,飲食,喫茶店・カフェ,喫茶店・カフェ,渋谷区本町6-38-3松島ビル1階,080-3272-3820,,35.6807651,139.6762427,ElJKYXBhbiwg44CSMTUxLTAwNzEgVG9reW8sIFNoaWJ1eWEsIEhvbm1hY2hpLCA2LWNoxY1tZeKIkjM44oiS77yTIOadvuWztuODk-ODqyAx6ZqOIiAaHgoWChQKEgllf3RzJPMYYBHxRYB1W9W29BIEMemajg
がらり千駄ヶ谷店,飲食,居酒屋,居酒屋,渋谷区千駄ヶ谷2-6-4がらり千駄ヶ谷店,03-5786-1820,,35.6751071,139.7091009,ChIJpTVrrb2MGGARLi_dBGo9kNc
元祖うな鐡,飲食,日本料理,うなぎ,渋谷区道玄坂道玄坂2-8-8コスモ渋谷館1階,03-3461-9024,http://www.unatetsu.com,35.6584695,139.6984936,ChIJd0Y1KVaLGGARIJi2R9VCb5U
元祖シュウマイ酒場　野田焼売店,飲食,居酒屋,居酒屋,渋谷区千駄ヶ谷5-18-1,050-5456-1908,,35.682985,139.7028646,ChIJTer1bcaMGGAR1FVQMmOov3w
樹安亭,飲食,喫茶店・カフェ,喫茶店・カフェ,渋谷区千駄ヶ谷5-21-2松友ビル　1F,090-4919-0173,,35.6833633,139.7043254,ElFKYXBhbiwg44CSMTUxLTAwNTEgVG9reW8sIFNoaWJ1eWEsIFNlbmRhZ2F5YSwgNS1jaMWNbWXiiJIyMeKIku-8kiDmnb7lj4vjg5Pjg6sgMWYiHhocChYKFAoSCYchmI7GjBhgEasFXbRsEsdQEgIxZg
キガルニワショク弾,飲食,居酒屋,居酒屋,渋谷区上原1-33-12ちとせビル202,03-6804-8935,,35.6692072,139.6807486,ElVKYXBhbiwg44CSMTUxLTAwNjQgVG9reW8sIFNoaWJ1eWEsIFVlaGFyYSwgMS1jaMWNbWXiiJIzM-KIku-8ke-8kiDjgaHjgajjgZvjg5Pjg6sgMjAyIh8aHQoWChQKEgmDymHhR_MYYBE2ZsY7T3XDIhIDMjAy
きくちや,飲食,居酒屋,居酒屋,渋谷区西原3丁目23-62Fプラド,080-9050-9058,,35.6705325,139.6831313,EltKYXBhbiwg44CSMTUxLTAwNjYgVG9reW8sIFNoaWJ1eWEsIE5pc2hpaGFyYSwgMy1jaMWNbWXiiJIyM-KIku-8ku-8kyA2SyfvvZPjgrnjgq_jgqjjgqIgNjJmIh8aHQoWChQKEgkrWQkuSPMYYBH2FHZzwbuWjBIDNjJm
BAR KIZUKI,飲食,その他(バー・クラブ・スナックなど),バー,渋谷区渋谷1丁目8番地5号グローリア宮益坂10階,03-6434-1309,,35.6602601,139.7054305,ChIJ8zzvImqLGGARb04tgU6t4z0
KITASANDO COFFEE,飲食,喫茶店・カフェ,喫茶店・カフェ,渋谷区千駄ヶ谷4丁目12-8SSUビル1F,070-9154-5483,,35.68022,139.7045399,ChIJT2mFWseMGGARai2IeFE0Jks
きたぽん酒,飲食,その他(バー・クラブ・スナックなど),バー,渋谷区広尾1-10-5日興パレス広尾プラザ103,03-6882-4800,,35.6483499,139.7169279,ChIJbY6BqbSLGGARMqvGeUHJc0Y
喫茶おおいずみ,飲食,喫茶店・カフェ,喫茶店・カフェ,渋谷区笹塚3-19-5大泉商店ビル1F,03-3377-5996,,35.677023,139.6673615,ElZKYXBhbiwg44CSMTUxLTAwNzMgVG9reW8sIFNoaWJ1eWEsIFNhc2F6dWthLCAzLWNoxY1tZeKIkjE54oiS77yVIOWkp-azieWVhuW6l-ODk-ODqyAxZiIeGhwKFgoUChIJxWIrERnzGGAR8akUJAMro6wSAjFm
喫茶室 とし,飲食,喫茶店・カフェ,喫茶店・カフェ,渋谷区恵比寿西1丁目8-2ウエストパレスビル1階,090-8596-6592,,35.647793,139.7081702,ChIJhYzOs6aLGGARJLNEai3PMJw
喫茶SMiLE 喫茶スマイル,飲食,その他(バー・クラブ・スナックなど),バー,渋谷区宇田川町11-11柳光ビル本館3F,080-5546-9657,http://www.udagawasmile.com,35.6625731,139.6971993,EkZSeXVrb3UgQnVpbGRpbmcsIDNmLCAxMS0xMSBVZGFnYXdhY2jFjSwgU2hpYnV5YSwgVG9reW8gMTUwLTAwNDIsIEphcGFuIh4aHAoWChQKEgnZgjZJqYwYYBE4sSQT4WxyyxICM2Y
喫茶ダンボ,飲食,喫茶店・カフェ,喫茶店・カフェ,渋谷区初台1-39-10,03-3379-6799,,35.680007,139.6871776,ChIJDxivNzLzGGARWBb4jEpD9HU
喫茶と酒場　代官山ジャンプ,飲食,喫茶店・カフェ,喫茶店・カフェ,渋谷区代官山町13-4セレサ代官山2階,03-6455-1815,,35.6498437,139.70448,ChIJeS2MXACLGGARvgINmqZYlHs
喫茶バー　ナイマ,飲食,喫茶店・カフェ,喫茶店・カフェ,渋谷区上原3-2-2,03-5453-0169,,35.6674792,139.6813767,ChIJEc7ThEjzGGAR17gJ2SsbcwQ
kitchen&bar MORIS,飲食,居酒屋,ダイニング・バー,渋谷区東2-20-16estマニヴィアB1F,03-6451-1683,http://www.morismoris.com/,35.6535859,139.7096464,ChIJb8qC2UKLGGAROuFv8P42cVw
キッチンかねじょう,飲食,外国料理,その他,渋谷区幡ヶ谷2-47-1本田ビル1階,03-6276-1514,,35.6791082,139.6772695,ElJKYXBhbiwg44CSMTUxLTAwNzIgVG9reW8sIFNoaWJ1eWEsIEhhdGFnYXlhLCAyLWNoxY1tZeKIkjQ34oiS77yRIOacrOeUsOODk-ODqyAx6ZqOIiAaHgoWChQKEgmPOPrqJPMYYBHwoVocAwWjWRIEMemajg
キッチンカーAZITO,飲食,その他(バー・クラブ・スナックなど),その他,渋谷区神宮前2丁目31-8,090-7758-8964,,35.6729571,139.709018,ChIJx8eIJ72MGGARhjPF-wWbGBc
キッチンシロップ,飲食,喫茶店・カフェ,その他,渋谷区幡ヶ谷1-32-15笹峰ぎゃらりー1階,070-1596-0632,,35.6763126,139.6765119,Ej0x6ZqOLCAxLWNoxY1tZS0zMi0xNSBIYXRhZ2F5YSwgU2hpYnV5YSwgVG9reW8gMTUxLTAwNzIsIEphcGFuIiAaHgoWChQKEgmvGWZoO_MYYBGO2j8JzdHkxRIEMemajg
kitchen GCH,飲食,その他(バー・クラブ・スナックなど),その他,渋谷区笹塚3-19-4平野ビル1F,03-5843-5343,,35.6771449,139.6672507,ElZKYXBhbiwg44CSMTUxLTAwNzMgVG9reW8sIFNoaWJ1eWEsIFNhc2F6dWthLCAzLWNoxY1tZeKIkjE54oiS77yUIOOCq-ODvOOCteOCteOCq-OCpCAxZiIeGhwKFgoUChIJf-5-FhnzGGAR5V8wQ4Y1zbgSAjFm
キッチン髙野,飲食,外国料理,中国料理,渋谷区本町4-43-1,090-8808-2772,,35.6857368,139.6788246,ChIJVRnyrifzGGARYgJpZY0Uly4
キッチン屯,飲食,居酒屋,居酒屋,渋谷区広尾5-19-3マチダビル一階,090-2871-6552,,35.6488457,139.7199354,EjvkuIDpmo4sIDUtY2jFjW1lLTE5LTMgSGlyb28sIFNoaWJ1eWEsIFRva3lvIDE1MC0wMDEyLCBKYXBhbiIiGiAKFgoUChIJszrvzRKLGGAR9JoSBSA9shkSBuS4gOmajg
キッチンハセガワ,飲食,外国料理,その他,渋谷区円山町22-16,03-6416-1081,https://kitchen-hasegawa.com/,35.6567321,139.6943781,ChIJZWiQj1WLGGARpCW69LHXrXg
キッチンふるはし,飲食,ステーキ・焼肉,その他,渋谷区広尾5-18-2,03-3444-3733,,35.649412,139.7206687,ChIJV0jUtBKLGGAR-VVHj-HWbZc
キッチンわたりがらす,飲食,外国料理,無国籍料理,渋谷区東3-24-14エクセルハイム恵比寿1階,03-3797-1515,,35.6494593,139.7095067,EmZKYXBhbiwg44CSMTUwLTAwMTEgVG9reW8sIFNoaWJ1eWEsIEhpZ2FzaGksIDMtY2jFjW1l4oiSMjTiiJLvvJHvvJQg44Ko44Kv44K744Or44OP44Kk44Og5oG15q-U5a-_IDHpmo4iIBoeChYKFAoSCXPgn4dBixhgEXbuLj9QfA4sEgQx6ZqO
紀風,飲食,日本料理,日本料理,渋谷区恵比寿ターレル恵比寿1階,03-5422-7792,https://www.ebisu-kihuu.com/,35.6468808,139.7171773,ChIJEWV6XROLGGARySZAzajsHcY
きまぐれクミコ,飲食,その他(バー・クラブ・スナックなど),カフェバー,渋谷区道玄坂2-20-26藤和エクシール道玄坂B1-5,03-6427-0838,,35.6593021,139.6967812,ChIJObzEuICNGGARwK8BL-rmObI
気まぐれダイニングBAR PONすけ,飲食,その他(バー・クラブ・スナックなど),バー,渋谷区幡ヶ谷2-20-6第10岩田ビル,03-3374-6460,,35.6767033,139.6741023,ChIJL6H_MiPzGGARpWhJfeMHnyA
キミドリ.,飲食,居酒屋,その他,渋谷区渋谷3丁目12番24号小池ビル1F小池ビル,03-5468-3289,,35.6565523,139.7062054,El5KYXBhbiwg44CSMTUwLTAwMDIgVG9reW8sIFNoaWJ1eWEsIDMtY2jFjW1l4oiSMTLiiJLvvJLvvJQg44K444On44Kk5riL6LC344K744Oz44OB44Ol44Oq44O8IDFmIh4aHAoWChQKEgnJpKT2W4sYYBEmdE9Il4yaQxICMWY
木本商店,飲食,居酒屋,居酒屋,渋谷区幡ヶ谷3-8-7,03-5351-0848,,35.6806899,139.6760334,ChIJCUfldCTzGGAR8DS5zNg_QFU
CAMELBACK RICH VALLEY,飲食,喫茶店・カフェ,喫茶店・カフェ,渋谷区富ヶ谷1-9-23服部ビル102,03-6407-9969,,35.6687145,139.689938,ElNKYXBhbiwg44CSMTUxLTAwNjMgVG9reW8sIFNoaWJ1eWEsIFRvbWlnYXlhLCAxLWNoxY1tZeKIkjniiJLvvJLvvJMg5pyN6YOo44OT44OrIDEwMiIfGh0KFgoUChIJvX7rokzzGGARPXroHu60Z9QSAzEwMg
CAMELOT,飲食,その他(バー・クラブ・スナックなど),クラブ,渋谷区神南1丁目18番2号フレーム神南坂B1～B3,03-5728-5613,,35.6628751,139.7001055,Ek5GcmFtZSBKaW5uYW4temFrYSwgYjEsYjMsIDEtY2jFjW1lLTE4LTIgSmlubmFuLCBTaGlidXlhLCBUb2t5byAxNTAtMDA0MSwgSmFwYW4iIRofChYKFAoSCS02MeuojBhgEVAbF9kBt8xNEgViMSxiMw
キュマン,飲食,外国料理,無国籍料理,渋谷区代々木4-11-16,090-6182-2135,,35.679258,139.6916071,ChIJ6RYkqcyMGGARmicRTO9XBQw
京料理　阿うん,飲食,日本料理,日本料理,渋谷区富ヶ谷 1-33-6代々木パークサイドB1,050-3628-6763,https://www.tablecheck.com/ja/shops/aun/reserve,35.6665629,139.6883058,ChIJ0cjMaQDzGGARmPJLFCkxJLI
㐂宵,飲食,居酒屋,居酒屋,渋谷区宇田川町36-16プラザマリーナビル103,03-6427-0748,https://www.instagram.com/777.sake/,35.6617214,139.6963584,EjYxMDMsIDM2LTE2IFVkYWdhd2FjaMWNLCBTaGlidXlhLCBUb2t5byAxNTAtMDA0MiwgSmFwYW4iHxodChYKFAoSCW-uM1-pjBhgEQsHRcWO3pDOEgMxMDM
清武,飲食,居酒屋,居酒屋,渋谷区松濤1-29-2松涛スクエアビル地下1階,03-6455-0064,,35.6600042,139.6950798,ElRKYXBhbiwg44CSMTUwLTAwNDYgVG9reW8sIFNoaWJ1eWEsIFNoxY10xY0sIDEtY2jFjW1l4oiSMjniiJLvvJIg44K544Kv44Ko44Ki44OT44OrIDEiHRobChYKFAoSCSu6OcqrjBhgEb7fVeDSx0DSEgEx
金ちゃん渋谷2号店,飲食,外国料理,韓国料理,渋谷区宇田川町28-15サンマルジェビル5階,03-3461-6655,,35.6604123,139.6984067,EkZTYWludCBNYXJlamllLCA16ZqOLCAyOC0xNSBVZGFnYXdhY2jFjSwgU2hpYnV5YSwgVG9reW8gMTUwLTAwNDIsIEphcGFuIiAaHgoWChQKEglFPqCxqYwYYBFQS55vaT30QhIENemajg
金ちゃん渋谷本店,飲食,外国料理,韓国料理,渋谷区宇田川町30-5渋谷JOWビル9階,03-6455-3838,,35.6608944,139.6979788,ChIJl-fxTwCNGGARPY7DMc8n8v4
有限会社きんはる,飲食,居酒屋,居酒屋,渋谷区上原1丁目34番7号和田ビル1階,03-3469-1410,,35.6693517,139.6815761,ElBKYXBhbiwg44CSMTUxLTAwNjQgVG9reW8sIFNoaWJ1eWEsIFVlaGFyYSwgMS1jaMWNbWXiiJIzNOKIku-8lyDlkoznlLDjg5Pjg6sgMemajiIgGh4KFgoUChIJt2FvDUjzGGAReYuZ-9kQncgSBDHpmo4
ぎっちょん,飲食,居酒屋,ダイニング・バー,渋谷区神宮前2-22-1長谷川ビル1F,03-3402-3164,,35.6751356,139.7105141,EjsxZiwgMi1jaMWNbWUtMjItMSBKaW5nxattYWUsIFNoaWJ1eWEsIFRva3lvIDE1MC0wMDAxLCBKYXBhbiIeGhwKFgoUChIJl4uQdb2MGGARex6FPOwS-7wSAjFm
ギャラリーコンシールシブヤ,飲食,喫茶店・カフェ,喫茶店・カフェ,渋谷区道玄坂1-11-3富士商事ビル4F,03-3463-0720,,35.6576082,139.6987605,ChIJn5U3S1aLGGAREu8A81g5-aI
Gallery Bar 余白,飲食,その他(バー・クラブ・スナックなど),バー,渋谷区本町2-1-7フォレスト初台102,03-5843-5392,,35.6843925,139.6851751,ChIJBYNdli7zGGARJA2O-xTJAnw
ギャラリー雪月花タイ料理サムロー神泉,飲食,外国料理,東南アジア料理,渋谷区神泉町14-13ギャラリー雪月花ゆづか　SaamRoa,090-7833-3710,,35.6569459,139.6924337,ChIJYSAKfxGNGGAR8XAUX7bQ6X4
牛タンいろ葉別邸,飲食,居酒屋,居酒屋,渋谷区千駄ヶ谷5-20-10ほぼ新宿のれん街,03-3354-3130,,35.6830213,139.7033933,ChIJmfvQZcaMGGARpC-Ct3n5BSs
牛丸,飲食,ステーキ・焼肉,焼肉,渋谷区宇田川町30-5渋谷JOWビル 8階,03-6712-7871,,35.6608944,139.6979788,ChIJl-fxTwCNGGARPY7DMc8n8v4
QUEEN MAJESTEA,飲食,喫茶店・カフェ,喫茶店・カフェ,渋谷区幡ヶ谷3-16-7Repia-M102,090-3109-0474,,35.6800129,139.6726343,ChIJo_7MLCLzGGAREXaj6YXAePQ
空雅,飲食,ステーキ・焼肉,焼肉,渋谷区恵比寿1-6-7animoebisu 3F,03-6450-3885,,35.64722,139.7153418,ChIJq6q7yhSLGGARS6MW3I4MU0o
KUKUTANA,飲食,その他(バー・クラブ・スナックなど),その他,渋谷区桜丘町23番17号シティコート桜丘408,070-8435-5540,,35.6556571,139.6997131,ChIJMxMcPFeLGGARB_bL5ZKlfE0
串揚げ酒場あすれ,飲食,居酒屋,居酒屋,渋谷区笹塚3-19-2青田ビル1C,090-3585-6528,,35.6773244,139.6669645,EjoxYywgMy1jaMWNbWUtMTktMiBTYXNhenVrYSwgU2hpYnV5YSwgVG9reW8gMTUxLTAwNzMsIEphcGFuIh4aHAoWChQKEgkpNQs_GfMYYBHLw39648sdHBICMWM
串揚げひなた,飲食,居酒屋,居酒屋,渋谷区代々木1-42-2代々木berry102,03-6276-8289,,35.6827995,139.6992045,ChIJIZi1Jc-MGGARHX6qJo-2fTI
串いろいろとわっぱ飯　民家,飲食,居酒屋,居酒屋,渋谷区恵比寿南2丁目2番2号K・Tビル,03-3760-2400,,35.6458024,139.7075731,ChIJj6Egw0CLGGARtr8pJwtHfDw
串カツ民屋代々木上原店,飲食,居酒屋,居酒屋,渋谷区上原1-35-2上原銀座ビル2F,03-5453-6070,,35.66969539999999,139.6820745,ElRKYXBhbiwg44CSMTUxLTAwNjQgVG9reW8sIFNoaWJ1eWEsIFVlaGFyYSwgMS1jaMWNbWXiiJIzNeKIku-8kiDkuIrljp_pioDluqfjg5Pjg6sgMmYiHhocChYKFAoSCRXKyxVI8xhgEaR_-OkSTbPjEgIyZg
串音,飲食,日本料理,とんかつ・串かつ,渋谷区道玄坂2-23-13渋谷デリタワー5階,090-5793-3356,http://kushine.com,35.6601085,139.6961331,ChIJTyZVd4-NGGARK7au-Lu20os
串焼き七福,飲食,居酒屋,居酒屋,渋谷区富ヶ谷1-3-12エムプレイス201,03-3469-4989,,35.6692896,139.6890584,EjsyMDEsIDEtY2jFjW1lLTMtMTIgVG9taWdheWEsIFNoaWJ1eWEsIFRva3lvIDE1MS0wMDYzLCBKYXBhbiIfGh0KFgoUChIJDU1WekvzGGAR6XhYHqXjNtkSAzIwMQ
串焼ダイニング十兵衛,飲食,居酒屋,ダイニング・バー,渋谷区恵比寿南1-23-5アメリカンブリッジカンパニービル1F,03-3719-2833,,35.644488,139.709367,ChIJZ4BkhD-LGGARUsFMS_giZ-Y
串焼と酒　一佳,飲食,居酒屋,居酒屋,渋谷区恵比寿1-4-1恵比寿アーバンハウス109,03-3444-0801,,35.6476642,139.7116013,El9KYXBhbiwg44CSMTUwLTAwMTMgVG9reW8sIFNoaWJ1eWEsIEViaXN1LCAxLWNoxY1tZeKIkjTiiJLvvJEg5oG15q-U5a-_44Ki44O844OQ44Oz44OP44Km44K5IDEwOSIfGh0KFgoUChIJQ38fKkCLGGARwftEw1XNn2YSAzEwOQ
串や　馬加羅亭,飲食,居酒屋,居酒屋,渋谷区恵比寿3-4-3第四得丸ビル1階,03-3442-2547,,35.6449071,139.7188731,ElRKYXBhbiwg44CSMTUwLTAwMTMgVG9reW8sIFNoaWJ1eWEsIEViaXN1LCAzLWNoxY1tZeKIkjTiiJLvvJMg56ys77yT5p2x44OT44OrIOesrCzlm5siIxohChYKFAoSCZc7oc4TixhgEXWD6bPVzuZ2EgfnrKws5Zub
CUCINA DIESEL FARM,飲食,外国料理,イタリア料理,渋谷区渋谷1-23-16cocoti 1F,03-3409-5670,,35.66135020000001,139.7032633,ChIJLf-LcKeMGGAR2falY3V3ENk
CUJORL,飲食,外国料理,その他,渋谷区桜丘町22-8縣ビル1F,03-5784-5818,,35.65422119999999,139.6999325,EklKYXBhbiwg44CSMTUwLTAwMzEgVG9reW8sIFNoaWJ1eWEsIFNha3VyYWdhb2thY2jFjSwgMjLiiJLvvJgg57ij44OT44OrIDFmIh4aHAoWChQKEgkTjDLGUIsYYBGo0ARGbqPqIhICMWY
クライネヒュッテ,飲食,居酒屋,居酒屋,渋谷区代々木2-11-5アクティブ新宿B1,03-3320-3557,,35.6875699,139.6975391,EldKYXBhbiwg44CSMTUxLTAwNTMgVG9reW8sIFNoaWJ1eWEsIFlveW9naSwgMi1jaMWNbWXiiJIxMeKIku-8lSDjgqLjgq_jg4bjgqPjg5bmlrDlrr8gYjEiHhocChYKFAoSCXti1JfRjBhgETCr7xSMJ7nREgJiMQ
CLIMB,飲食,居酒屋,ダイニング・バー,渋谷区神宮前1-8-5メナー4F,090-3685-2926,,35.6702036,139.7064731,ElZKYXBhbiwg44CSMTUwLTAwMDEgVG9reW8sIFNoaWJ1eWEsIEppbmfFq21hZSwgMS1jaMWNbWXiiJI44oiS77yVIOODoeODiuODvOelnuWuruWJjSA0ZiIeGhwKFgoUChIJOf2LX6OMGGARaJb_qwXGRf8SAjRm
Crowny cafe Stand,飲食,喫茶店・カフェ,喫茶店・カフェ,渋谷区代々木1-38-6星野ビル1階,03-6300-7766,https://crownycafe.com/,35.6828334,139.7015282,Ejox6ZqOLCAxLWNoxY1tZS0zOC02IFlveW9naSwgU2hpYnV5YSwgVG9reW8gMTUxLTAwNTMsIEphcGFuIiAaHgoWChQKEgk5TgoBxowYYBEeZ76L6zzMFxIEMemajg
KURA 渋谷店,飲食,外国料理,イタリア料理,渋谷区渋谷1-24-7渋谷フラットビル1F,03-5466-1010,,35.6605845,139.7019999,EkNTaGlidXlhIEZsYXQgQmxkLiwgMWYsIDEtY2jFjW1lLTI0LTcgU2hpYnV5YSwgVG9reW8gMTUwLTAwMDIsIEphcGFuIh4aHAoWChQKEglXjS5Wz40YYBFjgPEaGxl3IBICMWY
Craft Curry Brothers BASE 代々木,飲食,日本料理,その他,渋谷区代々木3丁目13-1Smi:re Yoyogi 1階,090-5683-4466,,35.682159,139.6976839,ChIJTQGdx86MGGARmXxDk-l6blg
Craftbeer gau's,飲食,その他(バー・クラブ・スナックなど),カフェバー,渋谷区神山町16-4ヴィラメトロポリス2A,090-1538-8485,,35.6632797,139.6940346,ChIJzWcmWqyMGGAR0QDj9fTGvQs
クラフトビール量り売り TAP&CROWLER 渋谷店,飲食,その他(バー・クラブ・スナックなど),バー,渋谷区宇田川町6-20パラシオン渋谷1階,03-6416-5948,https://www.craft-beers.shop,35.6634628,139.6968447,ElVKYXBhbiwg44CSMTUwLTAwNDIgVG9reW8sIFNoaWJ1eWEsIFVkYWdhd2FjaMWNLCA24oiS77yS77yQIOODkeODqeOCt-OCquODs-a4i-iwtyAx6ZqOIiAaHgoWChQKEgkJ0TGlrowYYBGgt9sLOYbiYhIEMemajg
クラフトビール量り売りTAP&TUMBLER恵比寿店,飲食,居酒屋,ビアホール,渋谷区恵比寿恵比寿MFビル1階,03-6456-3235,https://www.instagram.com/taptumbler_/,35.6458822,139.7123771,ChIJSyJPTBWLGGAR2Ur9JPCW1tY
CLUB HEAVY SICK,飲食,その他(バー・クラブ・スナックなど),ライブハウス,渋谷区西原2-27-4升本ビルB1,03-3466-1445,,35.6752279,139.6783653,ElFKYXBhbiwg44CSMTUxLTAwNjYgVG9reW8sIFNoaWJ1eWEsIE5pc2hpaGFyYSwgMi1jaMWNbWXiiJIyN-KIku-8lCDljYfmnKzjg5Pjg6sgYjEiHhocChYKFAoSCfOoNbM78xhgEfTIstGgK21tEgJiMQ
クラブ　リズ,飲食,その他(バー・クラブ・スナックなど),スナック・パブ・キャバレー,渋谷区幡ヶ谷2-13-3幡ヶ谷駅前サンクスビル2F,03-3376-6310,,35.6775284,139.6769505,EjoyZiwgMi1jaMWNbWUtMTMtMyBIYXRhZ2F5YSwgU2hpYnV5YSwgVG9reW8gMTUxLTAwNzIsIEphcGFuIh4aHAoWChQKEgkVfgBLO_MYYBF5z81ZLn98NRICMmY
CREAM PAND BAKERs,飲食,喫茶店・カフェ,喫茶店・カフェ,渋谷区恵比寿西2-14-10TWONE代官山1F-B,080-4307-0351,,35.6481329,139.7045458,ChIJ3_Xt9ASLGGARJJTtFE45J_Q
くるり恵比寿,飲食,居酒屋,居酒屋,渋谷区恵比寿西1-7-9恵比寿タイムハウスビル3階,080-1430-0308,,35.64772689999999,139.7087658,Ej0z6ZqOLCAxLWNoxY1tZS03LTkgRWJpc3VuaXNoaSwgU2hpYnV5YSwgVG9reW8gMTUwLTAwMjEsIEphcGFuIiAaHgoWChQKEgm_90EJQYsYYBHd5YIUGR8i0xIEM-majg
クレープとエスプレッソと,飲食,喫茶店・カフェ,喫茶店・カフェ,渋谷区神宮前4-13-20,03-6804-6040,,35.6666355,139.7108275,ChIJQ8aTz6GMGGAR53Yky6KCS78
黒毛七厘,飲食,外国料理,その他,渋谷区恵比寿1-23-16第六大浦ビル102,03-6277-3267,,35.6458723,139.7154915,Ek5KYXBhbiwg44CSMTUwLTAwMTMgVG9reW8sIFNoaWJ1eWEsIEViaXN1LCAxLWNoxY1tZeKIkjIzIOesrOWFreWkp-a1puODk-ODqyAxMDIiHxodChYKFAoSCQdPX5MUixhgEdUa55l7-vE-EgMxMDI
黒豚・地鶏ダイニング　SATSUMA,飲食,居酒屋,居酒屋,渋谷区神宮前1-23-26神宮前123ビル　1階,090-5299-0798,,35.6727502,139.7042199,ElNKYXBhbiwg44CSMTUwLTAwMDEgVG9reW8sIFNoaWJ1eWEsIEppbmfFq21hZSwgMS1jaMWNbWXiiJIyM-KIku-8ku-8liAxMjPjg5Pjg6sgMemajiIgGh4KFgoUChIJbb_AqbuMGGAREGr2gTCEMPwSBDHpmo4
燻製酒場おりおん,飲食,居酒屋,居酒屋,渋谷区渋谷1-25-10渋谷のんべい横丁,03-6416-3341,,35.6599499,139.701533,ChIJpwDSAViLGGARVaJ_WUwQrt8
燻製BARオリオン,飲食,その他(バー・クラブ・スナックなど),バー,渋谷区神南1-20-9パークウェイ渋谷2階,03-6416-3341,,35.6619591,139.6998772,Ejoy6ZqOLCAxLWNoxY1tZS0yMC05IEppbm5hbiwgU2hpYnV5YSwgVG9reW8gMTUwLTAwNDEsIEphcGFuIiAaHgoWChQKEgkfQ3L0qIwYYBFXL5bvTaMgExIEMumajg
クークー,飲食,喫茶店・カフェ,その他,渋谷区西原1-7-8,03-6873-9120,,35.6738786,139.6817356,ChIJjdrMaTfzGGARCu4oAoVpmG8
guenin cafe,飲食,喫茶店・カフェ,喫茶店・カフェ,渋谷区恵比寿1-22-23,070-1266-6789,,35.646249,139.7134366,ChIJtcNEMhWLGGARZtS3HgDfsWg
グッドグッドノットバッド,飲食,喫茶店・カフェ,喫茶店・カフェ,渋谷区宇田川町4番8号昭和ビル101,03-6388-1286,,35.6624528,139.6977821,EjQxMDEsIDQtOCBVZGFnYXdhY2jFjSwgU2hpYnV5YSwgVG9reW8gMTUwLTAwNDIsIEphcGFuIh8aHQoWChQKEgld2XQ5qYwYYBFDJqysbLovnBIDMTAx
gudene,飲食,その他(バー・クラブ・スナックなど),カフェバー,渋谷区渋谷2丁目7番13号ネオメット青山2階,03-3407-5450,,35.66037439999999,139.7076416,EjIy6ZqOLCAyLWNoxY1tZS03LTEzIFNoaWJ1eWEsIFRva3lvIDE1MC0wMDAyLCBKYXBhbiIgGh4KFgoUChIJtS40IF-LGGAR3lbZYpdP3owSBDLpmo4
Grunge,飲食,その他(バー・クラブ・スナックなど),バー,渋谷区西原2-28-4宮嶋ビルB1-1,03-6407-0240,,35.6753079,139.6782603,ElNKYXBhbiwg44CSMTUxLTAwNjYgVG9reW8sIFNoaWJ1eWEsIE5pc2hpaGFyYSwgMi1jaMWNbWXiiJIyOOKIku-8lCDlrq7ltovjg5Pjg6sgYjEsMSIgGh4KFgoUChIJE6NfsjvzGGAR2OpOqXs_kYkSBGIxLDE
GRATIALLIGO,飲食,その他(バー・クラブ・スナックなど),バー,渋谷区代々木1-45-10NJビル1F,03-6276-7668,,35.6819444,139.6968427,ChIJOUe3pM6MGGAR0Sk9RnvKt58
Green Sloth,飲食,その他(バー・クラブ・スナックなど),バー,渋谷区神泉町8-12ザ・シティ渋谷神泉3F,03-6416-4559,https://retty.me/area/PRE13/ARE8/SUB804/100001458269/,35.6556884,139.6934272,ChIJFx03S-mLGGAR2MweNPHBLRw
グルテンフリーおばんざいLL,飲食,日本料理,小料理,渋谷区西原3-4-5山田ビル4F,080-5866-5927,,35.6701568,139.6817954,Ejo0ZiwgMy1jaMWNbWUtNC01IE5pc2hpaGFyYSwgU2hpYnV5YSwgVG9reW8gMTUxLTAwNjYsIEphcGFuIh4aHAoWChQKEglTTJYbSPMYYBEruXB48sq8LxICNGY
グルーキー,飲食,居酒屋,居酒屋,渋谷区恵比寿南1-2-6サンポウ恵比寿ビル301,03-6452-2211,,35.6459124,139.7078411,EmJKYXBhbiwg44CSMTUwLTAwMjIgVG9reW8sIFNoaWJ1eWEsIEViaXN1bWluYW1pLCAxLWNoxY1tZeKIkjLiiJLvvJYg44K144Oz44Od44Km5oG15q-U5a-_44OT44OrIDMwMSIfGh0KFgoUChIJ9dNo6ECLGGARdCuUvdM2T3kSAzMwMQ
グレイ,飲食,その他(バー・クラブ・スナックなど),バー,渋谷区恵比寿南2-3-3第一恵比寿マンション地下1階,03-6452-3929,,35.6453564,139.7078898,ChIJT0SM9ESLGGAR3adPy0GVR1k
グレムリン,飲食,居酒屋,ビアホール,渋谷区幡ヶ谷1-3-1ゴールデンセンターB1,03-6300-5723,,35.6767844,139.6761032,EmdKYXBhbiwg44CSMTUxLTAwNzIgVG9reW8sIFNoaWJ1eWEsIEhhdGFnYXlhLCAxLWNoxY1tZeKIkjPiiJLvvJEg5bmh44O26LC344K044O844Or44OH44Oz44K744Oz44K_44O8IGIxIh4aHAoWChQKEgmPtPlZO_MYYBF0oeZ0nan6WBICYjE
軽食喫茶栞,飲食,喫茶店・カフェ,喫茶店・カフェ,渋谷区幡ヶ谷1-3-1幡ヶ谷ゴールデンマンションB1,03-3374-5993,,35.6769913,139.6767983,ChIJ-flpNXPzGGAR9bGn-sqsrTE
ケニックカレー,飲食,外国料理,インド料理,渋谷区宇田川町13番9号KN渋谷2ビル4階,03-6884-2188,,35.6611193,139.6983008,ChIJVefsUQCNGGARC56iDPWDj1M
KEBAB CAFE,飲食,外国料理,その他,渋谷区道玄坂2-25-10ベニー道玄坂ビル1階,03-3780-1367,,35.660271,139.6971402,ElNCZW5ueSBTZWlrZW4gQmxkZy4sIDHpmo4sIDItY2jFjW1lLTI1LTEwIETFjWdlbnpha2EsIFNoaWJ1eWEsIFRva3lvIDE1MC0wMDQzLCBKYXBhbiIgGh4KFgoUChIJnZ_pm6mMGGARappeW309M84SBDHpmo4
ケバブボックスジェイ,飲食,外国料理,その他,渋谷区神宮前1-8-8コクシー188ビル1F,03-3470-0706,,35.6699421,139.7061755,EjsxODgsIDEtY2jFjW1lLTgtOCBKaW5nxattYWUsIFNoaWJ1eWEsIFRva3lvIDE1MC0wMDAxLCBKYXBhbiIfGh0KFgoUChIJw4wVoqSMGGARRj8JIZuhOsQSAzE4OA
煙仄,飲食,喫茶店・カフェ,喫茶店・カフェ,渋谷区代々木2-39-1エクランYS2 2F,03-6876-8195,,35.6849102,139.6966516,ChIJ9x_mDs6MGGARz_Nr0Raw5xc
喧騒,飲食,居酒屋,居酒屋,渋谷区道玄坂1-13-2萬全社ビル3F,090-3996-7666,,35.657689,139.698515,ChIJ54UaSlaLGGARffMlTSFx5bI
KKW.softcream,飲食,喫茶店・カフェ,喫茶店・カフェ,渋谷区富ヶ谷1-8-2代々木ホームズ1階,050-1809-3096,https://softcream-kkw.com/,35.6691827,139.6903198,ElpKYXBhbiwg44CSMTUxLTAwNjMgVG9reW8sIFNoaWJ1eWEsIFRvbWlnYXlhLCAxLWNoxY1tZeKIkjjiiJLvvJIg5Luj44CF5pyo44Ob44O844Og44K6IDHpmo4iIBoeChYKFAoSCWWyAqdM8xhgEdPhoaXYIHDVEgQx6ZqO
CASE広尾,飲食,外国料理,その他,渋谷区広尾5-18-2,03-6240-6969,,35.649412,139.7206687,ChIJV0jUtBKLGGAR-VVHj-HWbZc
GET BETTERcoffee&sandwich,飲食,喫茶店・カフェ,喫茶店・カフェ,渋谷区本町2-7-9,03-6300-6045,,35.6837043,139.6827724,ChIJP5LDPC_zGGAROSpNrYIH1m0
現実逃避,飲食,その他(バー・クラブ・スナックなど),バー,渋谷区恵比寿1-22-27マガザン恵比寿8階,03-5422-6955,,35.6462506,139.712825,ChIJffQxBwCLGGARfJxdFnF-qzY
Kouji＆ko ITALIAN,飲食,外国料理,イタリア料理,渋谷区桜丘町16-13桜丘フロントⅡビル2F,03-6277-5010,,35.6567807,139.7012255,EjkyZiwgMTYtMTMgU2FrdXJhZ2Fva2FjaMWNLCBTaGlidXlhLCBUb2t5byAxNTAtMDAzMSwgSmFwYW4iHhocChYKFAoSCadAgmFXixhgEXlVPy6oQ3gtEgIyZg
神戸　みなと屋,飲食,喫茶店・カフェ,喫茶店・カフェ,渋谷区笹塚2-41-20岡田ビル1F,03-6383-3120,,35.675822,139.6679396,ElNKYXBhbiwg44CSMTUxLTAwNzMgVG9reW8sIFNoaWJ1eWEsIFNhc2F6dWthLCAyLWNoxY1tZeKIkjQx4oiS77yS77yQIOadvua-pOODk-ODqyAxZiIeGhwKFgoUChIJsUv1rRnzGGARSb-JOZS91fcSAjFm
神戸焼肉かんてき　渋谷店,飲食,ステーキ・焼肉,焼肉,渋谷区道玄坂2-7-6,03-3461-1029,,35.6586977,139.6987377,ChIJI05bK1aLGGAR5hKiFSZONak
神戸焼肉かんてき　渋谷ハナレ店,飲食,ステーキ・焼肉,焼肉,渋谷区道玄坂2-6-74階,03-6455-0229,,35.6596288,139.6956206,ChIJw28gLqqMGGARNk2-6W8JMYg
黄金屋渋谷店,飲食,居酒屋,居酒屋,渋谷区道玄坂1-3-11一番ビルB1F,03-5728-8600,,35.6582722,139.6996396,Ej1iMWYsIDEtY2jFjW1lLTMtMTEgRMWNZ2VuemFrYSwgU2hpYnV5YSwgVG9reW8gMTUwLTAwNDMsIEphcGFuIh8aHQoWChQKEgl7nxHHV4sYYBGA69CMSpb-oBIDYjFm
黒牛,飲食,ステーキ・焼肉,焼肉,渋谷区代々木3-1-11パシフィックスクエア代々木,03-6803-1129,https://www.instagram.com/kokugyu_yoyogi/?hl=ja,35.6822604,139.6957442,ChIJ4aXwJMyMGGARWcWFUtKtfnU
湖月,飲食,日本料理,日本料理,渋谷区神宮前5-50-10ぴゅあ1,03-3407-3033,https://www.kogetsu.tokyo,35.6631767,139.7096863,ChIJMzKbiF-LGGARXYKVMC5MIoA
KO‐KO,飲食,その他(バー・クラブ・スナックなど),バー,渋谷区道玄坂2-26-5ひまわりビル2F,03-3463-8226,,35.659353,139.6971259,EkxIaW1hd2FyaSBCbGRnLiwgMmYsIDItY2jFjW1lLTI2LTUgRMWNZ2VuemFrYSwgU2hpYnV5YSwgVG9reW8gMTUwLTAwNDMsIEphcGFuIh4aHAoWChQKEgmZhZLsqYwYYBH-55usIrIcKxICMmY
COCO-agepan,飲食,その他(バー・クラブ・スナックなど),その他,渋谷区神宮前5-17-16101,050-5899-5031,,35.6640358,139.7070931,ChIJZfNwKaGMGGAR4CadCD8e980
ココリコ渋谷店,飲食,外国料理,イタリア料理,渋谷区渋谷3-27-11GEMS渋谷5F,03-5485-7621,,35.6566382,139.7058165,ChIJ9QtiwFuLGGARFzZqCKHjoAo
こころ-想-,飲食,日本料理,日本料理,渋谷区神宮前6-10-4COMS神宮前1階,03-6427-1336,,35.666222,139.7029841,Ej0x6ZqOLCA2LWNoxY1tZS0yNS02IEppbmfFq21hZSwgU2hpYnV5YSwgVG9reW8gMTUwLTAwMDEsIEphcGFuIiAaHgoWChQKEglVVcXGpYwYYBFYU7GkX1iDShIEMemajg
こしの,飲食,日本料理,小料理,渋谷区道玄坂2-16-19都路ビル105,03-3770-9888,,35.6588841,139.6969009,ChIJfaXf76mMGGARHh3qh5WR1g8
コジンシュギ,飲食,居酒屋,ダイニング・バー,渋谷区桜丘町29-5石島ビル201,070-5558-1894,,35.6550557,139.6993204,Ek1KYXBhbiwg44CSMTUwLTAwMzEgVG9reW8sIFNoaWJ1eWEsIFNha3VyYWdhb2thY2jFjSwgMjniiJLvvJUg55-z5bO244OT44OrIDIwMSIfGh0KFgoUChIJd4a2L1eLGGARENnUD2EEszESAzIwMQ
コスタブラバ,飲食,外国料理,スペイン料理,渋谷区笹塚1-15-5堀内ビル201,03-3465-5255,,35.6719853,139.6689977,EjsyMDEsIDEtY2jFjW1lLTE1LTUgU2FzYXp1a2EsIFNoaWJ1eWEsIFRva3lvIDE1MS0wMDczLCBKYXBhbiIfGh0KFgoUChIJd7EvTBbzGGARklGohQTnpigSAzIwMQ
COSMOS JUICE TOMIGAYA,飲食,喫茶店・カフェ,喫茶店・カフェ,渋谷区富ヶ谷2-23-5富ヶ谷アルコーブ1F,03-5772-2765,,35.6631664,139.6829002,ElNKYXBhbiwg44CSMTUxLTAwNjMgVG9reW8sIFNoaWJ1eWEsIFRvbWlnYXlhLCAyLWNoxY1tZeKIkjIz4oiS77yVIOS5heS_neeUsOODk-ODqyAxZiIeGhwKFgoUChIJZQ9Gt0_zGGAR3H6FI_Hv-5QSAjFm
東風-cochi-,飲食,喫茶店・カフェ,喫茶店・カフェ,渋谷区鶯谷町15-10ロイヤルパレス渋谷103,03-6712-7858,https://www.instagram.com/cochi_shibuya,35.6540976,139.70083,ChIJdQyUolCLGGAREBvx_3aQDLo
コップンタイガー,飲食,外国料理,東南アジア料理,渋谷区道玄坂1-11-3富士商事ビル3F,03-6277-5246,,35.6576082,139.6987605,ChIJn5U3S1aLGGAREu8A81g5-aI
コテ・フー,飲食,外国料理,フランス料理,渋谷区鶯谷町8-10代官山トゥエルブ2 / 1階D区画,03-3461-2024,,35.6532078,139.703882,EjgyLDEsIDgtMTAgVWd1aXN1ZGFuaWNoxY0sIFNoaWJ1eWEsIFRva3lvIDE1MC0wMDMyLCBKYXBhbiIfGh0KFgoUChIJt2zj4VqLGGARJShVBTpT1a4SAzIsMQ
コトBAR,飲食,その他(バー・クラブ・スナックなど),バー,渋谷区道玄坂2-7-6三喜ハウス地下1階,03-6416-3817,https://www.facebook.com/cotobar.shibuya,35.6586977,139.6987377,EjoxLCAyLWNoxY1tZS03LTYgRMWNZ2VuemFrYSwgU2hpYnV5YSwgVG9reW8gMTUwLTAwNDMsIEphcGFuIh0aGwoWChQKEgkjTlsrVosYYBHmEqIVJk41qRIBMQ
此ノ奥,飲食,居酒屋,居酒屋,渋谷区富ヶ谷1-53-3Fビル1階,090-1111-1616,,35.6671825,139.689223,ChIJadbF2UzzGGARneqoEY_Y2-8
coの食卓,飲食,喫茶店・カフェ,喫茶店・カフェ,渋谷区宇田川町5-6渋谷区子育てネウボラ 2F,03-6455-3760,https://www.instagram.com/co_shokutaku/,35.6628649,139.6981973,ChIJ5_xqL6mMGGAR6ei7lAcIb_Q
KOBUSHI BEER LOUNGE & BAR,飲食,その他(バー・クラブ・スナックなど),バー,渋谷区道玄坂2-17-2トップ美奄 2F,050-5373-6373,,35.6587521,139.6966616,ChIJcU4b-qmMGGARZEMFcwhAMC8
駒テラス西参道カフェ,飲食,喫茶店・カフェ,喫茶店・カフェ,渋谷区代々木四丁目17番4号,03-6300-5721,,35.6803138,139.6904993,ChIJuy09y8yMGGARxF0U5za9vus
小麦っ娘,飲食,居酒屋,その他,渋谷区広尾5-2-25本国ビル3階,03-6450-3956,,35.6502244,139.7202627,Ejkz6ZqOLCA1LWNoxY1tZS0yLTI1IEhpcm9vLCBTaGlidXlhLCBUb2t5byAxNTAtMDAxMiwgSmFwYW4iIBoeChYKFAoSCQHJ9D5tixhgEcuMT8CjrDKvEgQz6ZqO
米子,飲食,居酒屋,居酒屋,渋谷区幡ヶ谷2-5-3,03-6276-5959,,35.6783527,139.6777081,ChIJrwgOziTzGGAR0IVMbtYZuGg
米福,飲食,日本料理,その他,渋谷区恵比寿西1-4-2川田ビルB1F,03-6416-3855,,35.6486423,139.7079621,Ek1LYXdhdGEgQnVpbGRpbmcsIGIxZiwgMS1jaMWNbWUtNC0yIEViaXN1bmlzaGksIFNoaWJ1eWEsIFRva3lvIDE1MC0wMDIxLCBKYXBhbiIfGh0KFgoUChIJ2fQ3YUGLGGARI1qqcL4ZAT8SA2IxZg
COYORI,飲食,その他(バー・クラブ・スナックなど),カフェバー,渋谷区広尾5-14-4広尾SKビル2F,070-8315-0902,,35.6504141,139.7216464,ChIJNwg0WG2LGGAR8rajvVptaWY
小料理割烹祥じ,飲食,日本料理,日本料理,渋谷区笹塚1-21-6,03-6804-9027,,35.6729335,139.6692465,ChIJ3dbpuRfzGGAR3ngncGKxGgI
小料理左門,飲食,居酒屋,居酒屋,渋谷区幡ヶ谷2-47-1小路ビル1-D,03-3374-5680,,35.6791305,139.6771427,ChIJYaEu6yTzGGARlQRFHZx6yos
小料理 百けん,飲食,居酒屋,居酒屋,渋谷区道玄坂2-20-10豊田ビル1階,03-6455-3808,,35.6593997,139.6958638,Ej8x6ZqOLCAyLWNoxY1tZS0yMC0xMCBExY1nZW56YWthLCBTaGlidXlhLCBUb2t5byAxNTAtMDA0MywgSmFwYW4iIBoeChYKFAoSCQ_86SWqjBhgEWgYdhqC1JAZEgQx6ZqO
CONCENT,飲食,喫茶店・カフェ,喫茶店・カフェ,渋谷区本町6-34-8,03-3373-8128,,35.6802602,139.6774928,ChIJ2fukWCTzGGARIg2eUQGOLhE
Concerto,飲食,外国料理,イタリア料理,渋谷区上原1-29-5BIT代々木上原B1,03-6804-8794,,35.6682216,139.6820801,ChIJ8RLwikjzGGARFsAf3AkWYGM
Convivio,飲食,外国料理,イタリア料理,渋谷区千駄ヶ谷3-17-12カミムラビル1F,03-6434-7907,https://convivio.jp/,35.675941,139.7080607,ElpKYXBhbiwg44CSMTUxLTAwNTEgVG9reW8sIFNoaWJ1eWEsIFNlbmRhZ2F5YSwgMy1jaMWNbWXiiJIxN-KIku-8ke-8kiDjgqvjg5_jg6Djg6njg5Pjg6sgMWYiHhocChYKFAoSCfEYWyO8jBhgEcVM785NdmYIEgIxZg
COZYHOUSE,飲食,その他(バー・クラブ・スナックなど),バー,渋谷区道玄坂2-19-11FABRIC渋谷5F,03-6277-5090,,35.6587864,139.696881,ChIJjwzMxamMGGARpRTsGA-xLT4
珈琲家族,飲食,喫茶店・カフェ,喫茶店・カフェ,渋谷区恵比寿南1-2-8雨宮ビル　B1F,03-3710-8124,,35.6460257,139.7077214,ElNKYXBhbiwg44CSMTUwLTAwMjIgVG9reW8sIFNoaWJ1eWEsIEViaXN1bWluYW1pLCAxLWNoxY1tZeKIkjLiiJLvvJgg6Zuo5a6u44OT44OrIGIxZiIfGh0KFgoUChIJwy6N50CLGGARTJ2ZCYiNpLESA2IxZg
珈琲カンタータ,飲食,喫茶店・カフェ,喫茶店・カフェ,渋谷区幡ヶ谷2-15-9,090-7259-8991,,35.6783933,139.6757144,ChIJIUkLYCPzGGARDoGmTBIfJY8
COFFEE KIOSK ROASTER,飲食,喫茶店・カフェ,喫茶店・カフェ,渋谷区千駄ヶ谷5-6-7トーエイハイツ1C,03-6274-8411,https://www.instagram.com/coffeekioskroaster/,35.68190750000001,139.7063381,ChIJ__8TM8eMGGARRPsjw7sNbAM
CoffeeCrevice,飲食,喫茶店・カフェ,喫茶店・カフェ,渋谷区代々木4-2-9ピーズビル2F,03-3370-7256,,35.6786847,139.6932099,ElxKYXBhbiwg44CSMTUxLTAwNTMgVG9reW8sIFNoaWJ1eWEsIFlveW9naSwgNC1jaMWNbWXiiJIy4oiS77yZIOWPguWuruapi-mnheWJje-8ru-8qOODk-ODqyAyZiIeGhwKFgoUChIJqytRcsuMGGAR6oP5FrOtrn8SAjJm
コーヒースタンド烏,飲食,喫茶店・カフェ,喫茶店・カフェ,渋谷区桜丘町30-15ビバリーヒルズ102,03-6416-3918,,35.6557013,139.6980377,ChIJASx171aLGGARuF9bIOj0GOY
珈琲店トップ　駅前店,飲食,喫茶店・カフェ,喫茶店・カフェ,渋谷区道玄坂1-4-19,03-3461-1170,,35.6588537,139.7001166,ChIJdcA86FeLGGAR3DjA__goQJY
珈琲店トップ　道玄坂店,飲食,喫茶店・カフェ,喫茶店・カフェ,渋谷区道玄坂2-29-8道玄坂センタービルB1,03-3461-1624,,35.6592549,139.6979579,EmFKYXBhbiwg44CSMTUwLTAwNDMgVG9reW8sIFNoaWJ1eWEsIETFjWdlbnpha2EsIDItY2jFjW1l4oiSMjniiJLvvJcg6YGT546E5Z2C44K744Oz44K_44O844OT44OrIGIxIh4aHAoWChQKEgnvRr_EqYwYYBGrLMYND1Ge3BICYjE
珈琲風味,飲食,喫茶店・カフェ,喫茶店・カフェ,渋谷区幡ヶ谷3-57-1MKハイツ,03-3378-6635,,35.6800129,139.6726343,ChIJo_7MLCLzGGAREXaj6YXAePQ
コーヒープンクト,飲食,喫茶店・カフェ,喫茶店・カフェ,渋谷区代々木2-12-3プーク人形劇場1階,070-6998-5184,,35.6867325,139.6975059,ChIJu53W6dGMGGARLlAKIqnOfw0
五音,飲食,居酒屋,居酒屋,渋谷区元代々木町3-7大森ビル1階,03-5738-8645,,35.6705474,139.6872503,EkxKYXBhbiwg44CSMTUxLTAwNjIgVG9reW8sIFNoaWJ1eWEsIE1vdG95b3lvZ2ljaMWNLCAz4oiS77yXIOWkp-ajruODk-ODqyAx6ZqOIiAaHgoWChQKEglvaqQ1SvMYYBHpDhTjHwVSzhIEMemajg
極樂食堂(極楽食堂)代々木上原店,飲食,その他(バー・クラブ・スナックなど),カフェバー,渋谷区元代々木町9-4山口ビル1階,03-6804-7797,,35.6699491,139.6856038,EkxKYXBhbiwg44CSMTUxLTAwNjIgVG9reW8sIFNoaWJ1eWEsIE1vdG95b3lvZ2ljaMWNLCA54oiS77yUIOWxseWPo-ODk-ODqyAx6ZqOIiAaHgoWChQKEgljU5iDSfMYYBFRG60eJlfcERIEMemajg
ごはん・ごはん,飲食,日本料理,その他,渋谷区西原2-30-2,03-3466-4032,,35.6757022,139.6778212,ChIJqXNqqDvzGGARrlbwKq_wFC8
ごんべえ,飲食,居酒屋,居酒屋,渋谷区宇田川町31-3第三田中ビルB1F,03-3461-8383,,35.6613426,139.6978405,ChIJY0qYPACNGGARdU54Vi27lsg
歳月,飲食,外国料理,中国料理,渋谷区恵比寿2丁目17-25ジョイナービル 1F,03-6459-3222,,35.64735599999999,139.718426,EllKYXBhbiwg44CSMTUwLTAwMTMgVG9reW8sIFNoaWJ1eWEsIEViaXN1LCAyLWNoxY1tZeKIkjE34oiS77yS77yVIOOCuOODp-OCpOODiuODvOODk-ODqyAxZiIeGhwKFgoUChIJ8e2FPROLGGAR9-0NuxSOWO0SAjFm
CIDER SHACK,飲食,居酒屋,ビアホール,渋谷区東1-27-9奥山ビル1F,03-6450-5680,,35.6540901,139.7074926,EkhPa3V5YW1hIEJsZGcuLCAxZiwgMS1jaMWNbWUtMjctOSBIaWdhc2hpLCBTaGlidXlhLCBUb2t5byAxNTAtMDAxMSwgSmFwYW4iHhocChYKFAoSCYHFQLlcixhgEVxvLsBnHY-BEgIxZg
Cidernaut,飲食,居酒屋,ビアホール,渋谷区神山町16-4堀内ビル,03-6407-8848,,35.6632797,139.6940346,ChIJzWcmWqyMGGAR0QDj9fTGvQs
サウダーヂな東京,飲食,その他(バー・クラブ・スナックなど),カフェバー,渋谷区上原1-32-5ロイヤルテラス202,03-6407-9989,,35.6687771,139.6807486,EjkyMDIsIDEtY2jFjW1lLTMyLTUgVWVoYXJhLCBTaGlidXlhLCBUb2t5byAxNTEtMDA2NCwgSmFwYW4iHxodChYKFAoSCXkZ-N5H8xhgEcGcASXUrtJsEgMyMDI
魚きんめ,飲食,居酒屋,居酒屋,渋谷区道玄坂2-6-14HYビル2F,080-3427-8752,,35.6596288,139.6956206,EjwyZiwgMi1jaMWNbWUtMjItMiBExY1nZW56YWthLCBTaGlidXlhLCBUb2t5byAxNTAtMDA0MywgSmFwYW4iHhocChYKFAoSCcNvIC6qjBhgETZNvulvCTGIEgIyZg
魚十二ヶ月,飲食,居酒屋,居酒屋,渋谷区代々木1-58-7ヴェラハイツ代々木104,03-3370-1142,,35.6845484,139.7005906,ChIJWw_6cM-MGGARCXtCuTkhjPQ
魚の兆治,飲食,居酒屋,居酒屋,渋谷区幡ヶ谷1-6-3 1F,03-3373-5355,,35.676123,139.6739748,EltKYXBhbiwg44CSMTUxLTAwNzIgVG9reW8sIFNoaWJ1eWEsIEhhdGFnYXlhLCAxLWNoxY1tZeKIkjbiiJLvvJMg44K344Ok44Oz44OW44Or5bmh44Kx6LC3IDFmIh4aHAoWChQKEgmLOC7OPPMYYBHa3vOT5LWfJhICMWY
魚屋　かどはち,飲食,日本料理,寿司,渋谷区代官山町20-9H　ビルディング代官山　1階,03-6455-2501,,35.6484348,139.702261,ChIJVW0wmkWLGGARAfRciZjYgOM
魚屋きいもん,飲食,居酒屋,居酒屋,渋谷区恵比寿1-26-15,03-5420-1232,,35.6472227,139.7159015,ChIJQT7TsxSLGGARTqAU57WrZTk
坂の上ホタル,飲食,外国料理,その他,渋谷区西原3-21-1ホタルビル2F,03-5738-7334,,35.6707188,139.6818855,EjsyZiwgMy1jaMWNbWUtMjEtMSBOaXNoaWhhcmEsIFNoaWJ1eWEsIFRva3lvIDE1MS0wMDY2LCBKYXBhbiIeGhwKFgoUChIJDWHG4zfzGGARwlHvIDI_QUoSAjJm
酒場ガソリン,飲食,居酒屋,居酒屋,渋谷区幡ヶ谷2-9-16ライベストコート幡ヶ谷206,03-3373-5520,,35.6786857,139.6773328,ChIJK1XCxiTzGGAR0F8xwjR3E9A
酒場てづか,飲食,居酒屋,居酒屋,渋谷区道玄坂1-13-1Mビル1階,03-6455-0452,,35.6574071,139.6985503,Ej8x6ZqOLCAxLWNoxY1tZS0xMy0xMyBExY1nZW56YWthLCBTaGlidXlhLCBUb2t5byAxNTAtMDA0MywgSmFwYW4iIBoeChYKFAoSCSHpEkxWixhgEXpzZe85r2RoEgQx6ZqO
酒場　まるしゑ,飲食,居酒屋,居酒屋,渋谷区西原3-11-6杉本ビルB1,03-6804-9104,,35.6696143,139.6803068,ElFKYXBhbiwg44CSMTUxLTAwNjYgVG9reW8sIFNoaWJ1eWEsIE5pc2hpaGFyYSwgMy1jaMWNbWXiiJIxMeKIku-8liDmnYnmnKzjg5Pjg6sgYjEiHhocChYKFAoSCTOOBfpH8xhgEZ28hDlRgMRMEgJiMQ
酒場RESISTANCE,飲食,居酒屋,居酒屋,渋谷区幡ヶ谷2-9-19青木ビル2F,03-6383-3205,,35.6783362,139.6774888,ElJKYXBhbiwg44CSMTUxLTAwNzIgVG9reW8sIFNoaWJ1eWEsIEhhdGFnYXlhLCAyLWNoxY1tZeKIkjniiJLvvJHvvJkg6YeR6Yi044OT44OrIDJmIh4aHAoWChQKEgkR3CzJJPMYYBEiAJcUvH2eNhICMmY
SAKUU,飲食,喫茶店・カフェ,喫茶店・カフェ,渋谷区千駄ヶ谷3-55-18REALGATE Bldg. 1F,03-5422-3069,https://www.jinnan.house,35.67537,139.705542,Ej4xZiwgMy1jaMWNbWUtNTUtMy01NSBTZW5kYWdheWEsIFNoaWJ1eWEsIFRva3lvIDE1MS0wMDUxLCBKYXBhbiIeGhwKFgoUChIJxV874ruMGGARoeN3pQqQQpASAjFm
桜ガーデン渋谷 SAKURA GARDEN,飲食,外国料理,その他,渋谷区宇田川町30-5JOWビル5F,03-6427-0545,,35.661594,139.6981574,ChIJb1IBP6mMGGARp8UH7cvFSmE
sake x oysters BAR　石花,飲食,居酒屋,その他,渋谷区猿楽町6-12,03-6416-1128,,35.6527097,139.7035127,ChIJgaC23VqLGGARESC2f8Wb4Ts
酒とご飯ビオサケダイニングリンリン,飲食,居酒屋,居酒屋,渋谷区道玄坂1-22-11星野ビルB!,080-6542-1892,https://www.instagram.com/biosakedining/,35.6564631,139.6956769,ChIJrflI3VWLGGARGF0L-blL_iw
酒と魚の隠れ家兼六,飲食,居酒屋,居酒屋,渋谷区幡ヶ谷2-13-4定石ビル地下1階,03-6276-5175,https://hatagaya-kenroku.com,35.6774939,139.6767312,EjkxLCAyLWNoxY1tZS0xMy00IEhhdGFnYXlhLCBTaGlidXlhLCBUb2t5byAxNTEtMDA3MiwgSmFwYW4iHRobChYKFAoSCc2NYkw78xhgET6xBinCbFWCEgEx
さけとさかなばとん,飲食,居酒屋,居酒屋,渋谷区笹塚1-24-4三好ビル1F,03-5790-9417,,35.67205879999999,139.6686971,EjoxZiwgMS1jaMWNbWUtMjQtNCBTYXNhenVrYSwgU2hpYnV5YSwgVG9reW8gMTUxLTAwNzMsIEphcGFuIh4aHAoWChQKEgkjQdtSFvMYYBFtoK0FsiO9cxICMWY
酒とつまみと〆蕎麦よし川,飲食,日本料理,そば・うどん,渋谷区西原2-28-4宮嶋ビル1階,080-4608-2024,,35.6753079,139.6782603,ElNKYXBhbiwg44CSMTUxLTAwNjYgVG9reW8sIFNoaWJ1eWEsIE5pc2hpaGFyYSwgMi1jaMWNbWXiiJIyOOKIku-8lCDlrq7ltovjg5Pjg6sgMemajiIgGh4KFgoUChIJE6NfsjvzGGAR2OpOqXs_kYkSBDHpmo4
酒とめし osacu,飲食,居酒屋,居酒屋,渋谷区幡ヶ谷1-33-6ビューハイム幡ヶ谷101,080-6904-0039,,35.6764397,139.6765377,ChIJT3KmQjvzGGAR9VQlK2VICII
酒と焼肉　ニュートミー,飲食,ステーキ・焼肉,焼肉,渋谷区恵比寿南1-1-3今鉾ビル1階,03-5708-5129,,35.6465452,139.7087138,ElpKYXBhbiwg44CSMTUwLTAwMjIgVG9reW8sIFNoaWJ1eWEsIEViaXN1bWluYW1pLCAxLWNoxY1tZeKIkjHiiJLvvJMg44Oe44OE44OA44Kk44OT44OrIDHpmo4iIBoeChYKFAoSCaPwZvlAixhgEeodGA409YtsEgQx6ZqO
酒処 おやっとさぁ。,飲食,居酒屋,居酒屋,渋谷区恵比寿西1-7-15エビス加藤ビル2階,03-6416-5283,,35.6481225,139.7085891,Ek1FYmlzdSBLYXRvIEJsZGcuLCAy6ZqOLCAxLWNoxY1tZS03IEViaXN1bmlzaGksIFNoaWJ1eWEsIFRva3lvIDE1MC0wMDIxLCBKYXBhbiIgGh4KFgoUChIJ9aoNc0GLGGARh02ncdN6s8ISBDLpmo4
酒処小林,飲食,居酒屋,居酒屋,渋谷区西原3-6-1,03-6320-9996,,35.6702341,139.6815584,ChIJkyUvA0jzGGARXGSpj4MUuck
酒処　富川,飲食,居酒屋,居酒屋,渋谷区道玄坂1-5-5藤木ビルB1,03-5990-4880,,35.6580299,139.6993626,EjtiMSwgMS1jaMWNbWUtNS01IETFjWdlbnpha2EsIFNoaWJ1eWEsIFRva3lvIDE1MC0wMDQzLCBKYXBhbiIeGhwKFgoUChIJgxXnt1eLGGARt4gx-bM_CVYSAmIx
酒処ニュー萬斎,飲食,居酒屋,居酒屋,渋谷区道玄坂2-20-5酒処ニュー萬斎,03-6455-2665,,35.6593136,139.6965419,ChIJP25tSEiNGGARg87_hiLVoDs
sakeba,飲食,居酒屋,ダイニング・バー,渋谷区渋谷3丁目15-2F93 Shibuya2  7F,03-6427-9142,,35.6566382,139.7058165,ChIJ9QtiwFuLGGARFzZqCKHjoAo
酒みさわ,飲食,居酒屋,居酒屋,渋谷区神泉町9-6ファインクレスト渋谷神泉,03-3461-1427,,35.6546886,139.6931516,ChIJ__9jA1WLGGARjYZ4GgV3Svw
笹吟,飲食,日本料理,日本料理,渋谷区上原1-32-15 第二小林ビル1F,03-5454-3715,,35.6687977,139.6799216,EldKYXBhbiwg44CSMTUxLTAwNjQgVG9reW8sIFNoaWJ1eWEsIFVlaGFyYSwgMS1jaMWNbWXiiJIzMuKIku-8ke-8lSDnrKzkuozlsI_mnpfjg5Pjg6sgMWYiHhocChYKFAoSCTnsxOtH8xhgEW9TJZ_Tkr4NEgIxZg
SASASA dining,飲食,居酒屋,ダイニング・バー,渋谷区笹塚3-19-5大泉商店ビル102,03-6300-0667,,35.677023,139.6673615,EldKYXBhbiwg44CSMTUxLTAwNzMgVG9reW8sIFNoaWJ1eWEsIFNhc2F6dWthLCAzLWNoxY1tZeKIkjE54oiS77yVIOWkp-azieWVhuW6l-ODk-ODqyAxMDIiHxodChYKFAoSCcViKxEZ8xhgEfGpFCQDK6OsEgMxMDI
ささづか酒場　はだか電球,飲食,居酒屋,居酒屋,渋谷区笹塚1-56-1NH駅前ビル2F,03-5352-0141,,35.6739656,139.6669779,Ek9TYXNhenVrYSBFa2ltYWUgQmxkZy4sIDJmLCAxLWNoxY1tZS01NyBTYXNhenVrYSwgU2hpYnV5YSwgVG9reW8gMTUxLTAwNzMsIEphcGFuIh4aHAoWChQKEgmbrBLeGfMYYBGVXDTMW0QfQxICMmY
笹塚ソーススタンド,飲食,居酒屋,居酒屋,渋谷区笹塚2丁目10-6今井ビル16号室,03-5990-6100,,35.6757003,139.6682699,EjoxNiwgMi1jaMWNbWUtMTAtNiBTYXNhenVrYSwgU2hpYnV5YSwgVG9reW8gMTUxLTAwNzMsIEphcGFuIh4aHAoWChQKEglrrJxMGPMYYBHOOdV0MAmozBICMTY
笹塚バルスケッチ,飲食,外国料理,スペイン料理,渋谷区笹塚3-14-1荻野荘1F,03-5309-2878,,35.6774316,139.6671522,ElBKYXBhbiwg44CSMTUxLTAwNzMgVG9reW8sIFNoaWJ1eWEsIFNhc2F6dWthLCAzLWNoxY1tZeKIkjE04oiS77yRIOadvuS5heODk-ODqyAxZiIeGhwKFgoUChIJScqkPhnzGGARnaBm8lprj0MSAjFm
笹塚ピザCamp,飲食,外国料理,イタリア料理,渋谷区笹塚1-57-15笹塚店舗2階,090-1423-1307,,35.6740219,139.6671622,ElJKYXBhbiwg44CSMTUxLTAwNzMgVG9reW8sIFNoaWJ1eWEsIFNhc2F6dWthLCAxLWNoxY1tZeKIkjU34oiS77yR77yVIOWkquaoueiLkSAy6ZqOIiAaHgoWChQKEglVU8jeGfMYYBFyj_ROknokXxIEMumajg
笹よし,飲食,日本料理,日本料理,渋谷区幡ヶ谷2-30-2ヒマラヤクラウドビル1階,03-3374-3345,,35.6759051,139.6713459,ChIJyRTMsSLzGGARqG-p6lvbcHA
さつま おてちきや,飲食,居酒屋,居酒屋,渋谷区渋谷2-8-4東和青山ビルB02,03-3400-7071,,35.6604903,139.7074074,EkZKYXBhbiwg44CSMTUwLTAwMDIgVG9reW8sIFNoaWJ1eWEsIDItY2jFjW1l4oiSOCDmnbHlkozpnZLlsbHjg5Pjg6sgYjAyIh8aHQoWChQKEgl1vwskX4sYYBH5Zf6M683g4BIDYjAy
sathi渋谷,飲食,外国料理,インド料理,渋谷区渋谷2-5-9パル青山101,03-3409-9667,,35.6594619,139.7080705,ChIJQaF17F6LGGARMA2cGG1el-A
SUNNY LOT,飲食,喫茶店・カフェ,喫茶店・カフェ,渋谷区神宮前1-1-8-102,070-1063-8000,https://www.toizm.com/sunnylot,35.6738702,139.7067126,ChIJPVG5fryMGGAR1Rm3v2ihV7E
サバス カフェバー アンド シーシャ ガーデン,飲食,その他(バー・クラブ・スナックなど),カフェバー,渋谷区初台2-1-3パラータ初台1F,03-5860-8335,,35.6739886,139.687192,ElVKYXBhbiwg44CSMTUxLTAwNjEgVG9reW8sIFNoaWJ1eWEsIEhhdHN1ZGFpLCAyLWNoxY1tZeKIkjHiiJLvvJMg44OR44Op44O844K_5Yid5Y-wIDFmIh4aHAoWChQKEgl3GeLANfMYYBEoxKgHbkAlDxICMWY
SUPPLY,飲食,外国料理,イタリア料理,渋谷区幡ヶ谷1-5-6金井ビル　1階,080-4335-3038,,35.6764573,139.67493,ElFKYXBhbiwg44CSMTUxLTAwNzIgVG9reW8sIFNoaWJ1eWEsIEhhdGFnYXlhLCAxLWNoxY1tZeKIkjXiiJLvvJYg6YeR5LqV44OT44OrIDHpmo4iIBoeChYKFAoSCQPL07A88xhgERlI4GdyRrlZEgQx6ZqO
SAM,飲食,外国料理,イタリア料理,渋谷区代々木4-45-5パークテラス参宮橋101,080-1135-0879,,35.6793894,139.69065,El5KYXBhbiwg44CSMTUxLTAwNTMgVG9reW8sIFNoaWJ1eWEsIFlveW9naSwgNC1jaMWNbWXiiJI0NeKIku-8lSDjg5Hjg7zjgq_jg4bjg6njgrnlj4Llrq7mqYsgMTAxIh8aHQoWChQKEgkHvgFPM_MYYBH7fkGvcC16CBIDMTAx
更科,飲食,日本料理,そば・うどん,渋谷区初台1-39-10,03-3370-6034,,35.680007,139.6871776,ChIJDxivNzLzGGARWBb4jEpD9HU
茶寮伊勢藤次郎,飲食,日本料理,日本料理,渋谷区渋谷2-21-1渋谷ヒカリエ7階,03-6434-1483,https://tabelog.com/tokyo/A1303/A130301/13140106/,35.6588387,139.7029809,EjI36ZqOLCAyLWNoxY1tZS0yMS0xIFNoaWJ1eWEsIFRva3lvIDE1MC0wMDAyLCBKYXBhbiIgGh4KFgoUChIJ8fA5MjGLGGARkr87kmYYzzESBDfpmo4
サレ・ポワヴレ・ウノ,飲食,外国料理,フランス料理,渋谷区上原1-12-3サンフラッツFIKビル 1F,03-3466-0866,,35.6681415,139.6836966,ChIJjWQkHEnzGGARJMgNKexpsMo
彩わ,飲食,日本料理,小料理,渋谷区代々木3-43-1ガーリックビル103,03-6300-0991,,35.6803061,139.6945544,EklKYXBhbiwg44CSMTUxLTAwNTMgVG9reW8sIFNoaWJ1eWEsIFlveW9naSwgMy1jaMWNbWXiiJI0M-KIku-8kSDlvanjgo8gMTAzIh8aHQoWChQKEglnaT52zIwYYBGE2mqInxrT7hIDMTAz
San.,飲食,その他(バー・クラブ・スナックなど),バー,渋谷区上原1-2-1,090-4226-7724,,35.6681049,139.6872589,ChIJXSikCkzzGGARdq7aRGr8Nk8
サンカフェ,飲食,喫茶店・カフェ,喫茶店・カフェ,渋谷区恵比寿4-23-12　茗荷原ビル3階,03-3442-7479,,35.6445625,139.7154657,ElVKYXBhbiwg44CSMTUwLTAwMTMgVG9reW8sIFNoaWJ1eWEsIEViaXN1LCA0LWNoxY1tZeKIkjIz4oiS77yR77ySIOiMl-iNt-WOn-ODk-ODqyAz6ZqOIiAaHgoWChQKEgntF51nFIsYYBGrA-H9oJu1PBIEM-majg
参宮橋あさや,飲食,日本料理,うなぎ,渋谷区代々木4-6-5,080-3466-3099,,35.6785953,139.6933809,ChIJA3ZXC8uMGGAR-Bjs1oFwiDk
参宮橋いぶさな,飲食,ステーキ・焼肉,ステーキ,渋谷区代々木4-10-7小淵ビル1F,03-6304-2728,,35.6783747,139.6927428,ChIJkeeobMuMGGAR4VW9rRtpeEE
サングリア,飲食,外国料理,イタリア料理,渋谷区桜丘町17-10吉野ビル2階,03-3496-3697,,35.6562724,139.7009995,ElRKYXBhbiwg44CSMTUwLTAwMzEgVG9reW8sIFNoaWJ1eWEsIFNha3VyYWdhb2thY2jFjSwgMTfiiJLvvJHvvJAg77yt77yj77yk44OT44OrIDLpmo4iIBoeChYKFAoSCTGnwF5XixhgER-9IN8R00AWEgQy6ZqO
燦々,飲食,日本料理,日本料理,渋谷区宇田川町37-15ヨネクラハウス　1F,03-6416-8983,,35.6626431,139.6951254,ChIJC2h-DayMGGARL8PVt-nT6fg
さんじゅうろくどごぶのお昼ご飯,飲食,喫茶店・カフェ,喫茶店・カフェ,渋谷区幡ヶ谷2-13-1平沼ビル201,03-5351-3605,,35.6776142,139.6770302,El1KYXBhbiwg44CSMTUxLTAwNzIgVG9reW8sIFNoaWJ1eWEsIEhhdGFnYXlhLCAyLWNoxY1tZeKIkjEz4oiS77yT4oiS77yT77yQ77yRIOW5s-ayvOODk-ODqyAyMDEiHxodChYKFAoSCZHPWUo78xhgESAQMfPr_H3yEgMyMDE
santafe,飲食,その他(バー・クラブ・スナックなど),バー,渋谷区道玄坂2-7-21F,03-6455-3253,,35.6596288,139.6956206,Ej0yMWYsIDItY2jFjW1lLTIyLTIgRMWNZ2VuemFrYSwgU2hpYnV5YSwgVG9reW8gMTUwLTAwNDMsIEphcGFuIh8aHQoWChQKEgnDbyAuqowYYBE2Tb7pbwkxiBIDMjFm
さんだらぼっち,飲食,その他(バー・クラブ・スナックなど),スナック・パブ・キャバレー,渋谷区幡ヶ谷2-8-5近藤ビル2階,03-3374-2368,,35.6779946,139.6772495,ElFKYXBhbiwg44CSMTUxLTAwNzIgVG9reW8sIFNoaWJ1eWEsIEhhdGFnYXlhLCAyLWNoxY1tZeKIkjjiiJLvvJUg6L-R6Jek44OT44OrIDLpmo4iIBoeChYKFAoSCb3dXsok8xhgEXCqIRGyNWTJEgQy6ZqO
SandoSando,飲食,外国料理,イタリア料理,渋谷区代々木4-50-8参宮橋ゲストハウス1階,03-6687-7713,,35.6781642,139.6917955,El9KYXBhbiwg44CSMTUxLTAwNTMgVG9reW8sIFNoaWJ1eWEsIFlveW9naSwgNC1jaMWNbWXiiJI1MOKIku-8mCDlj4Llrq7mqYvjgrLjgrnjg4jjg4_jgqbjgrkgMemajiIgGh4KFgoUChIJv6EkRsuMGGARETCS6y3STUMSBDHpmo4
サンフォコン,飲食,外国料理,フランス料理,渋谷区西原3-5-3小林ビル1階,070-4383-3567,,35.6700591,139.6814171,EltKYXBhbiwg44CSMTUxLTAwNjYgVG9reW8sIFNoaWJ1eWEsIE5pc2hpaGFyYSwgMy1jaMWNbWXiiJI14oiS77yTIOODq-ODjeS7o-OAheacqOS4iuWOnyAx6ZqOIiAaHgoWChQKEgnN2oADSPMYYBGwu82vWMzmiBIEMemajg
三陸,飲食,居酒屋,居酒屋,渋谷区代々木1-39-11MFPR代々木タワー2F,03-3320-8800,,35.6826946,139.7000915,ChIJ80ULnfONGGAR5WQua5-EfiY
SALA ridente,飲食,外国料理,イタリア料理,渋谷区恵比寿西2-17-22アプリュスII 一階,03-6427-0440,,35.6490454,139.7062653,EkHkuIDpmo4sIDItY2jFjW1lLTE3LTIyIEViaXN1bmlzaGksIFNoaWJ1eWEsIFRva3lvIDE1MC0wMDIxLCBKYXBhbiIiGiAKFgoUChIJmQh7CUSLGGARInkrNu0vKDwSBuS4gOmajg
THAうちあげ,飲食,居酒屋,居酒屋,渋谷区笹塚2-7-9ライブイン笹塚1階,03-5351-0711,,35.6751748,139.669026,ElpKYXBhbiwg44CSMTUxLTAwNzMgVG9reW8sIFNoaWJ1eWEsIFNhc2F6dWthLCAyLWNoxY1tZeKIkjfiiJLvvJkg44Op44Kk44OW44Kk44Oz56y55aGaIDHpmo4iIBoeChYKFAoSCf15qDwY8xhgEcNDMruIx8SxEgQx6ZqO
THE OAK LEAF,飲食,その他(バー・クラブ・スナックなど),バー,渋谷区東2-17-12十一ビル　1階,03-6427-2257,,35.6527326,139.70914,Ejwx6ZqOLCAyLWNoxY1tZS0xNy0xMiBIaWdhc2hpLCBTaGlidXlhLCBUb2t5byAxNTAtMDAxMSwgSmFwYW4iIBoeChYKFAoSCf82ZuBCixhgEa1F0c3MYENyEgQx6ZqO
THE GRUB 代々木上原,飲食,居酒屋,ダイニング・バー,渋谷区上原1-32-15第二小林ビル2階,03-6804-8714,,35.6687977,139.6799216,EllKYXBhbiwg44CSMTUxLTAwNjQgVG9reW8sIFNoaWJ1eWEsIFVlaGFyYSwgMS1jaMWNbWXiiJIzMuKIku-8ke-8lSDnrKzkuozlsI_mnpfjg5Pjg6sgMumajiIgGh4KFgoUChIJOezE60fzGGARb1Mln9OSvg0SBDLpmo4
THE COFFEESHOP ROAST WORKS,飲食,喫茶店・カフェ,喫茶店・カフェ,渋谷区富ヶ谷2-22-12Vitre Yoyogi Park 1F,03-6407-1344,,35.6666099,139.6926078,ChIJwz1IlLKMGGAR8nhrlxWKygM
THE THEATRE TABLE,飲食,喫茶店・カフェ,喫茶店・カフェ,渋谷区渋谷2-21-1渋谷ヒカリエ 11F,03-3486-8411,,35.6591239,139.7037298,ChIJP6jlUFiLGGAR5fwuswd1KXA
The6Market,飲食,喫茶店・カフェ,その他,渋谷区上原1-17-10-101横山アパート,03-6314-3176,,35.6690723,139.6824863,ChIJy1tNQ0jzGGARQWAdL5avpzk
THE TEST KITCHEN,飲食,喫茶店・カフェ,喫茶店・カフェ,渋谷区恵比寿4丁目20-4恵比寿ガーデンプレイス グラススクエア B1F POTAL POINT Ebisu E,050-1745-7875,,35.6425766,139.7129383,ChIJlZNt6hWLGGARGQFIt1EvQWc
THE BLUE POSTS,飲食,その他(バー・クラブ・スナックなど),カフェバー,渋谷区恵比寿1-8-14大黒ビル1階 28,070-8496-1242,,35.64722,139.7153418,EjkxLDI4LCAxLWNoxY1tZS0yNi0xIEViaXN1LCBTaGlidXlhLCBUb2t5byAxNTAtMDAxMywgSmFwYW4iIBoeChYKFAoSCauqu8oUixhgEUujFtyODFNKEgQxLDI4
The Bake,飲食,その他(バー・クラブ・スナックなど),その他,渋谷区鶯谷町7-6磯田ビル1階,03-5428-3933,,35.6541213,139.701179,EkxKYXBhbiwg44CSMTUwLTAwMzIgVG9reW8sIFNoaWJ1eWEsIFVndWlzdWRhbmljaMWNLCA34oiS77yWIOejr-eUsOODk-ODqyAx6ZqOIiAaHgoWChQKEgmD3KefUIsYYBHEAn4ynpIqaRIEMemajg
THE LINKING アメリカンダイナー,飲食,ステーキ・焼肉,ステーキ,渋谷区神南1-14-9 第7FMGビル　1F,03-6416-5882,https://yoyaku.tabelog.com/yoyaku/smartphone/net_booking_form/index?rcd=13281122,35.6638065,139.7000483,Ek9KYXBhbiwg44CSMTUwLTAwNDEgVG9reW8sIFNoaWJ1eWEsIEppbm5hbiwgMS1jaMWNbWXiiJIxNOKIku-8mSDnrKw3Rm1n44OT44OrIDFmIh4aHAoWChQKEgkJUxvKqIwYYBH1Po8mAVl_DhICMWY
ZANZIBAR,飲食,その他(バー・クラブ・スナックなど),バー,渋谷区富ヶ谷1-43-23代々木公園ガーデニア102,03-3481-9179,,35.6672561,139.6908782,ChIJ9aBAMJ_zGGARsdfVHIb4tW4
紫煙,飲食,喫茶店・カフェ,喫茶店・カフェ,渋谷区道玄坂2-7-2東方ビル1F,03-6455-2276,,35.6586363,139.6988056,ElFKYXBhbiwg44CSMTUwLTAwNDMgVG9reW8sIFNoaWJ1eWEsIETFjWdlbnpha2EsIDItY2jFjW1l4oiSN-KIku-8kiDmnbHmlrnjg5Pjg6sgMWYiHhocChYKFAoSCd-qStNXixhgEaj_9vT2CfKzEgIxZg
潮待ち,飲食,居酒屋,居酒屋,渋谷区上原1丁目34-10志賀屋ビル202号室,03-6804-8484,,35.6693976,139.6820247,ElVKYXBhbiwg44CSMTUxLTAwNjQgVG9reW8sIFNoaWJ1eWEsIFVlaGFyYSwgMS1jaMWNbWXiiJIzNOKIku-8ke-8kCDlv5fos4DlsYvjg5Pjg6sgMjAyIh8aHQoWChQKEgnd8ElrSPMYYBH0wkQPr-6b-hIDMjAy
シガニーベイクアンドコーヒー,飲食,喫茶店・カフェ,喫茶店・カフェ,渋谷区上原1丁目17番7号　フレニティハウス2F,03-6804-7270,,35.6689867,139.682563,ChIJlwhiXEjzGGARoJKQ9NaalHE
四季ごはん 晴れ間。,飲食,日本料理,日本料理,渋谷区上原1-1-20,03-6804-9980,,35.6683883,139.6875181,ChIJqQuxi0vzGGAR3W_ne97wrhg
志ぐれ,飲食,その他(バー・クラブ・スナックなど),バー,渋谷区神山町10-8グランドゥール1階,03-6770-6589,,35.66347409999999,139.694736,ElpKYXBhbiwg44CSMTUwLTAwNDcgVG9reW8sIFNoaWJ1eWEsIEthbWl5YW1hY2jFjSwgMTDiiJLvvJgg44Ki44Or44OV44Kh44Oe44OD44Kv44K577yRIDHpmo4iIBoeChYKFAoSCeOf7UasjBhgETENMCTOkgBXEgQx6ZqO
ししくら,飲食,日本料理,日本料理,渋谷区恵比寿1-25-3ルヴェドゥプランタン1階,03-6277-3866,,35.6470115,139.7162296,Ejkx6ZqOLCAxLWNoxY1tZS0yNS0zIEViaXN1LCBTaGlidXlhLCBUb2t5byAxNTAtMDAxMywgSmFwYW4iIBoeChYKFAoSCVsIeaUUixhgEVlZG2aPZSq-EgQx6ZqO
しじゅうから,飲食,その他(バー・クラブ・スナックなど),バー,渋谷区東1-27-5シンエイ東ビル3階,03-6419-7525,,35.6545083,139.7070161,ChIJczWNmVyLGGARDXD-B0KP6kk
七福,飲食,その他(バー・クラブ・スナックなど),その他,渋谷区上原1-25-9,03-5454-8735,,35.6683096,139.6818125,ChIJicNPYkjzGGARgEdRLq9636c
七福餃子楼,飲食,居酒屋,居酒屋,渋谷区恵比寿南1-8-10,03-6303-0910,,35.6461371,139.7091982,ChIJMeDjXkCLGGARCwk1efnx1a4
6GRAMSstreet,飲食,居酒屋,ダイニング・バー,渋谷区恵比寿南2-1-11恵比寿A・Mビル1a,03-6303-3156,,35.6460517,139.7072726,ElVKYXBhbiwg44CSMTUwLTAwMjIgVG9reW8sIFNoaWJ1eWEsIEViaXN1bWluYW1pLCAyLWNoxY1tZeKIkjEg5oG15q-U5a-_77yh77yt44OT44OrIDFhIh4aHAoWChQKEgklTH7ZQIsYYBEp3BWjSJ5CexICMWE
シティ倶楽部,飲食,居酒屋,ダイニング・バー,渋谷区代々木2-23-1ニューステイトメナー114,03-5365-2212,,35.6861351,139.698123,ChIJ3VKEPM6MGGARutxbbkwnjU0
獅天鶏飯,飲食,外国料理,東南アジア料理,渋谷区渋谷3-18-10 大野ビル2号館2F,03-6811-1193,,35.656977,139.7039981,ChIJ184aeFmLGGAR49oMYUDwGoM
獅天鶏飯ハナレ,飲食,外国料理,東南アジア料理,渋谷区渋谷1-24-7渋谷フラットビル2F,03-6712-5363,,35.6605845,139.7019999,EkNTaGlidXlhIEZsYXQgQmxkLiwgMmYsIDEtY2jFjW1lLTI0LTcgU2hpYnV5YSwgVG9reW8gMTUwLTAwMDIsIEphcGFuIh4aHAoWChQKEglXjS5Wz40YYBFjgPEaGxl3IBICMmY
渋2鮨 & Bar,飲食,日本料理,寿司,渋谷区渋谷2-7-13,03-3407-5777,https://goo.gl/maps/TrMXq5sQLu2imZoH7,35.66037439999999,139.7076416,ChIJtS40IF-LGGAR3lbZYpdP3ow
shibuya101,飲食,居酒屋,ダイニング・バー,渋谷区宇田川町34-6M&Iビル3F-A,03-6416-4369,,35.6612574,139.6963824,ChIJq6qmYamMGGARuTHJC02i0rw
渋谷花魁,飲食,居酒屋,ダイニング・バー,渋谷区道玄坂2丁目22-6ゴールデンヒルズA棟,03-5456-8782,,35.659715,139.6955557,Ej5h5qOfLCAyLWNoxY1tZS0yMi02IETFjWdlbnpha2EsIFNoaWJ1eWEsIFRva3lvIDE1MC0wMDQzLCBKYXBhbiIgGh4KFgoUChIJI2sSMqqMGGARXZtwteUMKYkSBGHmo58
渋谷カフェ＆テラス BBQ Noan,飲食,喫茶店・カフェ,喫茶店・カフェ,渋谷区宇田川町37番地16レジディア渋谷2F,03-5738-8455,,35.6626836,139.6950138,ChIJ662DbayMGGARfW2ohUcUPzQ
渋谷神山　聞弦坊,飲食,日本料理,そば・うどん,渋谷区神山町11-17日興パレス渋谷,03-5478-1157,,35.6637067,139.6939487,ChIJebkUVKyMGGAR6lJJXigo1wQ
渋谷GABIGABI,飲食,その他(バー・クラブ・スナックなど),バー,渋谷区道玄坂1-13-3MST道玄坂2階,03-3463-5538,,35.6574071,139.6985503,Ej8y6ZqOLCAxLWNoxY1tZS0xMy0xMyBExY1nZW56YWthLCBTaGlidXlhLCBUb2t5byAxNTAtMDA0MywgSmFwYW4iIBoeChYKFAoSCSHpEkxWixhgEXpzZe85r2RoEgQy6ZqO
渋谷ゴルフクラブ,飲食,その他(バー・クラブ・スナックなど),バー,渋谷区円山町25-7ファザーランド渋谷5階,080-4833-4400,,35.6559073,139.6934408,ElpKYXBhbiwg44CSMTUwLTAwNDQgVG9reW8sIFNoaWJ1eWEsIE1hcnV5YW1hY2jFjSwgMjXiiJLvvJcg44OT44K444On44Oz5riL6LC36YGT546E5Z2CIDXpmo4iIBoeChYKFAoSCW-zFHRVixhgEYlsaStlC4klEgQ16ZqO
渋谷東急REIホテル　レストラン「ハシュハシュ」,飲食,外国料理,その他,渋谷区渋谷1-24-10,03-3498-0173,https://www.tokyuhotels.co.jp/shibuya-r/restaurant/index.html,35.6602241,139.7020666,ChIJW4AHCFiLGGARIu42Rr6U5q4
渋谷のラジオラジ公ドリンクスタンド,飲食,喫茶店・カフェ,喫茶店・カフェ,渋谷区渋谷2-21-1渋谷Hikarie ヒカリエデッキ 4階,03-6805-0282,,35.6591239,139.7037298,ChIJP6jlUFiLGGAR5fwuswd1KXA
SHIBUYA BALL,飲食,その他(バー・クラブ・スナックなど),バー,渋谷区宇田川町4番9号くれたけビル 4階,03-3476-6533,,35.6624804,139.6977086,EkVLdXJldGFrZSBCbGRnLiwgNOmajiwgNC05IFVkYWdhd2FjaMWNLCBTaGlidXlhLCBUb2t5byAxNTAtMDA0MiwgSmFwYW4iIBoeChYKFAoSCXU3tjmpjBhgEZFfbUpthS92EgQ06ZqO
渋谷フォルチェ,飲食,居酒屋,ビアホール,渋谷区道玄坂1-5-2渋谷SEDEビル5F,03-3476-7776,,35.6580491,139.6995089,Ejs1ZiwgMS1jaMWNbWUtNS0yIETFjWdlbnpha2EsIFNoaWJ1eWEsIFRva3lvIDE1MC0wMDQzLCBKYXBhbiIeGhwKFgoUChIJTSU_uFeLGGARr4v9PKe4BQsSAjVm
Shibuya　Fromage　倶楽部　,飲食,居酒屋,ダイニング・バー,渋谷区道玄坂2-10-1,03-3464-2030,,35.657689,139.6964921,ChIJhSycBlaLGGARTEESh40nZwI
渋谷ベルゴ,飲食,外国料理,その他,渋谷区渋谷3-18-7 B1F渋谷東一号館ビル,03-3409-4442,,35.6571532,139.7038157,EjfkuIDlj7fppKgsIDMtY2jFjW1lLTE4LTcgU2hpYnV5YSwgVG9reW8gMTUwLTAwMDIsIEphcGFuIiUaIwoWChQKEglpTcudWYsYYBFdQNFYv5ENShIJ5LiA5Y-36aSo
渋谷マスダ亭,飲食,日本料理,お好み焼き,渋谷区宇田川町22-1マスダ亭,03-3462-0016,,35.65972670000001,139.7000068,ChIJlZ48IqiMGGARzp8uS3eC5iY
シャイニーアウル表参道,飲食,外国料理,イタリア料理,渋谷区神宮前4-7-1,03-6851-4368,,35.6686506,139.7121411,ChIJJaEeUp-MGGARH5pE9SrdLXU
シャイニーアウル富ヶ谷,飲食,日本料理,その他,渋谷区富ヶ谷1丁目35番23号,03-6772-4385,,35.6675622,139.6884796,ChIJVQJQYEzzGGAR9EsTnQs821o
写真集食堂　めぐたま,飲食,日本料理,日本料理,渋谷区東　3-2-7,03-6805-1838,,35.6519161,139.7129572,ChIJZ-wmlWmLGGARQBt2racmDDo
SHUTTERS表参道,飲食,外国料理,イタリア料理,渋谷区神宮前6-28-6キュープラザ原宿3F,03-6712-5077,https://tabelog.com/tokyo/A1306/A130601/13180219/,35.6671291,139.7038071,El1KYXBhbiwg44CSMTUwLTAwMDEgVG9reW8sIFNoaWJ1eWEsIEppbmfFq21hZSwgNi1jaMWNbWXiiJIyOOKIku-8liDjgq3jg6Xjg7zjg5fjg6njgrbljp_lrr8gM2YiHhocChYKFAoSCZmScEukjBhgEVZD87hpe5_1EgIzZg
上海ダイニング嘉麟香(カリンシャン),飲食,外国料理,中国料理,渋谷区神宮前3-41-2岡本ビル2F,03-6434-0985,,35.6710352,139.7136324,EjsyZiwgMy1jaMWNbWUtNDEtMiBKaW5nxattYWUsIFNoaWJ1eWEsIFRva3lvIDE1MC0wMDAxLCBKYXBhbiIeGhwKFgoUChIJ-aPK5ZiMGGAR47vsL4qYDE0SAjJm
上海飯店,飲食,外国料理,中国料理,渋谷区代々木4-10-9上海飯店,03-3370-3939,https://m.facebook.com/shanghaihanten.sangubashi/,35.6782221,139.6924584,ChIJF8XMasuMGGARPIuJKK18FEw
上海飲茶猪八戒,飲食,外国料理,中国料理,渋谷区千駄ヶ谷1-7-11姉妹舎ビル1階,03-3401-3775,,35.6785373,139.7100989,ElhKYXBhbiwg44CSMTUxLTAwNTEgVG9reW8sIFNoaWJ1eWEsIFNlbmRhZ2F5YSwgMS1jaMWNbWXiiJI34oiS77yR77yRIOWnieWmueiIjuODk-ODqyAx6ZqOIiAaHgoWChQKEglTaSBCvowYYBG3U9-ivkhNdhIEMemajg
