show_name,parent_category,middle_category,child_category,address,tel,google_url,latitude,longitude,google_place_id
ICON,飲食,外国料理,その他,渋谷区代々木代々木1-41-4,080-7399-3894,,35.6826878,139.6997519,ChIJyc9j_M6MGGARwYUNTTlDJRA
ai's,飲食,外国料理,イタリア料理,渋谷区広尾1-1-38スクエアサイドビル1F,03-6712-6201,,35.6499856,139.71211789999998,ChIJE9QQ_26LGGARVXG4J6v116k
あいと電氣餅店,飲食,喫茶店・カフェ,その他,渋谷区富ヶ谷1-3-4川端ハイツ　1F,03-5738-7849,https://liff.line.me/1645278921-kWRPP32q/?accountId=denkimochi,35.6694104,139.6896639,ChIJT5uFE5rzGGARx4PrF5s0AkQ
あいぱくTOKYO,飲食,喫茶店・カフェ,その他,渋谷区神宮前1-20-4アクシア原宿103C,03-6823-4761,,35.671553599999996,139.7048403,ChIJ46GfYgCNGGARpAbKBH6qpMA
Irish Pub Banshee,飲食,その他(バー・クラブ・スナックなど),その他,渋谷区宇田川町33-8エミリアビル1階,03-6809-0580,,35.66080850000001,139.6968652,ChIJSzfzlAKNGGARpzGesUScayQ
アウルセカンドフロア,飲食,その他(バー・クラブ・スナックなど),カフェバー,渋谷区幡ヶ谷2-47-11田口ビル2F,080-9155-2960,,35.6792091,139.6771557,ChIJgbd9Du7zGGARWTf9O3c_dHI
あおさんかく,飲食,日本料理,その他,渋谷区本町5-38-10SKプラネット101,03-6300-4923,,35.6820868,139.6757197,ChIJw1KXCtDzGGARE2l0RimbQAw
青山煮干しラーメンハレルヤ,飲食,日本料理,ラーメン,渋谷区渋谷2-9-10青山台ビルB1,03-6433-5083,https://instagram.com/kidzhareruya?igshid=OGQ5ZDc2ODk2ZA==,35.6607512,139.7073814,ChIJFYpiO1-LGGAR9WHtdudO334
赤垣,飲食,日本料理,うなぎ,渋谷区初台1-38-11赤垣,080-6519-0307,,35.6803221,139.68693059999998,ChIJa3A_PDLzGGARK3kyYtKb5t0
赤札屋代々木店,飲食,居酒屋,居酒屋,渋谷区千駄ヶ谷4-29-12北参道ダイヤモンドパレス101,03-6459-2762,,35.681039399999996,139.7038643,ChIJoTwBRQCNGGARAqNYv4MUdco
akarimado,飲食,居酒屋,居酒屋,渋谷区幡ヶ谷2-8-15KODAビル幡ヶ谷1階,03-6273-6200,,35.6781022,139.6770118,ChIJR2LsUfzzGGARK0oZWENKBIQ
あきさば,飲食,ステーキ・焼肉,焼肉,渋谷区神宮前6丁目19-14神宮前ハッピービル,090-4220-2411,,35.6632856,139.70237219999999,ChIJxzgHkKGNGGARXeAcw0IKuLI
アキッチョ笹塚バンブー,飲食,外国料理,イタリア料理,渋谷区笹塚2-10-6今井ビル103,03-6276-0122,,35.675700299999995,139.66826989999998,ChIJ__-PTBjzGGAREDVGWMEsqmU
Aquavit,飲食,その他(バー・クラブ・スナックなど),バー,渋谷区宇田川町31-4シノダビルB1,090-1705-2834,,35.661286,139.697868,ChIJjQycDqmMGGARU0mHptRtsz8
AKUBI-台湾火鍋&クラフトビール-,飲食,外国料理,その他,渋谷区猿楽町2-13F93daikanyama 1F,03-6433-7987,,35.6587813,139.6980754,ChIJvzKVcQmLGGARjips3CTbjf4
アサッテムニュ,飲食,外国料理,その他,渋谷区千駄ヶ谷3-17-5グエル・サカエ北参道 1F,03-6434-5436,,35.6760898,139.7076375,ChIJwW3OJ0CNGGAR37JGHNWEAng
あさひや,飲食,日本料理,そば・うどん,渋谷区恵比寿南1-4-2アサヒヤビル7階,03-3713-8765,,35.6464402,139.7092211,ChIJpb9BOgCLGGARnbLljTpYkx0
アジアンダイニングバー謝々ホテル,飲食,居酒屋,ダイニング・バー,渋谷区元代々木町2-9シティーハウス代々木公園1.2階,03-3467-7314,,35.670077899999995,139.6874566,ChIJjQfptkvzGGARvkxLr7-Llwk
アジアンキッチンラーイマーイ,飲食,外国料理,その他,渋谷区神宮前4-9-5,03-6434-0756,,35.667345399999995,139.71102,ChIJ9RVk3aGMGGARSHt-SwyigDI
asianstandAMA,飲食,外国料理,東南アジア料理,渋谷区代々木1-33-11階,03-6455-5127,,35.682618399999996,139.7024007,ChIJecayrC6NGGAR0WC3ywFrsvc
Asian dining and bar sathi,飲食,外国料理,インド料理,渋谷区猿楽町23-6Scott side 代官山2f,03-3476-7080,,35.648879,139.701743,ChIJb3U9eUWLGGARJOlX-gEfW7o
Asian dining and bar bharat,飲食,外国料理,インド料理,渋谷区笹塚3丁目9番7号,03-3370-6577,,35.6772206,139.6690837,ChIJoxx18RjzGGARbFVAa9xLe9A
AsianDiningMomoCaveTokyo,飲食,外国料理,無国籍料理,渋谷区代々木4-5-1,03-3377-8455,,35.6785822,139.69263519999998,ChIJgZWdFMuMGGAR4WHIj4WeV0Y
アジアンパーム  渋谷本町店,飲食,外国料理,東南アジア料理,渋谷区本町2-14-4SHビル1階,03-3372-9050,,35.6820941,139.6819973,ChIJbzu4dS_zGGARkqEevEpAeWU
アジアン屋台バル　クアトロ,飲食,居酒屋,居酒屋,渋谷区恵比寿南1-7-8ニューライフ恵比寿102,03-3714-9196,,35.6462101,139.7097661,ChIJIVrKaUCLGGARnBv_Fp89Ahg
味の店　たけ,飲食,日本料理,その他,渋谷区富ヶ谷2-21-13,03-3467-7441,,35.6614769,139.6875771,ChIJFwNxS1LzGGARhy_Yqw4EHT4
アスタリスク1103,飲食,喫茶店・カフェ,喫茶店・カフェ,渋谷区渋谷1-10-3スタープラザ青山　1F,03-6805-0656,,35.660626,139.705178,ChIJY4r1lViLGGARe_ZkHopxtA8
as always,飲食,居酒屋,ビアホール,渋谷区東3-20-8オリエンタルビル1F,03-6419-3039,https://www.instagram.com/as_always_goro,35.649904299999996,139.70905299999998,ChIJ8zsr4JWLGGAR_8NTuAXFHrY
あそぼうよ,飲食,居酒屋,居酒屋,渋谷区恵比寿1-26-12　フラット16 1F,080-9713-5100,,35.6471819,139.7164416,ChIJL-_9qBSLGGARiRO-3R9XBe8
UPLIGHT COFFEE,飲食,喫茶店・カフェ,喫茶店・カフェ,渋谷区渋谷2-23-16渋谷駅東口地下広場 B2F,03-6324-2739,,35.659244799999996,139.7020918,ChIJ-XSO0XOLGGARNGbl37WJx4o
アテド,飲食,居酒屋,居酒屋,渋谷区神泉町12-6,090-4397-0602,https://atedo.amebaownd.com/,35.655963799999995,139.69238239999999,ChIJ8aV5XVWLGGAR-bZ1TRinH4s
ADENIAアデニア,飲食,外国料理,フランス料理,渋谷区鉢山町1番7号,03-5489-5151,,35.653414,139.6988064,ChIJQ1CHIFGLGGARItSJudSzi1w
アデージョ,飲食,その他(バー・クラブ・スナックなど),スナック・パブ・キャバレー,渋谷区道玄坂2丁目8-8コスモ渋谷館505,03-3770-7769,,35.658446,139.698328,ChIJTfPlLlaLGGARcfqjUa-1NfM
アトリア参宮橋,飲食,喫茶店・カフェ,喫茶店・カフェ,渋谷区代々木4-50-13,03-6276-6777,,35.6784944,139.6914734,ChIJ36MnfHmNGGAR8CegY1GLb5k
アトリエレカイユ,飲食,外国料理,フランス料理,渋谷区千駄ヶ谷3-27-4小林ビル1階,03-6434-0234,,35.677088999999995,139.70800939999998,ChIJT8FBl76MGGAR4iXjW9mYPfc
あなくま,飲食,居酒屋,ダイニング・バー,渋谷区上原3-26-5幸信ビル101,03-5941-6122,,35.6641538,139.6759138,ChIJq6qZskbzGGARwCsThfqomoY
ANANAS COFFEE,飲食,喫茶店・カフェ,喫茶店・カフェ,渋谷区神山町7-15イムーブル渋谷神山町4F,080-3816-1858,,35.6645257,139.6937117,ChIJbaRFYkqNGGARP9aV6gCXCKg
嗟哉,飲食,日本料理,ラーメン,渋谷区本町2-4-3,03-3375-8117,,35.6833561,139.68421619999998,ChIJXWb08C7zGGARbc9YFVTgPQ0
anise_scone,飲食,喫茶店・カフェ,その他,渋谷区本町2-7-12,090-7807-6962,,35.6838589,139.68329079999998,ChIJXwxxjLrzGGARUla00p0YW0g
アネモネ,飲食,その他(バー・クラブ・スナックなど),バー,渋谷区神泉町12-7Foursビル1F,03-6455-1955,,35.655955899999995,139.6923101,ChIJjd5jD5mLGGARW5I2CkVWBAk
アバスク　イチャスエタメンディ,飲食,外国料理,スペイン料理,渋谷区渋谷2丁目12番11号松下ビル1階,03-5468-8908,http://www.abasque.com,35.6586984,139.7084644,ChIJkUXVml6LGGARfttNsHpNkjk
Afterhours,飲食,喫茶店・カフェ,喫茶店・カフェ,渋谷区富ヶ谷1-7-9,03-3481-5507,,35.669103,139.69006199999998,ChIJkc7ioEzzGGARcl5O0gLn_fo
油そば　てつ,飲食,日本料理,ラーメン,渋谷区笹塚2-7-9ライブイン笹塚1階,080-3548-7155,,35.675187099999995,139.6691456,ChIJ1Z6Po0LzGGARYIpIIpjQDA8
アミューズメントバーHATAGAYA EGG,飲食,その他(バー・クラブ・スナックなど),バー,渋谷区幡ヶ谷2-12-18幡ヶ谷第二中央ビル203,03-6304-2991,,35.6777571,139.6768552,ChIJuyQUWMjzGGARPEQ8eRCOc_M
あやとり,飲食,その他(バー・クラブ・スナックなど),バー,渋谷区恵比寿西1-3-9田中ビル302,080-1245-9215,,35.6488267,139.7082527,ChIJmfB1k2WLGGAR6m7QE_-EWD8
南国酒場　アヤパニ,飲食,居酒屋,居酒屋,渋谷区神山町5-3スパイシービル1F,03-5453-1288,,35.6656528,139.6938685,ChIJdVvYgq2MGGARf_l_BukrM1E
ARALE,飲食,居酒屋,居酒屋,渋谷区鶯谷町7-12GranDuo渋谷1F,03-6455-2378,,35.6541038,139.7020724,ChIJi8DWNlGLGGARhxbev8vX9Ao
ありき,飲食,居酒屋,居酒屋,渋谷区西原3丁目17番4号星と月と空とビル102,080-2049-9294,,35.6700397,139.6808269,ChIJpS6bbcrzGGARyXWRvdivQow
アルティカセブン,飲食,その他(バー・クラブ・スナックなど),ライブハウス,渋谷区代々木1-41-3福井ビル2F,070-5360-3593,,35.6827697,139.69967649999998,ChIJn3btMM-MGGAR1v2lZmrgC3I
Areva,飲食,その他(バー・クラブ・スナックなど),カフェバー,渋谷区上原二丁目48-12東洋代々木上原コーポ103,03-4400-3590,,35.66789200000001,139.6820247,ChIJZ6V9MILzGGARBgad1FxpG-g
アロハ豚珍串,飲食,外国料理,その他,渋谷区千駄ヶ谷3-52-3サニー原宿1階,03-3401-6800,,35.6746,139.7066572,ChIJA_ipdbyMGGARZmKAbcFSZVc
アロンズダイニング,飲食,外国料理,イタリア料理,渋谷区幡ヶ谷1-1-4 1F,070-6558-8171,,35.6776035,139.6787512,ChIJr-ED3DrzGGARTq1iq7w8_ZE
OURDAYS,飲食,その他(バー・クラブ・スナックなど),バー,渋谷区笹塚3-40-1,090-4546-5067,,35.678869899999995,139.6683333,ChIJG772VOTzGGARE3mnva07IUE
Bar Unkempt,飲食,その他(バー・クラブ・スナックなど),バー,渋谷区富ヶ谷1-14-20代々木公園セレナビル401,03-5738-8156,,35.6672108,139.6913971,ChIJIYZYkO6NGGARsUwjq057b9Q
庵狐　代官山店,飲食,日本料理,日本料理,渋谷区代官山町13-688DAIKANYAMA1階,03-6416-5189,,35.6500511,139.7045006,ChIJpd1xXwCLGGARLiA2SqmszNs
庵狐　円山町店,飲食,居酒屋,居酒屋,渋谷区円山町25-4加藤ビル1F,03-5459-4083,,35.656163299999996,139.693853,ChIJq-jSnVWLGGARlVdSs-tKAWY
アンコールワット,飲食,外国料理,東南アジア料理,渋谷区代々木1-38-13住研ビル1F,03-3370-3019,,35.6866193,139.6988754,ChIJ3Qo9Tc-MGGARag4gbZEtqkc
アンジェパティオ,飲食,外国料理,イタリア料理,渋谷区南平台町12-11,03-3476-7717,,35.6544242,139.6958991,ChIJ680hIlSLGGAR5iUZ9D6PEXk
按田餃子パワー店,飲食,外国料理,その他,渋谷区西原3-7-4渡部ビル1階,03-6407-9881,,35.6699006,139.6808683,ChIJE8TxdnTzGGARIyEoor5pcdY
按田餃子代々木上原本店,飲食,外国料理,その他,渋谷区西原3-21-2,03-6407-8813,,35.670593499999995,139.6819028,ChIJC2894jfzGGARgsNPP7Rt5gw
あんちゅう,飲食,外国料理,イタリア料理,渋谷区上原2-48-9松崎ビル1,03-6804-8990,https://s.tabelog.com/tokyo/A1318/A131811/13223334/,35.6676044,139.6817214,ChIJ6arvrySLGGARAg6fKFyNPcQ
Antelope,飲食,その他(バー・クラブ・スナックなど),バー,渋谷区広尾5-3-15HHBビル2F,03-4363-8561,,35.650379199999996,139.7207755,ChIJoX8ITmeLGGAR5W0QsY0bmMo
AND THE FRIET,飲食,外国料理,その他,渋谷区広尾5丁目16番1号,03-6434-7297,,35.6500905,139.7204861,ChIJ19KCOG2LGGARpk77jDaoX4w
andC,飲食,喫茶店・カフェ,喫茶店・カフェ,渋谷区千駄ヶ谷1-22-4吹上ビル1階　催事用,070-3149-9699,,35.678908899999996,139.70908810000003,ChIJBWHB6diNGGARfrHjBdUCqSk
ARMS,飲食,喫茶店・カフェ,喫茶店・カフェ,渋谷区代々木5-64-7神宮白鳳マンション1階,03-3466-5970,,35.6726062,139.6910015,ChIJX9j_zErzGGARL7ZBBuCM5uQ
ARMS TAKE OUT & DELIVERY,飲食,喫茶店・カフェ,ファーストフード,渋谷区富ヶ谷1-9-21レイ上原ビル1階,03-3466-5974,,35.6685081,139.6900651,ChIJKdJ0vEzzGGAR7OpuHRNbBM4
アーモンドホステルアンドカフェ,飲食,喫茶店・カフェ,喫茶店・カフェ,渋谷区元代々木町1-7almond hostel & cafe,050-3628-5577,https://almondhostelandcafe.tokyo,35.6700127,139.687538,ChIJ6whrt0vzGGAR0YYmN4cF7cs
AYUR CEYLON Shibuya,飲食,その他(バー・クラブ・スナックなど),カフェバー,渋谷区円山町22-15,050-6870-5543,https://www.instagram.com/ayurceylon_shibuya/,35.6566101,139.6942133,ChIJC8LQVdyLGGAR1N9v-E9YJBA
アールズバー,飲食,その他(バー・クラブ・スナックなど),バー,渋谷区恵比寿南1-2-12ブラウンベセル 地下1階,03-5724-3726,,35.6464247,139.70863939999998,ChIJDSOOHACLGGARpOzZFqbEnl0
yinega,飲食,外国料理,無国籍料理,渋谷区渋谷1-10-2志水ビル1F,03-8507-8728,,35.660699699999995,139.7050918,ChIJGTd6lliLGGAR9QKC9tmiDR0
Yellow,飲食,その他(バー・クラブ・スナックなど),バー,渋谷区恵比寿南1-8-9第一黄色いビル4F,03-5708-5979,,35.6460174,139.7091419,ChIJo-J0IamLGGARk8L5_JniryE
イエローカンパニー恵比寿本店,飲食,日本料理,その他,渋谷区東3-14-19オークヒルズ1階,03-5485-2723,https://www.yellowcompany.jp,35.6513752,139.7094423,ChIJicVMUEKLGGAREq3JahyxnZc
イエローハウス,飲食,喫茶店・カフェ,喫茶店・カフェ,渋谷区富ヶ谷1-6-14第2代々木公園ビル1階,050-3695-0383,https://www.instagram.com/yellowhouse_tomigaya,35.669388,139.6897838,ChIJ60a4YEvzGGARngEo7ou6B2g
イエローママ,飲食,その他(バー・クラブ・スナックなど),バー,渋谷区道玄坂2-20-26エクシール道玄坂地下一階4号,03-6809-0768,,35.6593021,139.6967812,ChIJ20EMvQeNGGARPM4YULyUOiI
粋　恵比寿店,飲食,居酒屋,居酒屋,渋谷区恵比寿西1-13-2サンキビル2階,03-6416-3453,,35.6475663,139.7080633,ChIJybqJQgKLGGARWUUXEOqE3mY
いく田,飲食,ステーキ・焼肉,焼肉,渋谷区代々木1-31-15第二宝山ビル1階,03-6304-2917,,35.6817931,139.70227599999998,ChIJgZ21O8aMGGARDDsbnmK44Ak
イザカヤあだん,飲食,居酒屋,居酒屋,渋谷区広尾5-15-1日計広尾コーポ1F,03-3446-3295,,35.6502627,139.7211576,ChIJxxw8UG2LGGAR48zQqlepp74
居酒屋　いしかり,飲食,居酒屋,居酒屋,渋谷区笹塚1-28-7レアヒビル102,03-3466-3265,,35.6730034,139.66713959999998,ChIJmYeFaxfzGGARmw0kiHkApWw
居酒屋海 笹塚店,飲食,居酒屋,居酒屋,渋谷区笹塚2-16-4,03-3375-2283,,35.674312199999996,139.6660201,ChIJqe-i8xnzGGARkMS9_T_dBBo
居酒屋　喜楽,飲食,居酒屋,居酒屋,渋谷区渋谷3-15-2F93 Shibuya II 5階,03-6427-7215,,35.655946199999995,139.7054774,ChIJBepOiVuLGGARUcKQsHYRTuM
居酒屋　九四六屋,飲食,居酒屋,居酒屋,渋谷区道玄坂2ー23ー1小池ビルB1,03-5456-8587,,35.6602914,139.6963639,ChIJc604gKmMGGARNsZCbB1BT3I
居酒屋　佐藤,飲食,居酒屋,居酒屋,渋谷区恵比寿西1-8-2ウエストパレスビス103,03-6416-3703,,35.6478161,139.7084157,ChIJgZXtEkGLGGARQCf0boHi5Z8
居酒屋七福,飲食,居酒屋,居酒屋,渋谷区富ヶ谷1-3-13マキビル104,03-3468-7729,,35.669401,139.689199,ChIJqTm2ekvzGGAR_6EsTwl6b40
居酒屋　俊樹,飲食,居酒屋,居酒屋,渋谷区上原2-33-2ユニマットブルーポイント4F,03-3460-5225,,35.6642121,139.6780702,ChIJw2QSKkTzGGAR-7Dj5Z_sLXg
居酒屋千,飲食,居酒屋,居酒屋,渋谷区宇田川町26-5育真ビル4階,03-3464-2100,,35.659994,139.69884,ChIJT8rZNKiMGGARHHKhbLg_EL8
居酒屋のんきや,飲食,居酒屋,居酒屋,渋谷区神泉町10ー2第5岡崎ビル1階,03-3462-1267,,35.6554958,139.69304169999998,ChIJ7dugElWLGGARadA3PmH8rf0
居酒屋ふくみ,飲食,居酒屋,居酒屋,渋谷区東3-25-3ライオンズプラザ恵比寿B 1,03-3400-7031,,35.648629,139.709889,ChIJyylylkGLGGAR1Bsmeuxp4QE
居酒屋メッカ,飲食,居酒屋,居酒屋,渋谷区笹塚2-22-1松原ビル1階,03-3376-0081,,35.673783,139.66427,ChIJjSkeQBrzGGAR9mN7DGZaQ5M
ITACHI,飲食,ステーキ・焼肉,ステーキ,渋谷区円山町1-3skビル　2F,03-3770-3315,,35.6596791,139.6954125,ChIJWcfFM6qMGGARSD4frANvMiw
イタチカクー,飲食,外国料理,イタリア料理,渋谷区桜丘町24-3インエステートビルB1,03-6886-2496,,35.6567231,139.7007585,ChIJY0-RZVeLGGARA6U3lj61xp4
イタリアン　 chim chim,飲食,外国料理,イタリア料理,渋谷区恵比寿南1-9-12ピトレスクビル1階,03-5722-5333,,35.6458302,139.709161,ChIJiflpYECLGGAR7UFly0VtGOg
イタリアンレストランズッカ,飲食,外国料理,イタリア料理,渋谷区桜丘町10-4モドマルシェビル1階,03-6416-4384,,35.6543143,139.7024854,ChIJl2n2aFqLGGARUXTJXd4xhXk
イタリアンレストランLIFE,飲食,外国料理,イタリア料理,渋谷区富ヶ谷1-9-19STビル1階,03-3467-3479,,35.6683264,139.6903164,ChIJWZNGuEzzGGAROGdQ8YPGuF0
一堂,飲食,居酒屋,居酒屋,渋谷区千駄ヶ谷1-28-4,03-3402-5580,,35.6804802,139.7091073,ChIJQySPnr-MGGAReYm6MUyiReE
181cellar北参道,飲食,外国料理,イタリア料理,渋谷区千駄ヶ谷3-6-1ガレリア原宿1F,03-6447-5618,,35.6761609,139.7042353,ChIJJRifDLmMGGARcN2sIxhKjxw
１８合同会社,飲食,居酒屋,居酒屋,渋谷区代々木1丁目58番7号ヴェラハイツ代々木店舗103,03-4400-8918,,35.6845484,139.7005906,ChIJWw_6cM-MGGARCXtCuTkhjPQ
いちひく,飲食,日本料理,その他,渋谷区神宮前2-20-121FーB号,03-3403-8188,,35.6743685,139.71114839999998,ChIJR4qk62ONGGAReVnjz_FUutY
一食,飲食,日本料理,その他,渋谷区西原1-7-8ツインパレスK1 101,03-6873-9120,,35.6738728,139.6817053,ChIJO91vuAnzGGARaCtnKjg0Ayg
いっぷく処　浅葱,飲食,喫茶店・カフェ,喫茶店・カフェ,渋谷区猿楽町2-11氷川ビル401号室,03-6416-5475,,35.653302499999995,139.70451989999998,ChIJOdeW5A2LGGARPey74U8jm3w
いづまるキッチン,飲食,日本料理,その他,渋谷区代々木3-13-1スマイルヨヨギ1A,080-6523-7718,,35.6840188,139.6949465,ChIJgY-7pHSNGGARzFgn369KmlM
イドコロネ,飲食,居酒屋,ダイニング・バー,渋谷区本町2-33-2初台ワールドマンション2階,080-6868-0504,,35.6840887,139.6825003,ChIJiZC3Oy_zGGARrzIMO43256Y
イナホノシズク,飲食,居酒屋,居酒屋,渋谷区初台1-11-15南洋ビル1-A,03-5350-2608,,35.679566,139.686874,ChIJlWYIMzLzGGARawgIIALgUpE
イナホノシズク二号店,飲食,居酒屋,居酒屋,渋谷区初台1-37-1光ビル1F,03-3377-7737,,35.6802823,139.6867395,ChIJu7eqMzLzGGARmv1djcJHzlc
今尽,飲食,日本料理,その他,渋谷区広尾3-1-26,03-3498-4600,,35.656889899999996,139.71446799999998,ChIJD-dXMWaLGGARvZH3hU8C1Y8
イルプレージョ,飲食,外国料理,イタリア料理,渋谷区上原1-17-7フレニティハウス2F,03-6407-1271,,35.668934199999995,139.6825369,ChIJ3_WXXEjzGGARM0DvWO0aGSk
いわて屋,飲食,居酒屋,居酒屋,渋谷区千駄ヶ谷3-16-17NOCE KITASANDO 1F,03-6825-4033,,35.6761421,139.7074461,ChIJk7nyJQCNGGARXOwXM6M4FXY
InG,飲食,居酒屋,ダイニング・バー,渋谷区本町2-43-4ヴァーチェストーンハウス1A,090-2757-1276,,35.684608499999996,139.6840186,ChIJN-2MNLXzGGARb7BLKpE9sus
in the house,飲食,その他(バー・クラブ・スナックなど),バー,渋谷区神宮前三丁目31番20号,090-6197-6274,,35.672520999999996,139.7110064,ChIJNetazlmNGGARuCsD-xhUNdI
インダストリアルラウンジ,飲食,その他(バー・クラブ・スナックなど),バー,渋谷区恵比寿西1-8-2ウエストパレス205,03-3461-1989,,35.6478171,139.70840959999998,ChIJVVXlEkGLGGARFWXnQsaeo1g
インド料理サモサ初台店,飲食,外国料理,インド料理,渋谷区本町2-4-101F,03-3377-3378,,35.684125699999996,139.6837636,ChIJwR7x3i7zGGARYHr-6CUUuAU
E・A・T GRILL＆BAR,飲食,外国料理,その他,渋谷区千駄ヶ谷4丁目10番4号千駄ヶ谷グリーンランドビル1階,03-6447-2218,,35.6799126,139.70638499999998,ChIJw4NWZpKNGGARMqOwDWjOm34
イーツファン,飲食,居酒屋,居酒屋,渋谷区道玄坂1-7-8新井ビル3階,03-6455-1829,,35.657515499999995,139.6991565,ChIJa6fAGZqLGGARHnM0q6Wt9eM
Ui食堂,飲食,喫茶店・カフェ,喫茶店・カフェ,渋谷区神山町9-5ホーリーランドAmi1階,03-5738-8920,,35.6642735,139.6947869,ChIJfU5DXgyNGGAR1XUW0tj3dlk
Whisky Gibier,飲食,その他(バー・クラブ・スナックなど),バー,渋谷区西原3-21-1 1F2号,03-3466-2640,,35.6707365,139.6819524,ChIJD7rG4zfzGGARSK9h3K96uY0
WEPwafflefactory,飲食,喫茶店・カフェ,喫茶店・カフェ,渋谷区神山町25-17UpperHillscourt101,03-6416-8242,,35.663101999999995,139.6880856,ChIJ92aN8hzzGGARnQzVmxQe7eA
ウエトミ×アオギリ,飲食,居酒屋,居酒屋,渋谷区上原1丁目1-21,03-5790-9990,,35.6684605,139.68749219999998,ChIJr3YunfrzGGAR-0kKHoSokxs
ウエハラキッチン,飲食,喫茶店・カフェ,喫茶店・カフェ,渋谷区上原3-1-17,03-6804-9390,,35.6679671,139.681894,ChIJXfkuZivzGGARFqmX_gypSiM
上原の酒場　でばちか,飲食,居酒屋,居酒屋,渋谷区上原1-35-6第16菊地ビルB102,03-6451-5547,,35.6695101,139.6818467,ChIJVa3eFXDzGGARPqs2UDafzoE
上原の酒場　でばやし,飲食,居酒屋,居酒屋,渋谷区上原1-32-18小林ビル2階,03-6407-9782,,35.668979,139.6802701,ChIJGydc1dvzGGARfXylw5vqQZ8
UEHARA PARLOR,飲食,喫茶店・カフェ,喫茶店・カフェ,渋谷区上原1-36-12内藤ビル2F,03-5761-6559,,35.669215699999995,139.68233,ChIJhUm8tMPzGGARvLgUMcKAHSQ
ウォータリングホール,飲食,居酒屋,ビアホール,渋谷区千駄ヶ谷5-26-5代々木シティホームズ103,03-6380-6115,,35.6851743,139.7034883,ChIJI05Jt8WMGGARx4FnabVdLPQ
魚音,飲食,日本料理,日本料理,渋谷区初台1-11-12,03-5371-5055,,35.679368499999995,139.686299,ChIJOTWaKzLzGGARvTalzVL15uo
UO-SAO,飲食,居酒屋,居酒屋,渋谷区上原1丁目17-11,03-6407-0355,,35.669192699999996,139.6823306,ChIJu3xkhhHzGGARgwQxuIHsWp0
魚まみれ眞吉恵比寿店,飲食,居酒屋,居酒屋,渋谷区恵比寿南1-11-1松本ビル1階,03-5794-8350,,35.6455027,139.70947859999998,ChIJIcVFY0CLGGARAF-wQ6nkMG0
魚まみれ眞吉渋谷宮益坂店,飲食,居酒屋,居酒屋,渋谷区渋谷1-10-12宮城ビル1階,03-6418-8318,,35.66074520000001,139.7048299,ChIJXZ6WkFiLGGAR7KjK8VaaGuo
魚まみれ眞吉神宮前本館場末店,飲食,居酒屋,居酒屋,渋谷区神宮前2-19-16,03-3401-3917,,35.6738964,139.710589,ChIJx4vHQ72MGGARZn66MoFjRMw
魚まみれ眞吉代々木八幡店,飲食,居酒屋,居酒屋,渋谷区富ヶ谷1-2-13高松DCビルB1F-A,03-6804-9220,https://tabelog.com/tokyo/A1318/A131810/13215752/,35.6693743,139.68889199999998,ChIJjVxSd0vzGGARbRp6nUol52k
魚ゆう,飲食,日本料理,日本料理,渋谷区神泉町17-16,03-3461-4460,,35.658111,139.691866,ChIJkwlB2qqMGGARl6kpm2MIEVE
鰾,飲食,日本料理,日本料理,渋谷区西原3-22-5,03-5790-9377,,35.6705415,139.6827525,ChIJdzjSJUjzGGARSpYYtAZFwh8
ウサギの上り坂,飲食,その他(バー・クラブ・スナックなど),バー,渋谷区代々木1-54-2小林ビル2階,03-6273-5338,,35.6840675,139.7006206,ChIJi7S0QjmNGGARFFaX1wXHNsE
兎屋,飲食,日本料理,日本料理,渋谷区笹塚1-10-6シーティービル1F,03-5454-9003,,35.6735415,139.669756,ChIJyzulwRfzGGARPDGjYfvKmjA
カフェ　ウズナオムオム,飲食,喫茶店・カフェ,喫茶店・カフェ,渋谷区神宮前5丁目17-8原宿XS 203,03-3499-2337,http://www.uznaomom.jp.net,35.665866699999995,139.7053577,ChIJOW7spKaMGGARQf2NmufcgLs
WOODBERRY COFFEE 渋谷店,飲食,喫茶店・カフェ,喫茶店・カフェ,渋谷区東2-20-18,03-5962-7518,,35.6539429,139.7094,ChIJvbYOsEaLGGARszQEtIIvb54
WOODBERRY COFFEE 代官山店,飲食,喫茶店・カフェ,喫茶店・カフェ,渋谷区恵比寿南3-7-1,03-6451-0446,,35.6464411,139.7022309,ChIJvSJ1CUaLGGARdojNN2sp9Ns
うな賀,飲食,日本料理,うなぎ,渋谷区本町1丁目2-2榎本ビル2階　第3区画,090-1774-0333,,35.681314799999996,139.68571079999998,ChIJB1nV6g3zGGARw3iNYsoxcq0
うなぎ  ふじもと,飲食,日本料理,うなぎ,渋谷区千駄ヶ谷3丁目15番12号,03-3401-6551,,35.676688999999996,139.7069798,ChIJY5nir76MGGARunGAjaeMFJA
うなとり×宇奈とと　笹塚店,飲食,居酒屋,居酒屋,渋谷区笹塚1-57-16,080-6266-8037,https://s.tabelog.com/tokyo/A1318/A131808/13277010/party/,35.6739515,139.6672527,ChIJQTMz3WTzGGARYNJ45n0aW_g
うにtoいくら,飲食,居酒屋,居酒屋,渋谷区円山町7-5WHARF渋谷道玄坂6階,03-5422-3913,,35.657739,139.6949123,ChIJs5aackiNGGARMZigWDdzTqM
uni-BAR,飲食,その他(バー・クラブ・スナックなど),バー,渋谷区笹塚3-28-3後藤ビル1F,090-4845-2087,,35.6749072,139.6626604,ChIJZzoi73nzGGARHhzmm9ifaMo
うめ組,飲食,居酒屋,居酒屋,"渋谷区笹塚2-27-5B,sビル1F",03-6381-6633,,35.6731617,139.6620187,ChIJtcha7b_zGGARfseiqSJXaZE
ULTIMO,飲食,外国料理,イタリア料理,渋谷区西原3-24-1アムール代々木上原 104号,090-5419-9700,,35.6712191,139.683315,ChIJE5ElVgDzGGARuM9_o6PjIPs
urura,飲食,外国料理,フランス料理,渋谷区松濤1丁目29-2　スクエアビル 2F,03-3770-0149,,35.659987699999995,139.69509349999998,ChIJZ53Jy6uMGGAR868B_o5VhWA
ouahouah,飲食,喫茶店・カフェ,喫茶店・カフェ,渋谷区恵比寿西2-18-6代官山ウイング102,03-6433-7875,,35.6496071,139.7052081,ChIJ92gN14yLGGARo7SQkntcmaw
OOTONG RUM HALL,飲食,その他(バー・クラブ・スナックなど),バー,渋谷区幡ヶ谷2-47-11田口ビル1階,03-6762-5128,,35.679221399999996,139.6771499,ChIJAdDczKjzGGAR_L6O3eg9ntg
EIGHT COFFEE,飲食,喫茶店・カフェ,喫茶店・カフェ,渋谷区恵比寿1-11-8TCビル1階,080-6621-3150,,35.6463594,139.7115954,ChIJARoKkxKLGGARy_fPMGYSnRg
EXCITE LUCKY,飲食,居酒屋,ダイニング・バー,渋谷区笹塚3-31-10笹塚サンハイツ,080-5071-7498,,35.67551840000001,139.6623123,ChIJn-3ObRvzGGARjgEwKkJMwo8
es Cafe Bar & Beauty Salon,飲食,喫茶店・カフェ,その他,渋谷区東3丁目25番6号楠ビル2F,03-6721-7680,,35.64848440000001,139.7101084,ChIJZ-HVx46LGGARKD90PexSUq0
エスグロッソ,飲食,外国料理,イタリア料理,渋谷区道玄坂1-11-3フォースワンビル1F,03-3464-7878,,35.6576953,139.69891230000002,ChIJSZTctFeLGGARKeJC9NBvFPU
渋谷エクセルホテル東急　エスタシオンカフェ,飲食,喫茶店・カフェ,喫茶店・カフェ,渋谷区道玄坂1-12-2,03-5457-0133,,35.6588606,139.6998827,ChIJTzNfw1eLGGARxI1UUJ-TwuM
Ethnic Dining TSUBAKI GARDEN,飲食,外国料理,インド料理,渋谷区東1-3-1カミニート1F 4号,050-5590-3642,,35.6574026,139.7081907,ChIJH0EnJVyLGGARd7XWS7A_Qhw
etain cafe and bar,飲食,喫茶店・カフェ,喫茶店・カフェ,渋谷区東2-15-1trias215 101,090-2335-4325,,35.6515603,139.7095599,ChIJRWSwRDyLGGARbevamZTTpZs
エッセ,飲食,外国料理,イタリア料理,渋谷区恵比寿南2-4-19,03-6412-7130,,35.6450283,139.7074069,ChIJCWgioT-LGGARfaedrfCOWmw
N9Y　奥渋店,飲食,ステーキ・焼肉,ステーキ,渋谷区宇田川町37-11大久保ビル　1階,03-5738-8315,,35.6622376,139.6955647,ChIJF35m2M-NGGARzYoXaMvoLq0
エノテカミヤヂ,飲食,外国料理,イタリア料理,渋谷区渋谷2-2-4青山アルコーブ202,03-6427-4393,,35.660466,139.70864849999998,ChIJrXOMRh2LGGARTyWU63Fwj4I
evergreen cafe restaurant EBISU,飲食,喫茶店・カフェ,喫茶店・カフェ,渋谷区恵比寿南1-26-1,03-5724-3660,,35.6423505,139.7119305,ChIJt7ulA1mLGGARn7DGAh1LvkY
恵比寿　今市,飲食,居酒屋,居酒屋,渋谷区恵比寿西1-13-6,03-6455-1717,,35.64740080000001,139.7078411,ChIJ8W_1FUGLGGAR2EhSD5j3q8o
恵比寿エスクラシコ,飲食,外国料理,イタリア料理,渋谷区恵比寿1-24-11-1Fグラッセ,03-6277-1612,https://es-classico.jp/,35.6467248,139.715292,ChIJ9aUCyBSLGGARKi-j5-iXDHU
恵比寿　牡蠣ツ端,飲食,居酒屋,居酒屋,渋谷区恵比寿南1-9-2AIビルB1F,03-6452-3414,,35.6457492,139.7094669,ChIJvYEvZECLGGARSYD5zp_aJbY
恵比寿　吉乃坐,飲食,日本料理,日本料理,渋谷区恵比寿4-24-4キエイビル1階,03-5793-5776,https://kichinoza.jp/,35.645259599999996,139.7159464,ChIJVVVMiBSLGGARlL4kmx9ob-0
恵比寿　黒帯,飲食,居酒屋,居酒屋,渋谷区恵比寿西1-13-6ブラッサムZEN4階,03-6277-5916,https://tabelog.com/tokyo/A1303/A130302/13153105/,35.64740080000001,139.7078411,ChIJ8W_1FUGLGGARZAj-dxTlox4
EBISU SIX,飲食,その他(バー・クラブ・スナックなど),カフェバー,渋谷区恵比寿3-3-2ニューケイクレセント2f,03-5422-9888,,35.6452664,139.71795649999999,ChIJp3SBcQCLGGARBakHz-J_JN4
恵比寿食堂　美星,飲食,居酒屋,居酒屋,渋谷区恵比寿南1-7-8ニューライフ恵比寿203,03-6712-2199,,35.6462765,139.7097206,ChIJuSchMSaLGGARctwNSsG1aYA
恵比寿シーシャgreen,飲食,喫茶店・カフェ,その他,渋谷区恵比寿西1-8-10EBISU高橋ビル3F,070-4792-7380,,35.6472991,139.7085016,ChIJ05mTDRiLGGARfPff5Mq-gy8
エビスSTARバー,飲食,その他(バー・クラブ・スナックなど),バー,渋谷区恵比寿南1-8-9第一黄色いビル3階,050-3138-4869,,35.646018,139.7091389,ChIJq3fr9UCLGGARlCveBjy5mcQ
ebisu diner olive,飲食,その他(バー・クラブ・スナックなど),バー,渋谷区東3-6-9,03-6427-7911,,35.6490636,139.71090569999998,ChIJs9eD6EGLGGARiOTr9Ywnpx0
恵比寿ダルマット,飲食,外国料理,イタリア料理,渋谷区恵比寿西2-7-8Sリトリート 1F/B1F,03-3780-9955,https://www.dal-matto.com/,35.650394299999995,139.70696550000002,ChIJx9g4hUOLGGARNWCKcODsBk8
ebisu NUKA factory.,飲食,日本料理,小料理,渋谷区恵比寿4-10-8エビスビル102,03-5422-8362,,35.645395199999996,139.7147458,ChIJpfNAc4yLGGARyIeV7csZemo
えびすのARALE,飲食,居酒屋,居酒屋,渋谷区恵比寿西1-7-15KATOHビル203,090-5325-2786,,35.648089899999995,139.7085812,ChIJhTtcBheLGGARkhsuNCn1G-s
恵比寿　ハジカミ,飲食,居酒屋,居酒屋,渋谷区恵比寿西1-3-9田中ビル1階,03-6427-8755,,35.6488337,139.7082917,ChIJS1a9P1iLGGARV-kQv1kp5Vg
恵比寿橋酒場TUGI,飲食,居酒屋,居酒屋,渋谷区広尾1-12-16,03-6277-2332,,35.648151,139.715275,ChIJuz1waFOLGGARukuGP_A3AT8
EBISUBASHI珊瑚,飲食,外国料理,イタリア料理,渋谷区恵比寿1-16-18,03-6450-3348,,35.6478124,139.7149365,ChIJA5KqO2uLGGARQBsWbaMtbfw
恵比寿BAR  BASE,飲食,その他(バー・クラブ・スナックなど),バー,渋谷区恵比寿1-12-7三恵31ビル4階B号室,090-9821-8158,,35.6465355,139.71214,ChIJWXBZZnSLGGARbdRJ-CAANj8
恵比寿BAR  BASE2,飲食,その他(バー・クラブ・スナックなど),バー,渋谷区恵比寿1-5-8初鹿野ビル2階,03-5860-2123,,35.6472155,139.71142179999998,ChIJB3WLPReLGGARXNShmVf8nD8
恵比寿ブラッカウズ,飲食,外国料理,その他,渋谷区恵比寿西2-11-9東光ホワイトビル1Fブラッカウズ,03-3477-2914,,35.6494566,139.707133,ChIJA6_y7UOLGGARR0HVb-2uF9A
恵比寿ホルモン龍村,飲食,ステーキ・焼肉,焼肉,渋谷区恵比寿南1-4-17GinzaK2ビル4階,03-6303-0065,,35.646546199999996,139.709059,ChIJC7YjtDeLGGARslCuPK7e2zw
恵比寿　宮崎ダイニング　ヒムカテラス,飲食,居酒屋,ダイニング・バー,渋谷区恵比寿西1-20-8コンド恵比寿,03-6416-4966,https://g.co/kgs/GKFHLr,35.646422099999995,139.7065232,ChIJxSs3QROLGGAR4EBoGji1oKE
えびす焼魚食堂,飲食,日本料理,その他,渋谷区恵比寿3-1-2エビサンビル101,03-6432-5777,,35.645421299999995,139.71675829999998,ChIJE3jlVAaLGGARzXvIBeVDmvY
恵比寿横丁　だるまてんぐ,飲食,居酒屋,居酒屋,渋谷区恵比寿1-7-2オークビル1階,03-3440-1250,,35.6482904,139.7107043,ChIJvaN2z0GLGGAR-oYBrB73FW8
恵比寿489,飲食,その他(バー・クラブ・スナックなど),カフェバー,渋谷区恵比寿南2-1-6鳥居ビル5階,070-8470-9256,,35.6458343,139.7070985,Ek5Ub3JpaSBCdWlsZGluZywgNemajiwgMi1jaMWNbWUtMS02IEViaXN1bWluYW1pLCBTaGlidXlhLCBUb2t5byAxNTAtMDAyMiwgSmFwYW4iIBoeChYKFAoSCbFIgtBAixhgESiclY2glLbBEgQ16ZqO
エビスルンバ,飲食,その他(バー・クラブ・スナックなど),バー,渋谷区恵比寿南2-3-3第一恵比寿マンション地下15室,090-4960-2634,,35.645364199999996,139.7079113,ChIJ5-sq33mLGGARD3DRTJsFFKQ
恵比寿和顔,飲食,居酒屋,居酒屋,渋谷区恵比寿南1-2-12,03-3715-5554,,35.6463257,139.7080937,ChIJtwtp5ECLGGARaOfLJAVyHwg
EBIZO,飲食,外国料理,その他,渋谷区道玄坂2丁目19-3ライオンズマンション104,03-6416-3105,,35.6590833,139.6963801,ChIJyWc59amMGGARoBACEVNF45U
エビン代々木・北参道店,飲食,外国料理,インド料理,渋谷区千駄ヶ谷4-27-13,03-6432-9973,,35.680682,139.70423929999998,ChIJ_7eiC8eMGGAR_0gXlvyKd94
FFF yoyogipark,飲食,外国料理,無国籍料理,渋谷区富ヶ谷1-2-8スタジオリオネビルB1,090-7261-6852,,35.66979,139.6896373,ChIJ1yMkSsHzGGARFB1Ohkhh_os
eponym coffee,飲食,喫茶店・カフェ,喫茶店・カフェ,渋谷区本町4-18-2黒田屋ハイツ1F,03-6300-5519,,35.6884217,139.68031,ChIJE0jiMpDzGGAR5hPcinncIkQ
エマラウンジ,飲食,外国料理,イタリア料理,渋谷区道玄坂1-14-9ソシアルビル2F,03-3461-6699,,35.6573498,139.6980348,ChIJIZhoRlaLGGARoHtonsnP9A4
MK  snack & bar,飲食,その他(バー・クラブ・スナックなど),バー,渋谷区桜丘町16-8アトラス桜丘ビル2階,080-4132-2056,,35.6564506,139.7009297,ChIJ-bziJACLGGARL-wrIcA0Ns0
Ms Bar oeld,飲食,その他(バー・クラブ・スナックなど),バー,渋谷区上原1-1-23ステイエム代々木公園1階,090-4679-4876,,35.668658,139.68764270000003,ChIJV2Rs0YTzGGAR-1r9U_gNJb0
LA JUICE&BAR,飲食,その他(バー・クラブ・スナックなど),カフェバー,渋谷区広尾5-1-40プラスリノ広尾3F,080-7509-0612,https://instagram.com/lajuiceandbar?igshid=MzRlODBiNWFlZA==,35.648938,139.7178936,ChIJA93U-ZWLGGARe3NYYjiJ-sE
LA17,飲食,その他(バー・クラブ・スナックなど),バー,渋谷区道玄坂1-19-8斉丸道玄坂ビル2階,03-5428-5078,,35.656697,139.695819,ChIJjwkUE1yLGGARpRTaZcHdSGU
L.C.d.B,飲食,喫茶店・カフェ,喫茶店・カフェ,渋谷区代官山町15-8,03-6873-7602,,35.6499813,139.70291749999998,ChIJZdq9E0WLGGARzpkWSap-7uc
ELMO+,飲食,外国料理,イタリア料理,渋谷区笹塚1-56-18京王クラウン街笹塚A-2東,03-6300-4362,,35.673797799999996,139.6673562,ChIJWd3oMZLzGGARgcOLggK4r5M
円,飲食,その他(バー・クラブ・スナックなど),スナック・パブ・キャバレー,渋谷区幡ヶ谷2-8-5近藤ビル地下1階,03-3374-5571,,35.677596199999996,139.67703459999998,ChIJ59H46hvzGGARlz8wgHCKUjo
遠藤商店,飲食,その他(バー・クラブ・スナックなど),その他,渋谷区代々木3-22-1文化学園,03-3299-2078,,35.685188499999995,139.6944562,ChIJKX1lcNKMGGARCSR2IbATM-I
縁家とりつぎ,飲食,居酒屋,居酒屋,渋谷区元代々木町11-1田中ビル1F,03-3468-5389,,35.670223,139.6849743,ChIJAQDklknzGGARUM63vW1yhxo
えんらい,飲食,居酒屋,居酒屋,渋谷区渋谷2-8-7青山宮野ビル103,03-6805-0343,https://sakaba.co.jp/,35.6604674,139.7072943,ChIJmUv8lf-LGGARnYoacqDN5C0
A9,飲食,その他(バー・クラブ・スナックなど),バー,渋谷区西原3-22-14西原水垣ビル1階,03-3481-8089,,35.6708552,139.68220720000002,ChIJ_xaS4DfzGGARvcM-pTU_jkw
おいちゃん,飲食,居酒屋,居酒屋,渋谷区神山町9-14白樺ビル102,03-6804-8609,,35.663632299999996,139.69428929999998,ChIJQYPSUayMGGARCrrtfdVt4uQ
欧風カレー　café de キュリー,飲食,喫茶店・カフェ,喫茶店・カフェ,渋谷区千駄ヶ谷2-33-1,03-3475-9777,,35.6763769,139.7124891,ChIJE0LeiauNGGARWD6fe-6yqUU
欧風カレーMURAO,飲食,外国料理,インド料理,渋谷区代々木2-1-1新宿マインズタワーB1,070-5542-0748,,35.6865121,139.6989657,ChIJIbaNbgSNGGARwUrJTIKCNs4
沖縄居酒屋 香の帆,飲食,居酒屋,居酒屋,渋谷区宇田川町10-1パークビル5階,03-6273-9243,,35.6625326,139.6969907,ChIJYQBxTqmMGGARmpKwX0UsHO0
オキナワンダイニング島物語,飲食,居酒屋,ダイニング・バー,渋谷区幡ヶ谷2-8-5近藤ビルB1,03-3374-2095,,35.6780014,139.67722369999998,ChIJO3JeyiTzGGAR4mRdXrtoFYM
奥渋魚力,飲食,日本料理,日本料理,渋谷区神山町40-4,03-3467-6709,,35.6647702,139.69301049999999,ChIJV_MYba2MGGARYCmxOPY_cPA
奥渋谷 もつ焼のんき,飲食,居酒屋,居酒屋,渋谷区神山町4-18フィルトップ神山1F,03-6416-8883,https://next-gf.com/store/,35.665214399999996,139.6928624,ChIJy1O5h_iNGGARhJLPciVRtqU
オクノシブヤ,飲食,喫茶店・カフェ,喫茶店・カフェ,渋谷区神山町7-15ホワイトハイム大嵩 102,03-6804-9889,https://okunoshibuya.ifreagroup.co.jp/,35.6644899,139.6936302,ChIJP76oJTmNGGAR-3eUjjDmrmg
aux,飲食,外国料理,無国籍料理,渋谷区上原1-2-3auxビル1f,03-6884-7248,,35.6698482,139.6863515,ChIJ-zDajUvzGGAR2YI_Y3pnMfM
OKEI TAPROOM オケタプ,飲食,居酒屋,ビアホール,渋谷区代々木一丁目52-4ベルテ南新宿B1階,03-5309-2346,,35.6834655,139.6994542,ChIJy99POwCNGGARvCXWU_jsMaU
お好み焼きえん　参宮橋2号店,飲食,ステーキ・焼肉,その他,渋谷区代々木4-5-1参宮橋ダイヤビル110号室,03-4361-9525,http://okonomiyaki-en.com/secondshop/,35.678618799999995,139.6926013,ChIJ16Ri6-mNGGAREcBOeul397c
お好み焼きえん　幡ヶ谷店,飲食,居酒屋,居酒屋,渋谷区幡ヶ谷2-8-5,03-6258-4597,,35.6780014,139.67722369999998,ChIJKQtwOgDzGGARPYI5Oc0okmY
お好み焼きえん　初台店,飲食,日本料理,お好み焼き,渋谷区初台1丁目36-1,03-6822-1610,http://hatsudai.okonomiyaki-en.com/,35.680069200000005,139.68603149999998,ChIJHWmqLAzzGGARtOnbTVF6Vxs
お好み焼　天現寺亭,飲食,日本料理,お好み焼き,渋谷区広尾5丁目25番6号,03-3444-0538,,35.6478008,139.7216024,ChIJPxh4hBKLGGARizi31yKRKEE
お好み焼き　はち,飲食,日本料理,お好み焼き,渋谷区笹塚1-58-13フィエスタ笹塚5階,03-6300-9876,http://okonomiyaki-hachi.com,35.673628199999996,139.6662168,ChIJRyLK_BnzGGARiby9h-41T0A
お好み焼・もんじゃ焼　ええとこ代々木店,飲食,日本料理,お好み焼き,渋谷区千駄ヶ谷5-22-3都営千駄ヶ谷アパート2号棟1階,03-6312-1818,https://yoyogi.eetoko.net/,35.6832129,139.70357869999998,ChIJq01afcaMGGARN3kEbgmQJbI
おこめ茶屋 米米-めめ-,飲食,日本料理,その他,渋谷区笹塚1-56-18京王クラウン街笹塚,03-6300-5073,,35.673818499999996,139.66751399999998,ChIJgde3QgDzGGAR5V62rFbjYpo
おこめどき,飲食,喫茶店・カフェ,喫茶店・カフェ,渋谷区神宮前5丁目29番10号クリプトメリア神宮前ビル1F,03-6803-8956,,35.6643869,139.7032026,ChIJT3x2QyONGGARh6VNOxnqPow
お酒とスパイス カンテラ,飲食,居酒屋,ダイニング・バー,渋谷区幡ヶ谷2-12-18幡ヶ谷中央第二ビル,03-3463-1809,,35.6778046,139.6769104,ChIJ1XuSm9LzGGARvk35mSk7KZE
押競満寿,飲食,外国料理,その他,渋谷区元代々木町25-5RAJIKUMAR BLD 1F,03-6804-7256,,35.6710099,139.6861913,ChIJP6ixmHjzGGAR8dGeD_cRhh4
ＯＺＹ,飲食,外国料理,その他,渋谷区鶯谷町1-2パル代官山1階,080-4669-6097,,35.6671718,139.7115315,ChIJ2Q7kagCLGGARlMk9i4LmnAQ
おすし磯部,飲食,日本料理,寿司,渋谷区元代々木町2-11GSハイム第二代々木公園101,03-6885-7515,,35.670232999999996,139.6874892,ChIJffvRtUvzGGARGLytzjvvXf4
オステリア　しん介,飲食,外国料理,イタリア料理,渋谷区恵比寿1-22-10カマスヤビル　B101号室,03-6447-7709,,35.6463878,139.714095,ChIJHfjoJgCLGGARxEykxInWNU4
オステリア スミヴィノ,飲食,外国料理,イタリア料理,,03-3372-7709,https://tabelog.com/tokyo/A1318/A131807/13006890/,,,
オステリア　ラ.リベラ,飲食,外国料理,イタリア料理,渋谷区恵比寿南1-18-11西田ビル1F,03-6452-4853,,35.645106999999996,139.710625,ChIJs11b8T-LGGARXXI-abaZyLw
Osteria Ricco,飲食,外国料理,イタリア料理,渋谷区幡ヶ谷1-33-6ビューハイム幡ヶ谷102,03-5454-0004,,35.6764145,139.6765442,ChIJ00mvQjvzGGARjr9Xa79r4dY
お惣菜と煎餅もんじゃさとう,飲食,日本料理,その他,渋谷区富ヶ谷1-9-22AIUビル1階,03-6804-9703,,35.6685519,139.69004289999998,ChIJYXXrvEzzGGARumK4yWXmp5w
O'denbarうまみ代官山店,飲食,日本料理,その他,渋谷区代官山町13-8キャッスルマンション代官山104,03-6416-9209,,35.6503144,139.7046763,ChIJj59YUg-LGGARwIgcL33UqX8
おにぎり原宿三丁目たるら,飲食,日本料理,その他,渋谷区神宮前1-21-2 1F,03-6674-0799,,35.6722701,139.70415119999998,ChIJr2bMb8qNGGARq8bKDuw_2mk
表参道バル　エルヴエロ,飲食,居酒屋,居酒屋,渋谷区神宮前5-50-6サクセス青山ビル2階,03-6427-7197,,35.6629632,139.7099551,ChIJF3Jzjl-LGGARK41I1yrIB-0
オラスイーツ,飲食,喫茶店・カフェ,パーラー,渋谷区笹塚1-60-7サンコーポビル1f,080-5512-6921,,35.6732531,139.66409249999998,ChIJjx-6K53zGGAR2DfZlAGT97E
オリエンタルテーブルアマ恵比寿店,飲食,外国料理,東南アジア料理,渋谷区恵比寿1-4-1恵比寿ア-バンハウス104,03-5420-0557,,35.647554500000005,139.7116103,ChIJIUoGgmqLGGARk-RZhoiinO8
オリエンタルテーブルアマ代々木店,飲食,外国料理,東南アジア料理,渋谷区代々木1-32-12パリス　ビル3階,03-3374-3599,,35.682652999999995,139.70209649999998,ChIJSz8eEMaMGGAR2lyh7tBcJ6A
お料理Miee,飲食,日本料理,小料理,渋谷区千駄ヶ谷3-3-3エグゼクティブ原宿B1-C,03-6434-9566,,35.6766108,139.7061755,ChIJ9xywt2KNGGAR-tlt6kVwxsw
俺の炉ばた恵比寿,飲食,外国料理,イタリア料理,渋谷区恵比寿西一丁目7番12号MKTビル 2F,03-6416-3991,,35.6479137,139.70850439999998,ChIJW84q_Y6LGGARC_JxpUxRBaA
音楽茶房Buddy-Buddy,飲食,その他(バー・クラブ・スナックなど),カフェバー,渋谷区本町1-58-6木下ビル　1F,03-6300-6033,,35.6819165,139.6821144,ChIJY-kSny_zGGARUwt3-6-QYBc
オンザヒル,飲食,外国料理,イタリア料理,渋谷区恵比寿西2-15-9代官山フラット一階,03-6455-0719,,35.6500677,139.7055536,ChIJ72PMY0SLGGARchh68pBrakA
On The Wine,飲食,外国料理,イタリア料理,渋谷区桜丘町30-9桜丘芳和ビルB1,03-6416-5673,,35.6551682,139.69814399999998,ChIJQRxmrN6LGGARA0sDQuWM5SM
ONZS,飲食,外国料理,フランス料理,渋谷区猿楽町2-14プラスリノ猿楽町3F,03-6712-7041,https://onzs-shibuya.com/,35.653448999999995,139.7048697,ChIJtz68fhqLGGARkfUXnmZxhg4
ONZE,飲食,居酒屋,居酒屋,渋谷区笹塚3-19-2,080-1178-6035,,35.67731,139.66697299999998,ChIJtVJ1PxnzGGARLXqAMODIeH4
穏田珈琲,飲食,喫茶店・カフェ,喫茶店・カフェ,渋谷区神宮前4-13-2,03-6434-0460,,35.6677125,139.7097499,ChIJZ0VnrYKNGGARO5KMIAMqG-U
オーガニック鮨大内,飲食,日本料理,寿司,渋谷区渋谷2丁目8-4佐野ビル1F,03-3407-3543,,35.6604859,139.7075087,ChIJkcbeI1-LGGAREdZ9ZyM5BCs
Ocho Taqueria Mexican オーチョ タケリア メキシカン,飲食,外国料理,その他,渋谷区神宮前2丁目3-30 B1F第2竹上ビル,03-3470-0308,https://www.instagram.com/ocho_taqueria_mexican/,35.6744445,139.7134171,ChIJ6eaeAxONGGARgptO3QDkcUw
オーツー,飲食,その他(バー・クラブ・スナックなど),バー,渋谷区幡ヶ谷2-12-17清水荘1F-A,03-4296-3960,,35.6779957,139.6769471,ChIJVVWYtiTzGGARjMjZhzMEl8s
オー・ペシェ・グルマン,飲食,外国料理,フランス料理,渋谷区幡ヶ谷2-24-2須原屋ビル1階,03-6276-6332,http://instagram.com/aupechegourmand.hatagaya,35.6761133,139.6722269,ChIJ4ytwySLzGGARv2ZjuafutIM
海,飲食,居酒屋,居酒屋,渋谷区笹塚2-16-4アロービル101,03-3375-2283,,35.674312199999996,139.6660201,ChIJqe-i8xnzGGARkMS9_T_dBBo
海月,飲食,日本料理,その他,渋谷区渋谷2-2-4アルコーブ青山204,03-3486-5778,,35.66044,139.708717,ChIJ_zL395-MGGARbQRMCxwuDFs
海鮮処向井,飲食,日本料理,日本料理,渋谷区神泉町15-61F,080-7652-6625,,35.657055799999995,139.6926843,ChIJ91tyuUONGGARCbGRh8EAjCQ
海鮮ワイン酒房　VINDUSTRY,飲食,外国料理,イタリア料理,渋谷区神山町4-18フィルトップ神山　2F,03-6804-7034,https://m.facebook.com/vindustryshibuya/,35.6651768,139.69284349999998,ChIJ63L8M06NGGARnWijqVCjz9Y
カイトバル,飲食,外国料理,イタリア料理,渋谷区恵比寿西1-7-13スウィングビル1F,03-6416-9930,,35.648016,139.70854989999998,ChIJGdPockGLGGARZPEJNrjsV5M
Counter Sharing imantokoro,飲食,その他(バー・クラブ・スナックなど),バー,渋谷区宇田川町37-15ARISTO渋谷 Le Comptoir 内,090-3662-3924,https://www.instagram.com/imantokoro/,35.662558,139.6951351,ChIJ9TAb1VSNGGARgyfr6e63gQE
隠れ酒場　円空,飲食,居酒屋,居酒屋,渋谷区道玄坂1-15-7アネックスサクマ201,03-6416-5290,,35.6569686,139.6975232,ChIJl3NyQlaLGGARFTPUzhU1CHc
カジュアル日本酒バー94,飲食,居酒屋,居酒屋,渋谷区南平台町1-6,03-6416-3993,,35.6555642,139.6969425,ChIJ7THnRfyLGGARgg-3kNaxlIk
カタネカフェ,飲食,喫茶店・カフェ,喫茶店・カフェ,渋谷区西原1-7-5,03-3466-9834,,35.6735056,139.68203689999999,ChIJVVVVlTnzGGARq1lOGh5lXQs
カタラタス,飲食,その他(バー・クラブ・スナックなど),その他,渋谷区桜丘町16-14ドルチェ渋谷B202,03-3461-6615,,35.6567542,139.70132859999998,ChIJ53jHYVeLGGARAfGM6JIFC7k
割烹季誠,飲食,日本料理,日本料理,渋谷区幡ヶ谷2-25-3アーバン幡ヶ谷1F,03-6383-3639,https://www.instagram.com/kappou.kise?igsh=cnR4azJtN2xrdHlz&utm_source=qr,35.6759792,139.67180829999998,ChIJWa8ErdbzGGARA3Fo4m9lkU8
かつお食堂,飲食,日本料理,その他,渋谷区鶯谷町7-12B1,03-6877-5324,,35.6541103,139.7021029,ChIJ5VahuViLGGARdhxzaSEMQ6w
かなた,飲食,居酒屋,居酒屋,渋谷区宇田川町31-9ハナテイビル 6階,050-3467-7019,,35.6612042,139.697918,ChIJFYBKCamMGGAR4WyHnpoZu64
カフェアンソロジア,飲食,その他(バー・クラブ・スナックなど),カフェバー,渋谷区富ヶ谷1-12-7田村ビル101,03-3485-7865,,35.6672541,139.6920432,ChIJRyJp27KMGGAR4S2pSkz9my8
Cafe1008,飲食,喫茶店・カフェ,喫茶店・カフェ,渋谷区神宮前1-1-10SCC千駄ヶ谷コミュニティセンター内,080-4078-9273,,35.6740783,139.7066542,ChIJuVNUnI2NGGARej5seo8iO5I
Cafe＆Bar1985,飲食,喫茶店・カフェ,喫茶店・カフェ,渋谷区道玄坂2-22-6CREA道玄坂1F,03-6427-0551,,35.659569999999995,139.6955491,ChIJtZvlMaqMGGARAUhjw0GdMpI
Cafe&bar The4th EBISU,飲食,その他(バー・クラブ・スナックなど),バー,渋谷区恵比寿南2-3-12je1ビル2F,03-5724-3409,,35.6454841,139.70733629999998,ChIJsb2XxkCLGGARifaQ8H9ratk
Cafe＆Bar　753～nagomi～,飲食,その他(バー・クラブ・スナックなど),バー,渋谷区笹塚2-14-6ディアレストケイオーB1F,03-3376-5555,,35.674566000000006,139.66679589999998,ChIJV6vewRnzGGAR7SIMPoyvOlI
カフェアンドバーニコ,飲食,その他(バー・クラブ・スナックなど),カフェバー,渋谷区千駄ヶ谷4-29-12北参道ダイヤモンドパレス106,03-6384-5957,,35.681039399999996,139.7038643,ChIJJQrWtCCNGGARRpA6OiR8RRE
Cafe and Bar Margarita,飲食,その他(バー・クラブ・スナックなど),カフェバー,渋谷区幡ヶ谷2-5-4セイジョービル2F,03-6276-2217,https://www.instagram.com/takepal_margarita/?hl=ja,35.678461299999995,139.6776306,ChIJm1n_JKrzGGARhBsEh6Sq8gw
cafe＆Bar Rooster,飲食,その他(バー・クラブ・スナックなど),バー,渋谷区恵比寿南2-2-1込山ビルB1,03-3760-3909,http://www.ebisu-rooster.com,35.6459322,139.70751479999998,ChIJnbeS3ECLGGARUmJrWtx_fq8
cafe&diningポポラーレ,飲食,外国料理,イタリア料理,渋谷区本町3-44-2カーサS1階,03-5371-3557,,35.6878763,139.6815323,ChIJRZf8DSjzGGARBPIJ_oXxdZE
Cafe tomarigi,飲食,喫茶店・カフェ,喫茶店・カフェ,渋谷区大山町46番12号THEONETHIRD大山町401号室,080-4530-0707,,35.6684704,139.67785809999998,ChIJY65pLpDzGGARpuPockylacc
カフェ・ド・チャコ,飲食,喫茶店・カフェ,喫茶店・カフェ,渋谷区恵比寿1-33-10タキセビル1階,03-5860-2110,,35.646619199999996,139.7163693,ChIJwTZZufCLGGARzdm8qpOH5O0
カフェナイン,飲食,喫茶店・カフェ,喫茶店・カフェ,渋谷区代々木5-38-6ガーリックビル1階,03-6875-0353,,35.6711655,139.6901258,ChIJ43SaI0vzGGARgPqmj-jA7Po
cafeNABE,飲食,喫茶店・カフェ,喫茶店・カフェ,渋谷区本町2-39-1eフラット1f,03-6276-8333,,35.684030899999996,139.6832283,ChIJ4UIhJy_zGGARGYwWZpKDg5U
cafe nook,飲食,喫茶店・カフェ,喫茶店・カフェ,渋谷区代々木1-37-3岩崎ビル地下1階,03-3373-7009,https://www.facebook.com/yoyogi.cafenook,35.6837259,139.7010196,ChIJwb1mX8-MGGARdKK8BjG50IU
cafebar home S,飲食,その他(バー・クラブ・スナックなど),カフェバー,渋谷区恵比寿南1-7-8ニューライフ恵比寿204,03-6303-2916,,35.6462384,139.709663,ChIJIVrKaUCLGGARcD82BlhQH04
cafebar LIL,飲食,喫茶店・カフェ,喫茶店・カフェ,渋谷区代々木5-67-8MAKITAKIビル3階,03-5738-8162,,35.6709545,139.69045409999998,ChIJr2kGPWXzGGAR1VbhgX3C3Wc
カフェフラッティーザスタンダードトウキョウ,飲食,喫茶店・カフェ,喫茶店・カフェ,渋谷区千駄ヶ谷1-21-4かがみビル1階,03-6271-4568,,35.678618199999995,139.7095436,ChIJZ93zD82NGGAR6s-3otOxtcE
Cafe ミカエル,飲食,喫茶店・カフェ,喫茶店・カフェ,渋谷区代々木5-55-5 2F「隠れのみ処諸星」内,090-8047-8480,,35.677987699999996,139.69165759999998,ChIJTyaqTgCNGGARsCjDemzLxBk
Cafe Midori,飲食,喫茶店・カフェ,喫茶店・カフェ,渋谷区神宮前2-3-28,090-9840-1225,,35.6738232,139.7110336,ChIJDzACFwCNGGARoQtIqwaQvX8
カフェRaiRai,飲食,喫茶店・カフェ,喫茶店・カフェ,渋谷区西原2-28-1,03-3466-5503,,35.675540700000006,139.6779573,ChIJK-XrqDvzGGARXzA_2XVcLk4
カフェル・ポミエ,飲食,喫茶店・カフェ,喫茶店・カフェ,渋谷区神宮前5-8-2日本看護協会ビル2階,03-6427-9193,,35.6669692,139.7080741,ChIJMUHQZqGMGGARfai-W2fIz9Y
カフェ・レストラン泥人形,飲食,喫茶店・カフェ,喫茶店・カフェ,渋谷区千駄ヶ谷4-20-2民主青年会館　B1,03-3404-3646,,35.6810219,139.7074032,ChIJDx6upsCMGGARjUlWY62v_PY
カフェフラッティーザスタンド,飲食,喫茶店・カフェ,喫茶店・カフェ,渋谷区千駄ヶ谷3-33-6101,03-6447-0697,,35.67723050000001,139.7064661,ChIJ19VXy76MGGARgDXwmYBvy6k
株式会社ALAWA,飲食,その他(バー・クラブ・スナックなど),バー,渋谷区恵比寿4-9-1武川ビル2階,080-1166-2935,,35.6460794,139.71253389999998,ChIJp8GKaoeLGGARHMBJBP4sj44
株式会社宇治園裏参道ガーデン店,飲食,喫茶店・カフェ,喫茶店・カフェ,渋谷区神宮前4-15-2裏参道ガーデン1F壱番,070-4448-0217,,35.6685836,139.7107834,ChIJl8zQA4eNGGARb0qdW2gsOW4
株式会社nsp,飲食,居酒屋,居酒屋,渋谷区宇田川町37-14塚田ビル2階,03-6416-8806,,35.6624445,139.69528459999998,ChIJp3L4C6yMGGARsDYTFyU2_6I
株式会社太陽食堂,飲食,居酒屋,居酒屋,渋谷区幡ヶ谷2-8-10リッシェル幡ヶ谷103号,03-3374-7350,,35.6776523,139.6771036,ChIJAYmCSjvzGGARPGI4kYrPU10
株式会社花菱,飲食,日本料理,うなぎ,渋谷区道玄坂2-16-7花菱ビル1階,03-3461-2622,,35.6583854,139.69669629999999,ChIJ0aIQ_KmMGGAR45rQNtLw6rg
株式会社　松木家,飲食,日本料理,その他,渋谷区円山町6-8松木家ビル1階　　,03-3461-2651,,35.657168399999996,139.69470429999998,ChIJt88gilWLGGARMPtPR5_gF_U
Cabotte,飲食,外国料理,フランス料理,渋谷区桜丘町12-5桜丘Kビル　地下1階,03-3462-7790,,35.654241,139.701216,ChIJ_9VJoFCLGGARaTJWqPf3IZc
comecafe  Osamu bar,飲食,喫茶店・カフェ,喫茶店・カフェ,渋谷区鶯谷町8-10代官山トゥエルブ2 2F-A,090-6538-138,,35.6531811,139.7039662,ChIJScoZHluLGGARug8stk5WG5w
かもん,飲食,その他(バー・クラブ・スナックなど),バー,渋谷区上原1-35-9,080-6776-1122,,35.6696173,139.68143519999998,ChIJD_7vMwDzGGARmHMKLlh19xc
粥麺楽屋喜々,飲食,外国料理,中国料理,渋谷区神宮前2-6-6秀和外苑レジデンス,03-5474-6691,https://tabelog.com/tokyo/A1306/A130603/13020662/,35.6726247,139.7123195,ChIJcatHEpiMGGARtTHHJMuA968
唐揚げ餃子忠吉,飲食,居酒屋,居酒屋,渋谷区本町3丁目8番10号,03-6276-7779,,35.6890199,139.68329079999998,ChIJgTjTgenzGGARVsz6X2PNMJg
カラオケスナックМ,飲食,その他(バー・クラブ・スナックなど),スナック・パブ・キャバレー,渋谷区神山町9-14白樺ビル103,070-4531-0717,,35.6636029,139.69426389999998,ChIJa1XxcrmNGGARkg5dCv4Pzwo
Carasawagi Bar,飲食,その他(バー・クラブ・スナックなど),バー,渋谷区笹塚1-57-10笹塚駅前ビル2F,03-5388-9785,https://r.gnavi.co.jp/8grmdk8y0000/?sc_lid=smp_top_01,35.6739368,139.6669728,ChIJjc_13RnzGGARIQRe0bR5UH0
CALLASTOKYO,飲食,その他(バー・クラブ・スナックなど),カフェバー,渋谷区富ヶ谷2-45-21,070-8354-8282,,35.6676518,139.6875572,ChIJVVX0bUzzGGARCHzccdcghCk
辛トォンデジ,飲食,外国料理,韓国料理,渋谷区道玄坂1-20-12MT道玄坂ビル1F,03-3464-6653,,35.6569346,139.6964749,ChIJtUaKBz2LGGARFN7cWfOsvtk
カリヒオ,飲食,外国料理,インド料理,渋谷区幡ヶ谷2-48-7細谷荘1F,03-5371-0125,,35.679476,139.67685179999998,ChIJizXpjSTzGGARSxwe1qmHnmQ
カリビアンレストランサニーカフェ,飲食,外国料理,その他,渋谷区広尾1-6-6第一三輪ビル102,03-6456-2217,,35.648516799999996,139.71457379999998,ChIJC03sFgCLGGARoc-9fRMV_sM
CARIMELLO,飲食,外国料理,その他,渋谷区富ヶ谷1-8-7飯島ビル1階,03-5453-8518,,35.6686318,139.6908516,ChIJ1WgftEzzGGAR20GteNWhF-M
CURRY&SPICE 青い鳥,飲食,外国料理,その他,渋谷区幡ヶ谷2丁目47-12ハウス満盛 2F,03-6276-0082,,35.6792223,139.6770909,ChIJORVd6yTzGGARHNRDc8VmmKU
かわど,飲食,喫茶店・カフェ,喫茶店・カフェ,渋谷区恵比寿1-8-14大黒ビル1F 恵比寿ストア内 かわど,090-2036-4639,,35.647708699999995,139.70992569999999,ChIJ8cjMtkGLGGAR-n8M1hFE_l4
韓国家庭料理アシア,飲食,外国料理,韓国料理,渋谷区代々木4-5-1ダイヤビル109,03-5371-2005,,35.6785802,139.69260359999998,ChIJq6r2a8uMGGAREfBFF76KIm4
韓国語で話せBAR,飲食,その他(バー・クラブ・スナックなど),バー,渋谷区猿楽町2-14プラスリノ猿楽町4階,090-1976-1000,,35.6534337,139.704869,ChIJXb3BHgCLGGARbmTRf4jIXlA
韓国食堂トォンデジ,飲食,外国料理,韓国料理,渋谷区桜丘町16番地7鈴木ビル1F,03-3770-2939,,35.6564005,139.7010784,ChIJixZDjYWLGGAR6UZ9TzztEAA
韓国料理らーたん,飲食,外国料理,韓国料理,渋谷区笹塚1-58-13フィエスタ笹塚3F,03-5304-4884,,35.673645,139.6662253,ChIJMzDJ_BnzGGARhHajIBTlalY
CANTINA REGALO,飲食,外国料理,イタリア料理,渋谷区代々木4-6-2宍戸ビルB1F,03-6383-3384,,35.6782744,139.6928724,ChIJb6uJvSaNGGAR47zwOKFfhr4
カンパイ!BUTTON,飲食,その他(バー・クラブ・スナックなど),カフェバー,渋谷区笹塚1-57-10笹塚駅前ビル2F WAIGAYA内,03-6680-7371,https://instagram.com/canpai_button?igshid=YmMyMTA2M2Y,35.675700299999995,139.66826989999998,ChIJKS7SNgDzGGAREMBR2APuLb0
カーサベッラ,飲食,外国料理,イタリア料理,渋谷区神宮前2-3-30第二竹上ビルB1,03-6804-1495,http://www.hostariacasabella.com/,35.6744537,139.7134121,ChIJpTbzA-GNGGARVeibvhoU90o
カーニャパッソ,飲食,居酒屋,ダイニング・バー,渋谷区代々木1-32-9吉川代々木ビルB1F,070-1537-7237,,35.6768978,139.707113,ChIJiVw6v1uNGGARw6G5FBqMdkA
コズミックダイニング・GAILA,飲食,外国料理,無国籍料理,渋谷区初台1-36-1,03-5388-8437,,35.6800502,139.68597649999998,ChIJp1Q6HcnzGGARIBZhAlUyndE
GatemoTabum　ガテモタブン,飲食,外国料理,その他,渋谷区上原1-22-5,03-3466-9590,https://www.gatemotabum.com/,35.668420999999995,139.68261959999998,ChIJO5QH9kjzGGARroZFocXbHLc
GATO,飲食,喫茶店・カフェ,喫茶店・カフェ,渋谷区本町6-38-3松島ビル1階,080-3272-3820,,35.680775,139.6761473,ChIJC9Ttxt6NGGARWqOI2ocgMVg
がらり千駄ヶ谷店,飲食,居酒屋,居酒屋,渋谷区千駄ヶ谷2-6-4がらり千駄ヶ谷店,03-5786-1820,,35.6751071,139.7091009,ChIJpTVrrb2MGGARLi_dBGo9kNc
元祖うな鐡,飲食,日本料理,うなぎ,渋谷区道玄坂道玄坂2-8-8コスモ渋谷館1階,03-3461-9024,http://www.unatetsu.com,35.6584309,139.6983856,ChIJpV8yKVaLGGARi98qFLtrXko
元祖シュウマイ酒場　野田焼売店,飲食,居酒屋,居酒屋,渋谷区千駄ヶ谷5-18-1,050-5456-1908,,35.682984999999995,139.7028646,ChIJYzJm17mNGGARV05peFp_JSA
樹安亭,飲食,喫茶店・カフェ,喫茶店・カフェ,渋谷区千駄ヶ谷5-21-2松友ビル　1F,090-4919-0173,,35.683351699999996,139.7043198,ChIJAZ07j8aMGGARtjNe-VX1_FQ
キガルニワショク弾,飲食,居酒屋,居酒屋,渋谷区上原1-33-12ちとせビル202,03-6804-8935,,35.669204,139.680682,ChIJK0Tg40fzGGARof64lpfDP6c
きくちや,飲食,居酒屋,居酒屋,渋谷区西原3丁目23-62Fプラド,080-9050-9058,,35.670932799999996,139.6807387,ChIJfytt1W_zGGARPhNPg27l_5g
BAR KIZUKI,飲食,その他(バー・クラブ・スナックなど),バー,渋谷区渋谷1丁目8番地5号グローリア宮益坂10階,03-6434-1309,,35.6602679,139.7054191,ChIJc35nwViLGGARXNpJ7dkMbFg
KITASANDO COFFEE,飲食,喫茶店・カフェ,喫茶店・カフェ,渋谷区千駄ヶ谷4丁目12-8SSUビル1F,070-9154-5483,,35.678944,139.7064308,ChIJuziVM6KNGGARf8D_CEUyVFI
きたぽん酒,飲食,その他(バー・クラブ・スナックなど),バー,渋谷区広尾1-10-5日興パレス広尾プラザ103,03-6882-4800,,35.648294899999996,139.71693349999998,ChIJW8ZI3ESLGGARvd8kaf_EjA0
喫茶おおいずみ,飲食,喫茶店・カフェ,喫茶店・カフェ,渋谷区笹塚3-19-5大泉商店ビル1F,03-3377-5996,,35.6770384,139.6673478,ChIJo7T-rSHzGGARX623H8nkawU
喫茶室 とし,飲食,喫茶店・カフェ,喫茶店・カフェ,渋谷区恵比寿西1丁目8-2ウエストパレスビル1階,090-8596-6592,,35.647793,139.70817,ChIJIw_4S2KLGGARSyYig3ejN3E
喫茶SMiLE 喫茶スマイル,飲食,その他(バー・クラブ・スナックなど),バー,渋谷区宇田川町11-11柳光ビル本館3F,080-5546-9657,http://www.udagawasmile.com,35.662562,139.69722,ChIJo2qzTqmMGGAR9F8aXghUhJY
喫茶ダンボ,飲食,喫茶店・カフェ,喫茶店・カフェ,渋谷区初台1-39-10,03-3379-6799,,35.679977199999996,139.687116,ChIJpSjjNjLzGGARoz0r57nienU
喫茶と酒場　代官山ジャンプ,飲食,喫茶店・カフェ,喫茶店・カフェ,渋谷区代官山町13-4セレサ代官山2階,03-6455-1815,,35.6498692,139.7044759,ChIJBWZizA6LGGARtb5oeWOiKtg
喫茶バー　ナイマ,飲食,喫茶店・カフェ,喫茶店・カフェ,渋谷区上原3-2-2,03-5453-0169,,35.667401399999996,139.68131689999998,ChIJ-_ixANLzGGARhh9i04Zqh0c
kitchen&bar MORIS,飲食,居酒屋,ダイニング・バー,渋谷区東2-20-16estマニヴィアB1F,03-6451-1683,http://www.morismoris.com/,35.653522599999995,139.7089083,ChIJmyeEKUOLGGARWg_q6wJokJg
キッチンかねじょう,飲食,外国料理,その他,渋谷区幡ヶ谷2-47-1本田ビル1階,03-6276-1514,,35.679120999999995,139.67729309999999,ChIJXX6zV5HzGGAROgkpmQ96nyo
キッチンカーAZITO,飲食,その他(バー・クラブ・スナックなど),その他,渋谷区神宮前2丁目31-8,090-7758-8964,,35.6729947,139.7089686,ChIJAegPeQCNGGARkOx_xwnhM5g
キッチンシロップ,飲食,喫茶店・カフェ,その他,渋谷区幡ヶ谷1-32-15笹峰ぎゃらりー1階,070-1596-0632,,35.676312599999996,139.67651189999998,ChIJeYS-9z_zGGARqD-KDVlZvJg
kitchen GCH,飲食,その他(バー・クラブ・スナックなど),その他,渋谷区笹塚3-19-4平野ビル1F,03-5843-5343,,35.6771848,139.6672467,ChIJqRYuLajzGGARBhrKMZNkUdA
キッチン髙野,飲食,外国料理,中国料理,渋谷区本町4-43-1,090-8808-2772,,35.6858375,139.67887439999998,ChIJZ1tHqeXzGGARDfg3pKzbW94
キッチン屯,飲食,居酒屋,居酒屋,渋谷区広尾5-19-3マチダビル一階,090-2871-6552,,35.6489121,139.7199144,ChIJM31RLW2LGGAR2e113EIAbXQ
キッチンハセガワ,飲食,外国料理,その他,渋谷区円山町22-16,03-6416-1081,https://kitchen-hasegawa.com/,35.65678,139.69435629999998,ChIJBTCOj1WLGGARVbkrIsj1LWA
キッチンふるはし,飲食,ステーキ・焼肉,その他,渋谷区広尾5-18-2,03-3444-3733,,35.6494181,139.72058289999998,ChIJQdI0tRKLGGARUMtorVGKKtQ
キッチンわたりがらす,飲食,外国料理,無国籍料理,渋谷区東3-24-14エクセルハイム恵比寿1階,03-3797-1515,,35.649483499999995,139.7095403,ChIJFWEcpQ6LGGARZzui8XCLBHE
紀風,飲食,日本料理,日本料理,渋谷区恵比寿ターレル恵比寿1階,03-5422-7792,https://www.ebisu-kihuu.com/,35.6468823,139.7171721,ChIJQz96XROLGGARmDVoG0hsSRc
きまぐれクミコ,飲食,その他(バー・クラブ・スナックなど),カフェバー,渋谷区道玄坂2-20-26藤和エクシール道玄坂B1-5,03-6427-0838,,35.659329199999995,139.69675469999999,ChIJLxLL8qmMGGARVoQT5Bhdt4I
気まぐれダイニングBAR PONすけ,飲食,その他(バー・クラブ・スナックなど),バー,渋谷区幡ヶ谷2-20-6第10岩田ビル,03-3374-6460,,35.6767065,139.67408849999998,ChIJqbr4MiPzGGARucVNWEZBy5o
キミドリ.,飲食,居酒屋,その他,渋谷区渋谷3丁目12番24号小池ビル1F小池ビル,03-5468-3289,,35.656602899999996,139.705886,ChIJZVvX8FuLGGARvvK7zADWuQ8
木本商店,飲食,居酒屋,居酒屋,渋谷区幡ヶ谷3-8-7,03-5351-0848,,35.6807468,139.6760133,ChIJE5IhdSTzGGARcZQmv7fipw0
CAMELBACK RICH VALLEY,飲食,喫茶店・カフェ,喫茶店・カフェ,渋谷区富ヶ谷1-9-23服部ビル102,03-6407-9969,,35.668732,139.68987199999998,ChIJhRCh413zGGARPp4ypMo_zH8
CAMELOT,飲食,その他(バー・クラブ・スナックなど),クラブ,渋谷区神南1丁目18番2号フレーム神南坂B1～B3,03-5728-5613,,35.662659999999995,139.70003699999998,ChIJu5JQ66iMGGARx4LoABnQNPU
キュマン,飲食,外国料理,無国籍料理,渋谷区代々木4-11-16,090-6182-2135,,35.679266999999996,139.6915961,ChIJx05m3rONGGARz5UYgIJGAF0
京料理　阿うん,飲食,日本料理,日本料理,渋谷区富ヶ谷 1-33-6代々木パークサイドB1,050-3628-6763,https://www.tablecheck.com/ja/shops/aun/reserve,35.6666266,139.68819249999999,ChIJse9z9zbzGGARs9hEHLuEo-8
㐂宵,飲食,居酒屋,居酒屋,渋谷区宇田川町36-16プラザマリーナビル103,03-6427-0748,https://www.instagram.com/777.sake/,35.6617134,139.6963351,ChIJR1NdRrSNGGAR7oA7qv_cA2A
清武,飲食,居酒屋,居酒屋,渋谷区松濤1-29-2松涛スクエアビル地下1階,03-6455-0064,,35.659965299999996,139.6951153,ChIJZ53Jy6uMGGARlvLeIecKAMI
金ちゃん渋谷2号店,飲食,外国料理,韓国料理,渋谷区宇田川町28-15サンマルジェビル5階,03-3461-6655,,35.660371999999995,139.6984389,ChIJlxMbvZCNGGAREcRBNcp_-yI
金ちゃん渋谷本店,飲食,外国料理,韓国料理,渋谷区宇田川町30-5渋谷JOWビル9階,03-6455-3838,,35.6608944,139.69797789999998,ChIJAxN6p6mMGGARV4ZCE8RH4pc
有限会社きんはる,飲食,居酒屋,居酒屋,渋谷区上原1丁目34番7号和田ビル1階,03-3469-1410,,35.6693627,139.6815117,ChIJewBlDUjzGGAR1jTL1S8tdg4
ぎっちょん,飲食,居酒屋,ダイニング・バー,渋谷区神宮前2-22-1長谷川ビル1F,03-3402-3164,,35.6751356,139.71051409999998,ChIJR2aQdb2MGGARH-FnmshJOj0
ギャラリーコンシールシブヤ,飲食,喫茶店・カフェ,喫茶店・カフェ,渋谷区道玄坂1-11-3富士商事ビル4F,03-3463-0720,,35.6576082,139.6987605,ChIJSZTctFeLGGARjJZlYwb88Ic
Gallery Bar 余白,飲食,その他(バー・クラブ・スナックなど),バー,渋谷区本町2-1-7フォレスト初台102,03-5843-5392,,35.6843925,139.68517509999998,ChIJnc1F5hHzGGAROrZcs8E0UEc
ギャラリー雪月花タイ料理サムロー神泉,飲食,外国料理,東南アジア料理,渋谷区神泉町14-13ギャラリー雪月花ゆづか　SaamRoa,090-7833-3710,,35.6569459,139.69243369999998,ChIJlzp3KJCNGGARMfYmR8zFP8M
牛タンいろ葉別邸,飲食,居酒屋,居酒屋,渋谷区千駄ヶ谷5-20-10ほぼ新宿のれん街,03-3354-3130,,35.6830244,139.70339429999999,ChIJmfvQZcaMGGARQRGcBWrRb0g
牛丸,飲食,ステーキ・焼肉,焼肉,渋谷区宇田川町30-5渋谷JOWビル 8階,03-6712-7871,,35.660894899999995,139.69797939999998,ChIJAxN6p6mMGGARhNYs79irJFg
QUEEN MAJESTEA,飲食,喫茶店・カフェ,喫茶店・カフェ,渋谷区幡ヶ谷3-16-7Repia-M102,090-3109-0474,,35.6801131,139.6735282,ChIJibb89nbzGGAR7nPYcEVhpaw
空雅,飲食,ステーキ・焼肉,焼肉,渋谷区恵比寿1-6-7animoebisu 3F,03-6450-3885,,35.6477162,139.7108705,ChIJBa7hq0OLGGARIWz-0nF9YWw
KUKUTANA,飲食,その他(バー・クラブ・スナックなど),その他,渋谷区桜丘町23番17号シティコート桜丘408,070-8435-5540,,35.6556571,139.6997131,ChIJXXEcPFeLGGAR9AqLXxKqrCI
串揚げ酒場あすれ,飲食,居酒屋,居酒屋,渋谷区笹塚3-19-2青田ビル1C,090-3585-6528,,35.677256199999995,139.66707250000002,ChIJg66_wJDzGGAR_YE_xtMb_58
串揚げひなた,飲食,居酒屋,居酒屋,渋谷区代々木1-42-2代々木berry102,03-6276-8289,,35.6828548,139.6994914,ChIJIY_IP96NGGAR7h86rEfatRM
串いろいろとわっぱ飯　民家,飲食,居酒屋,居酒屋,渋谷区恵比寿南2丁目2番2号K・Tビル,03-3760-2400,,35.6458035,139.7076188,ChIJz8TnwkCLGGARyL2LGMQQWFU
串カツ民屋代々木上原店,飲食,居酒屋,居酒屋,渋谷区上原1-35-2上原銀座ビル2F,03-5453-6070,,35.6697035,139.6820496,ChIJ71GtQEjzGGAR54bonNZ5oOk
串音,飲食,日本料理,とんかつ・串かつ,渋谷区道玄坂2-23-13渋谷デリタワー5階,090-5793-3356,http://kushine.com,35.660112999999996,139.696099,ChIJad7gKqqMGGARWnQfSIl2Oz4
串焼き七福,飲食,居酒屋,居酒屋,渋谷区富ヶ谷1-3-12エムプレイス201,03-3469-4989,,35.669401,139.689199,ChIJqTm2ekvzGGAR_6EsTwl6b40
串焼ダイニング十兵衛,飲食,居酒屋,ダイニング・バー,渋谷区恵比寿南1-23-5アメリカンブリッジカンパニービル1F,03-3719-2833,,35.643099,139.711731,ChIJ7zgChxWLGGARyfWtEl-776k
串焼と酒　一佳,飲食,居酒屋,居酒屋,渋谷区恵比寿1-4-1恵比寿アーバンハウス109,03-3444-0801,,35.6477226,139.7116048,ChIJue4RgmqLGGARg_kT-ZZCBsk
串や　馬加羅亭,飲食,居酒屋,居酒屋,渋谷区恵比寿3-4-3第四得丸ビル1階,03-3442-2547,,35.644766,139.7189391,ChIJo6avzhOLGGARt7Wwd-fkbJE
CUCINA DIESEL FARM,飲食,外国料理,イタリア料理,渋谷区渋谷1-23-16cocoti 1F,03-3409-5670,,35.6620432,139.702579,ChIJ25QMB_mNGGARVlbp10ZJIg0
CUJORL,飲食,外国料理,その他,渋谷区桜丘町22-8縣ビル1F,03-5784-5818,,35.654221199999995,139.6999325,ChIJxX0txlCLGGARCLDKN-s51ko
クライネヒュッテ,飲食,居酒屋,居酒屋,渋谷区代々木2-11-5アクティブ新宿B1,03-3320-3557,,35.6875699,139.6975391,ChIJn2zIl9GMGGARreTHCyfikIc
CLIMB,飲食,居酒屋,ダイニング・バー,渋谷区神宮前1-8-5メナー4F,090-3685-2926,,35.6702106,139.7064647,ChIJnb6bX6OMGGARVG3eFLrFg_g
Crowny cafe Stand,飲食,喫茶店・カフェ,喫茶店・カフェ,渋谷区代々木1-38-6星野ビル1階,03-6300-7766,https://crownycafe.com/,35.6724628,139.6860696,ChIJe14Zv2DzGGAR5pe50H1r-LE
KURA 渋谷店,飲食,外国料理,イタリア料理,渋谷区渋谷1-24-7渋谷フラットビル1F,03-5466-1010,,35.6606112,139.7021072,ChIJ2Umo8KeMGGAR1y1xt1BiXWM
Craft Curry Brothers BASE 代々木,飲食,日本料理,その他,渋谷区代々木3丁目13-1Smi:re Yoyogi 1階,090-5683-4466,,35.6838833,139.69498489999998,ChIJWZxVb_KNGGARe_aFROh5Fdk
Craftbeer gau's,飲食,その他(バー・クラブ・スナックなど),カフェバー,渋谷区神山町16-4ヴィラメトロポリス2A,090-1538-8485,,35.6632797,139.69403459999998,ChIJFRUpWqyMGGARyaIux2hURhE
クラフトビール量り売り TAP&CROWLER 渋谷店,飲食,その他(バー・クラブ・スナックなど),バー,渋谷区宇田川町6-20パラシオン渋谷1階,03-6416-5948,https://www.craft-beers.shop,35.6629752,139.69716739999998,ChIJzXYUW-yNGGAR0B8fZ-9yy_Y
クラフトビール量り売りTAP&TUMBLER恵比寿店,飲食,居酒屋,ビアホール,渋谷区恵比寿恵比寿MFビル1階,03-6456-3235,https://www.instagram.com/taptumbler_/,35.6459043,139.7123993,ChIJXV54NRyLGGARQKvLvQzBFMk
CLUB HEAVY SICK,飲食,その他(バー・クラブ・スナックなど),ライブハウス,渋谷区西原2-27-4升本ビルB1,03-3466-1445,,35.67523510000001,139.6783561,ChIJNb5PszvzGGAR-9rYwTFLxBY
クラブ　リズ,飲食,その他(バー・クラブ・スナックなど),スナック・パブ・キャバレー,渋谷区幡ヶ谷2-13-3幡ヶ谷駅前サンクスビル2F,03-3376-6310,,35.6775071,139.6769946,ChIJh2IASzvzGGARuvTPnhlara0
CREAM PAND BAKERs,飲食,喫茶店・カフェ,喫茶店・カフェ,渋谷区恵比寿西2-14-10TWONE代官山1F-B,080-4307-0351,,35.6500207,139.7052779,ChIJIQNXUQ2LGGARVzg_itcKoS0
くるり恵比寿,飲食,居酒屋,居酒屋,渋谷区恵比寿西1-7-9恵比寿タイムハウスビル3階,080-1430-0308,,35.6477204,139.7087487,ChIJRfI_CUGLGGARBHmRM70s9EM
クレープとエスプレッソと,飲食,喫茶店・カフェ,喫茶店・カフェ,渋谷区神宮前4-13-20,03-6804-6040,,35.6672722,139.7098762,ChIJmeaNOgCNGGARd25gRgqilQs
黒毛七厘,飲食,外国料理,その他,渋谷区恵比寿1-23-16第六大浦ビル102,03-6277-3267,,35.6458723,139.71549149999998,ChIJsb7b_5uLGGAReVYJdx7jaYc
黒豚・地鶏ダイニング　SATSUMA,飲食,居酒屋,居酒屋,渋谷区神宮前1-23-26神宮前123ビル　1階,090-5299-0798,,35.667491,139.7062812,ChIJIUfKC6SMGGARahDQi91cnXE
燻製酒場おりおん,飲食,居酒屋,居酒屋,渋谷区渋谷1-25-10渋谷のんべい横丁,03-6416-3341,,35.6600585,139.70149809999998,ChIJNYtw_SqLGGARg6XQh7evixI
燻製BARオリオン,飲食,その他(バー・クラブ・スナックなど),バー,渋谷区神南1-20-9パークウェイ渋谷2階,03-6416-3341,,35.6619659,139.6998643,ChIJm-Zz9KiMGGAR2yZ5sy9mXMw
クークー,飲食,喫茶店・カフェ,その他,渋谷区西原1-7-8,03-6873-9120,,35.6738839,139.68173149999998,ChIJgdkujmzzGGAR9XDfSHJo2LY
guenin cafe,飲食,喫茶店・カフェ,喫茶店・カフェ,渋谷区恵比寿1-22-23,070-1266-6789,,35.64722,139.71534180000003,ChIJ9UOIeaiLGGARjdE9a1a_cc4
グッドグッドノットバッド,飲食,喫茶店・カフェ,喫茶店・カフェ,渋谷区宇田川町4番8号昭和ビル101,03-6388-1286,,35.662427799999996,139.6977784,ChIJXUBcsmaNGGARMqB-h0oxXAg
gudene,飲食,その他(バー・クラブ・スナックなど),カフェバー,渋谷区渋谷2丁目7番13号ネオメット青山2階,03-3407-5450,,35.6604343,139.70770149999998,ChIJc_r4wV6LGGARop69_BfTZEg
Grunge,飲食,その他(バー・クラブ・スナックなど),バー,渋谷区西原2-28-4宮嶋ビルB1-1,03-6407-0240,,35.6752945,139.6782364,ChIJ3QdesjvzGGARvccrgrlS3vY
GRATIALLIGO,飲食,その他(バー・クラブ・スナックなど),バー,渋谷区代々木1-45-10NJビル1F,03-6276-7668,,35.682231699999996,139.6981405,ChIJ-etR0M6MGGARfArVDa9iNo0
Green Sloth,飲食,その他(バー・クラブ・スナックなど),バー,渋谷区神泉町8-12ザ・シティ渋谷神泉3F,03-6416-4559,https://retty.me/area/PRE13/ARE8/SUB804/100001458269/,35.6557391,139.6933991,ChIJl5UcqZiLGGAR42rwN_wsgD8
グルテンフリーおばんざいLL,飲食,日本料理,小料理,渋谷区西原3-4-5山田ビル4F,080-5866-5927,,35.6701099,139.6817456,ChIJRWl7FJLzGGARWxmnpD1WpVM
グルーキー,飲食,居酒屋,居酒屋,渋谷区恵比寿南1-2-6サンポウ恵比寿ビル301,03-6452-2211,,35.6459124,139.7078411,ChIJQ6rs7oqLGGAR4eqbVFzMf68
グレイ,飲食,その他(バー・クラブ・スナックなど),バー,渋谷区恵比寿南2-3-3第一恵比寿マンション地下1階,03-6452-3929,,35.646097399999995,139.70621549999998,ChIJ9cG0iD6LGGARjr97c5Q0LQI
グレムリン,飲食,居酒屋,ビアホール,渋谷区幡ヶ谷1-3-1ゴールデンセンターB1,03-6300-5723,,35.676784399999995,139.6761032,ChIJD73XWjvzGGAR6byY9kBiiFA
軽食喫茶栞,飲食,喫茶店・カフェ,喫茶店・カフェ,渋谷区幡ヶ谷1-3-1幡ヶ谷ゴールデンマンションB1,03-3374-5993,,35.676793499999995,139.676068,ChIJa9BqWjvzGGARSh8leeiK4aQ
ケニックカレー,飲食,外国料理,インド料理,渋谷区宇田川町13番9号KN渋谷2ビル4階,03-6884-2188,,35.6611192,139.6983046,ChIJx8kCg6mMGGARaAzBrEMofEI
KEBAB CAFE,飲食,外国料理,その他,渋谷区道玄坂2-25-10ベニー道玄坂ビル1階,03-3780-1367,,35.660271699999996,139.6971457,ChIJUTbpm6mMGGAR2VuGBpsiHEY
ケバブボックスジェイ,飲食,外国料理,その他,渋谷区神宮前1-8-8コクシー188ビル1F,03-3470-0706,,35.669926,139.70631219999999,ChIJ8R38oaSMGGARoy-Vgh7SFp4
煙仄,飲食,喫茶店・カフェ,喫茶店・カフェ,渋谷区代々木2-39-1エクランYS2 2F,03-6876-8195,,35.6848168,139.69666859999998,ChIJ4_bSgOSNGGARMUObPfmnWSg
喧騒,飲食,居酒屋,居酒屋,渋谷区道玄坂1-13-2萬全社ビル3F,090-3996-7666,,35.659060499999995,139.6992144,ChIJA2hB1leLGGARRwDdQUz8ohI
KKW.softcream,飲食,喫茶店・カフェ,喫茶店・カフェ,渋谷区富ヶ谷1-8-2代々木ホームズ1階,050-1809-3096,https://softcream-kkw.com/,35.6692256,139.69035929999998,ChIJxdhi1-bzGGARHDWXvRpXzFU
CASE広尾,飲食,外国料理,その他,渋谷区広尾5-18-2,03-6240-6969,,35.649439099999995,139.7206651,ChIJ-2BLZTKLGGARv32rZCYI5cQ
GET BETTERcoffee&sandwich,飲食,喫茶店・カフェ,喫茶店・カフェ,渋谷区本町2-7-9,03-6300-6045,,35.6836882,139.6827325,ChIJOc6BNEfzGGAR0ssArvYXmG0
現実逃避,飲食,その他(バー・クラブ・スナックなど),バー,渋谷区恵比寿1-22-27マガザン恵比寿8階,03-5422-6955,,35.6462505,139.7167855,ChIJTSRJocqLGGARf9ahrBj5Lpw
Kouji＆ko ITALIAN,飲食,外国料理,イタリア料理,渋谷区桜丘町16-13桜丘フロントⅡビル2F,03-6277-5010,,35.6567807,139.7012255,ChIJjSlZgTOLGGARcyrpVlhXtqk
神戸　みなと屋,飲食,喫茶店・カフェ,喫茶店・カフェ,渋谷区笹塚2-41-20岡田ビル1F,03-6383-3120,,35.675788,139.6680403,ChIJc7-KrRnzGGAR4notlz3q5ro
神戸焼肉かんてき　渋谷店,飲食,ステーキ・焼肉,焼肉,渋谷区道玄坂2-7-6,03-3461-1029,,35.6587198,139.6987279,ChIJ6-qWLFaLGGARqLbrlz2RrZU
神戸焼肉かんてき　渋谷ハナレ店,飲食,ステーキ・焼肉,焼肉,渋谷区道玄坂2-6-74階,03-6455-0229,,35.658744299999995,139.69907329999998,ChIJTZ_e9q2LGGARB1EQ1zfysHk
黄金屋渋谷店,飲食,居酒屋,居酒屋,渋谷区道玄坂1-3-11一番ビルB1F,03-5728-8600,,35.6582722,139.69963959999998,ChIJnd8Ex1eLGGARpLwkmZdsVCM
黒牛,飲食,ステーキ・焼肉,焼肉,渋谷区代々木3-1-11パシフィックスクエア代々木,03-6803-1129,https://www.instagram.com/kokugyu_yoyogi/?hl=ja,35.6821836,139.6957153,ChIJr0L6JMyMGGARSm8qL4R72P4
湖月,飲食,日本料理,日本料理,渋谷区神宮前5-50-10ぴゅあ1,03-3407-3033,https://www.kogetsu.tokyo,35.663163,139.70962799999998,ChIJS5Uthl-LGGAR1V7OJ-FBnFY
KO‐KO,飲食,その他(バー・クラブ・スナックなど),バー,渋谷区道玄坂2-26-5ひまわりビル2F,03-3463-8226,,35.6593018,139.697113,ChIJT7fq7KmMGGARNFsnaDyno-M
COCO-agepan,飲食,その他(バー・クラブ・スナックなど),その他,渋谷区神宮前5-17-16101,050-5899-5031,,35.665511699999996,139.7046737,ChIJDzrZmaaMGGARZum15NbOe6o
ココリコ渋谷店,飲食,外国料理,イタリア料理,渋谷区渋谷3-27-11GEMS渋谷5F,03-5485-7621,,35.655730399999996,139.7045688,ChIJP1QWx1uLGGARJBvoq_oLt9g
こころ-想-,飲食,日本料理,日本料理,渋谷区神宮前6-10-4COMS神宮前1階,03-6427-1336,,35.667287,139.704953,ChIJ9deoQKSMGGARd3skuvAjtgE
こしの,飲食,日本料理,小料理,渋谷区道玄坂2-16-19都路ビル105,03-3770-9888,,35.658940799999996,139.6969049,ChIJf7OL_qmMGGARxXVf7ehKhXk
コジンシュギ,飲食,居酒屋,ダイニング・バー,渋谷区桜丘町29-5石島ビル201,070-5558-1894,,35.6550509,139.6993791,ChIJwWjNL1eLGGARjJrWQwhqM8k
コスタブラバ,飲食,外国料理,スペイン料理,渋谷区笹塚1-15-5堀内ビル201,03-3465-5255,,35.67181370000001,139.6689186,ChIJOY_NTRbzGGARRvwJ10mmCkM
COSMOS JUICE TOMIGAYA,飲食,喫茶店・カフェ,喫茶店・カフェ,渋谷区富ヶ谷2-23-5富ヶ谷アルコーブ1F,03-5772-2765,,35.6631688,139.68290159999998,ChIJn6DMeJHzGGAR6kr-cTs7xvg
東風-cochi-,飲食,喫茶店・カフェ,喫茶店・カフェ,渋谷区鶯谷町15-10ロイヤルパレス渋谷103,03-6712-7858,https://www.instagram.com/cochi_shibuya,35.6540976,139.70083,ChIJnblE-maLGGARm1ptpV1wW1Y
コップンタイガー,飲食,外国料理,東南アジア料理,渋谷区道玄坂1-11-3富士商事ビル3F,03-6277-5246,,35.6576082,139.6987605,ChIJw3HfR4-LGGARHjl8yxlcrC4
コテ・フー,飲食,外国料理,フランス料理,渋谷区鶯谷町8-10代官山トゥエルブ2 / 1階D区画,03-3461-2024,,35.653271499999995,139.7039659,ChIJE2I9HluLGGARAlkcI5ZdOLI
コトBAR,飲食,その他(バー・クラブ・スナックなど),バー,渋谷区道玄坂2-7-6三喜ハウス地下1階,03-6416-3817,https://www.facebook.com/cotobar.shibuya,35.6587074,139.6987407,ChIJB_1uK1aLGGARmENgN05cIRg
此ノ奥,飲食,居酒屋,居酒屋,渋谷区富ヶ谷1-53-3Fビル1階,090-1111-1616,,35.669173,139.6883556,ChIJgwFlFQDzGGAR3fL-2i9QGRc
coの食卓,飲食,喫茶店・カフェ,喫茶店・カフェ,渋谷区宇田川町5-6渋谷区子育てネウボラ 2F,03-6455-3760,https://www.instagram.com/co_shokutaku/,35.662864899999995,139.6981973,ChIJJ9Q6rPiNGGARsyZrYeFxjhE
KOBUSHI BEER LOUNGE & BAR,飲食,その他(バー・クラブ・スナックなど),バー,渋谷区道玄坂2-17-2トップ美奄 2F,050-5373-6373,,35.658662199999995,139.6965895,ChIJEcEPQ7iNGGARyZFxDXAqf_c
駒テラス西参道カフェ,飲食,喫茶店・カフェ,喫茶店・カフェ,渋谷区代々木四丁目17番4号,03-6300-5721,,35.680606,139.6931917,ChIJ6xSZNSqNGGARg1TYJxvDjYM
小麦っ娘,飲食,居酒屋,その他,渋谷区広尾5-2-25本国ビル3階,03-6450-3956,,35.650256999999996,139.720258,ChIJgaRgPm2LGGARz58iyiCTvJI
米子,飲食,居酒屋,居酒屋,渋谷区幡ヶ谷2-5-3,03-6276-5959,,35.678353,139.67765989999998,ChIJObWymlLzGGAR_1wjruwf828
米福,飲食,日本料理,その他,渋谷区恵比寿西1-4-2川田ビルB1F,03-6416-3855,,35.648708899999995,139.70804769999998,ChIJ32KhZkGLGGARPwVpm7k11bA
COYORI,飲食,その他(バー・クラブ・スナックなど),カフェバー,渋谷区広尾5-14-4広尾SKビル2F,070-8315-0902,,35.6504141,139.7216464,ChIJw8F3s5mLGGARYzDMZmWHJrI
小料理割烹祥じ,飲食,日本料理,日本料理,渋谷区笹塚1-21-6,03-6804-9027,,35.6730282,139.66908420000001,ChIJZ45tuRfzGGARBVhOhZbrGiQ
小料理左門,飲食,居酒屋,居酒屋,渋谷区幡ヶ谷2-47-1小路ビル1-D,03-3374-5680,,35.679136799999995,139.67713,ChIJ____PyPzGGARQ1doxUK2TYQ
小料理 百けん,飲食,居酒屋,居酒屋,渋谷区道玄坂2-20-10豊田ビル1階,03-6455-3808,,35.6594437,139.6958962,ChIJzaLbJaqMGGARFuCj9K7JsVI
CONCENT,飲食,喫茶店・カフェ,喫茶店・カフェ,渋谷区本町6-34-8,03-3373-8128,,35.6802722,139.6774939,ChIJcUyYWCTzGGARPZ2hfTt_03A
Concerto,飲食,外国料理,イタリア料理,渋谷区上原1-29-5BIT代々木上原B1,03-6804-8794,,35.6683333,139.6798911,ChIJ8ZpWwUfzGGARvtQTZU20JP4
Convivio,飲食,外国料理,イタリア料理,渋谷区千駄ヶ谷3-17-12カミムラビル1F,03-6434-7907,https://convivio.jp/,35.6759166,139.7080277,ChIJB1ZQ86a7JhURpb6TfiSk_vM
COZYHOUSE,飲食,その他(バー・クラブ・スナックなど),バー,渋谷区道玄坂2-19-11FABRIC渋谷5F,03-6277-5090,,35.6594177,139.6961088,ChIJs3tY7YeNGGARkqWvd1aPFnw
珈琲家族,飲食,喫茶店・カフェ,喫茶店・カフェ,渋谷区恵比寿南1-2-8雨宮ビル　B1F,03-3710-8124,,35.646038100000005,139.7076799,ChIJn8f050CLGGARM5UWKrsoZlw
珈琲カンタータ,飲食,喫茶店・カフェ,喫茶店・カフェ,渋谷区幡ヶ谷2-15-9,090-7259-8991,,35.678399,139.6756965,ChIJHwB_YCPzGGARncF_1kBiNlo
COFFEE KIOSK ROASTER,飲食,喫茶店・カフェ,喫茶店・カフェ,渋谷区千駄ヶ谷5-6-7トーエイハイツ1C,03-6274-8411,https://www.instagram.com/coffeekioskroaster/,35.6818036,139.70634189999998,ChIJiY597zGNGGARbpxe_i1XorM
CoffeeCrevice,飲食,喫茶店・カフェ,喫茶店・カフェ,渋谷区代々木4-2-9ピーズビル2F,03-3370-7256,,35.6787279,139.69326859999998,ChIJP2mGesuMGGARUxTbKm-YKEA
コーヒースタンド烏,飲食,喫茶店・カフェ,喫茶店・カフェ,渋谷区桜丘町30-15ビバリーヒルズ102,03-6416-3918,,35.6557013,139.6980377,ChIJ2eqwRS6LGGAR9_KTAL-bSZs
珈琲店トップ　駅前店,飲食,喫茶店・カフェ,喫茶店・カフェ,渋谷区道玄坂1-4-19,03-3461-1170,,35.6585205,139.6989251,ChIJy3__3leLGGARSl5npO8zhSg
珈琲店トップ　道玄坂店,飲食,喫茶店・カフェ,喫茶店・カフェ,渋谷区道玄坂2-29-8道玄坂センタービルB1,03-3461-1624,,35.6585205,139.6989251,ChIJy3__3leLGGARSl5npO8zhSg
珈琲風味,飲食,喫茶店・カフェ,喫茶店・カフェ,渋谷区幡ヶ谷3-57-1MKハイツ,03-3378-6635,,35.6822656,139.6743747,ChIJY0asayHzGGARuL1nVhhqnzA
コーヒープンクト,飲食,喫茶店・カフェ,喫茶店・カフェ,渋谷区代々木2-12-3プーク人形劇場1階,070-6998-5184,,35.6867622,139.6974995,ChIJywIz6NGMGGARUqlDjuW1PuA
五音,飲食,居酒屋,居酒屋,渋谷区元代々木町3-7大森ビル1階,03-5738-8645,,35.6705474,139.6872503,ChIJWzSKdmjzGGARHvkp_aZqfxs
極樂食堂(極楽食堂)代々木上原店,飲食,その他(バー・クラブ・スナックなど),カフェバー,渋谷区元代々木町9-4山口ビル1階,03-6804-7797,,35.669969099999996,139.6856109,ChIJJbjbdBfzGGARs-KtJwj5aZk
ごはん・ごはん,飲食,日本料理,その他,渋谷区西原2-30-2,03-3466-4032,,35.6756798,139.67781789999998,ChIJt6nlCTvzGGARVwSlDDQMEVo
ごんべえ,飲食,居酒屋,居酒屋,渋谷区宇田川町31-3第三田中ビルB1F,03-3461-8383,,35.6613483,139.69785819999998,ChIJ192SDamMGGARDTtvB6wZxOo
歳月,飲食,外国料理,中国料理,渋谷区恵比寿2丁目17-25ジョイナービル 1F,03-6459-3222,,35.647355999999995,139.718426,ChIJ_XRdLQCLGGARNNKq4xsdNbs
CIDER SHACK,飲食,居酒屋,ビアホール,渋谷区東1-27-9奥山ビル1F,03-6450-5680,,35.6540969,139.7075387,ChIJcfDRZiKLGGARJ5Gfres2sc0
Cidernaut,飲食,居酒屋,ビアホール,渋谷区神山町16-4堀内ビル,03-6407-8848,,35.6632797,139.69403459999998,ChIJzWcmWqyMGGAR0QDj9fTGvQs
サウダーヂな東京,飲食,その他(バー・クラブ・スナックなど),カフェバー,渋谷区上原1-32-5ロイヤルテラス202,03-6407-9989,,35.668758499999996,139.6807297,ChIJQ4P63kfzGGARI_IqlW-MAyA
魚きんめ,飲食,居酒屋,居酒屋,渋谷区道玄坂2-6-14HYビル2F,080-3427-8752,,35.6591105,139.698408,ChIJS1t91qmMGGARhAsNfHkzXd4
魚十二ヶ月,飲食,居酒屋,居酒屋,渋谷区代々木1-58-7ヴェラハイツ代々木104,03-3370-1142,,35.6845484,139.7005906,ChIJ1e0BsESNGGARerZ-y80nW6c
魚の兆治,飲食,居酒屋,居酒屋,渋谷区幡ヶ谷1-6-3 1F,03-3373-5355,,35.6761336,139.67395,ChIJc2kozjzzGGARyuvs3ykAIIo
魚屋　かどはち,飲食,日本料理,寿司,渋谷区代官山町20-9H　ビルディング代官山　1階,03-6455-2501,,35.6483864,139.7030838,ChIJyRL_jeeLGGARU6QT-wCtEY4
魚屋きいもん,飲食,居酒屋,居酒屋,渋谷区恵比寿1-26-15,03-5420-1232,,35.6472194,139.7159694,ChIJS-uSsRSLGGAR-1AFsDXZkRo
坂の上ホタル,飲食,外国料理,その他,渋谷区西原3-21-1ホタルビル2F,03-5738-7334,,35.670713899999996,139.6818544,ChIJLwPP4zfzGGARjK63UQ95Rms
酒場ガソリン,飲食,居酒屋,居酒屋,渋谷区幡ヶ谷2-9-16ライベストコート幡ヶ谷206,03-3373-5520,,35.6786732,139.6772795,ChIJ0QnyPArzGGARZkmFvoibpoE
酒場てづか,飲食,居酒屋,居酒屋,渋谷区道玄坂1-13-1Mビル1階,03-6455-0452,,35.6577822,139.6984866,ChIJ4XaXNVaLGGAR8FRJclYJlPY
酒場　まるしゑ,飲食,居酒屋,居酒屋,渋谷区西原3-11-6杉本ビルB1,03-6804-9104,,35.6695602,139.6803165,ChIJuS2t8EfzGGARfHFIgRhTkCQ
酒場RESISTANCE,飲食,居酒屋,居酒屋,渋谷区幡ヶ谷2-9-19青木ビル2F,03-6383-3205,,35.678425499999996,139.6775382,ChIJ3dGc1XPzGGAR-YzJEOdg4dg
SAKUU,飲食,喫茶店・カフェ,喫茶店・カフェ,渋谷区千駄ヶ谷3-55-18REALGATE Bldg. 1F,03-5422-3069,https://www.jinnan.house,35.675356,139.7058705,ChIJhUihdjiNGGAR908KHWVBnSI
桜ガーデン渋谷 SAKURA GARDEN,飲食,外国料理,その他,渋谷区宇田川町30-5JOWビル5F,03-6427-0545,,35.660981,139.6980159,ChIJWWf1S6iMGGAR2VmCDlV4tm0
sake x oysters BAR　石花,飲食,居酒屋,その他,渋谷区猿楽町6-12,03-6416-1128,,35.6527405,139.7034463,ChIJXa623VqLGGARDbR_iNF8JB4
酒とご飯ビオサケダイニングリンリン,飲食,居酒屋,居酒屋,渋谷区道玄坂1-22-11星野ビルB!,080-6542-1892,https://www.instagram.com/biosakedining/,35.656463099999996,139.6956767,ChIJ9Y-2Iw-LGGARov7NCWjLBFs
酒と魚の隠れ家兼六,飲食,居酒屋,居酒屋,渋谷区幡ヶ谷2-13-4定石ビル地下1階,03-6276-5175,https://hatagaya-kenroku.com,35.677569399999996,139.6768523,ChIJpTANTDvzGGAR_3nukTsI0Bw
さけとさかなばとん,飲食,居酒屋,居酒屋,渋谷区笹塚1-24-4三好ビル1F,03-5790-9417,,35.6720593,139.66877119999998,ChIJSRCC1bHzGGARp2rot0pCK68
酒とつまみと〆蕎麦よし川,飲食,日本料理,そば・うどん,渋谷区西原2-28-4宮嶋ビル1階,080-4608-2024,,35.6752945,139.6782364,ChIJ2XHO8xXzGGAR615eeNcTtvk
酒とめし osacu,飲食,居酒屋,居酒屋,渋谷区幡ヶ谷1-33-6ビューハイム幡ヶ谷101,080-6904-0039,,35.676439699999996,139.67653769999998,ChIJ57sxnPfzGGAR3H-Whu5a1Wc
酒と焼肉　ニュートミー,飲食,ステーキ・焼肉,焼肉,渋谷区恵比寿南1-1-3今鉾ビル1階,03-5708-5129,,35.6465274,139.7088077,ChIJA1X2Oy2LGGARpFPE0rj8yNQ
酒処 おやっとさぁ。,飲食,居酒屋,居酒屋,渋谷区恵比寿西1-7-15エビス加藤ビル2階,03-6416-5283,,35.6481041,139.70857279999998,ChIJL5EPc0GLGGAR2o1cM0yzIqc
酒処小林,飲食,居酒屋,居酒屋,渋谷区西原3-6-1,03-6320-9996,,35.6702389,139.6815347,ChIJV7fMp8fzGGARJmb940JwOcQ
酒処　富川,飲食,居酒屋,居酒屋,渋谷区道玄坂1-5-5藤木ビルB1,03-5990-4880,,35.658013,139.699374,ChIJxQV4ubqLGGARTVw6e405tCM
酒処ニュー萬斎,飲食,居酒屋,居酒屋,渋谷区道玄坂2-20-5酒処ニュー萬斎,03-6455-2665,,35.6593136,139.6965419,ChIJP25tSEiNGGARg87_hiLVoDs
sakeba,飲食,居酒屋,ダイニング・バー,渋谷区渋谷3丁目15-2F93 Shibuya2  7F,03-6427-9142,,35.6559375,139.7054723,ChIJnwlYk1uLGGARjxobev2iNuY
酒みさわ,飲食,居酒屋,居酒屋,渋谷区神泉町9-6ファインクレスト渋谷神泉,03-3461-1427,,35.654629199999995,139.6931607,ChIJ0exsA1WLGGARWDLxVJ5iKNw
笹吟,飲食,日本料理,日本料理,渋谷区上原1-32-15 第二小林ビル1F,03-5454-3715,,35.6688087,139.6798744,ChIJQZqW60fzGGAROg-j9Sg5yVg
SASASA dining,飲食,居酒屋,ダイニング・バー,渋谷区笹塚3-19-5大泉商店ビル102,03-6300-0667,,35.6770213,139.66736659999998,ChIJe7bFFhnzGGARamh3e3SnSfY
ささづか酒場　はだか電球,飲食,居酒屋,居酒屋,渋谷区笹塚1-56-1NH駅前ビル2F,03-5352-0141,,35.6739646,139.66731529999998,ChIJmypF2BnzGGAR7qRXZlYrQRo
笹塚ソーススタンド,飲食,居酒屋,居酒屋,渋谷区笹塚2丁目10-6今井ビル16号室,03-5990-6100,,35.6757105,139.6683084,ChIJuWe0hBzzGGAR9z5HfU9r40Q
笹塚バルスケッチ,飲食,外国料理,スペイン料理,渋谷区笹塚3-14-1荻野荘1F,03-5309-2878,,35.6773562,139.66723199999998,ChIJpzt7PhnzGGARjwhR8lJ_HIg
笹塚ピザCamp,飲食,外国料理,イタリア料理,渋谷区笹塚1-57-15笹塚店舗2階,090-1423-1307,,35.6740389,139.667161,ChIJJ7vsrc_zGGARI1hlxBuBRYA
笹よし,飲食,日本料理,日本料理,渋谷区幡ヶ谷2-30-2ヒマラヤクラウドビル1階,03-3374-3345,,35.6758459,139.67137480000002,ChIJyRTMsSLzGGARfPLqQTG1v9s
さつま おてちきや,飲食,居酒屋,居酒屋,渋谷区渋谷2-8-4東和青山ビルB02,03-3400-7071,,35.660442599999996,139.7074546,ChIJkcbeI1-LGGARem9mFnqwquk
sathi渋谷,飲食,外国料理,インド料理,渋谷区渋谷2-5-9パル青山101,03-3409-9667,,35.6594619,139.7080705,EkZKYXBhbiwg44CSMTUwLTAwMDIgVG9reW8sIFNoaWJ1eWEsIDItY2jFjW1l4oiSNeKIku-8mSDjg5Hjg6vpnZLlsbEgMTAxIh8aHQoWChQKEglBoXXsXosYYBEwDZwYbV6X4BIDMTAx
SUNNY LOT,飲食,喫茶店・カフェ,喫茶店・カフェ,渋谷区神宮前1-1-8-102,070-1063-8000,https://www.toizm.com/sunnylot,35.673870199999996,139.7067126,ChIJ235dKoyNGGARxcsD_r7fd5E
サバス カフェバー アンド シーシャ ガーデン,飲食,その他(バー・クラブ・スナックなど),カフェバー,渋谷区初台2-1-3パラータ初台1F,03-5860-8335,,35.673941,139.6871715,ChIJie3fwDXzGGAR6GP6acUuCZY
SUPPLY,飲食,外国料理,イタリア料理,渋谷区幡ヶ谷1-5-6金井ビル　1階,080-4335-3038,,35.6764498,139.6749369,ChIJucqVLGvzGGAR2TOFK2JSt_Y
SAM,飲食,外国料理,イタリア料理,渋谷区代々木4-45-5パークテラス参宮橋101,080-1135-0879,,35.6793842,139.69063889999998,ChIJ-7m1KTXzGGARguKxMxod8e8
更科,飲食,日本料理,そば・うどん,渋谷区初台1-39-10,03-3370-6034,,35.6799797,139.68708949999998,ChIJUZBRNjLzGGARFstRi5kHoDc
茶寮伊勢藤次郎,飲食,日本料理,日本料理,渋谷区渋谷2-21-1渋谷ヒカリエ7階,03-6434-1483,https://tabelog.com/tokyo/A1303/A130301/13140106/,35.6587624,139.7031682,ChIJYeXSVliLGGARiixMo0xZcMQ
サレ・ポワヴレ・ウノ,飲食,外国料理,フランス料理,渋谷区上原1-12-3サンフラッツFIKビル 1F,03-3466-0866,,35.6681415,139.6836966,ChIJX_QkHEnzGGAROou8zKhoWiY
彩わ,飲食,日本料理,小料理,渋谷区代々木3-43-1ガーリックビル103,03-6300-0991,,35.6803242,139.69450039999998,ChIJmTpAdsyMGGARmcUAHM13JWw
San.,飲食,その他(バー・クラブ・スナックなど),バー,渋谷区上原1-2-1,090-4226-7724,,35.668104899999996,139.6872589,ChIJ8cPCtSDzGGARP34-R2COxA4
サンカフェ,飲食,喫茶店・カフェ,喫茶店・カフェ,渋谷区恵比寿4-23-12　茗荷原ビル3階,03-3442-7479,,35.644588999999996,139.7154281,ChIJgfZ5ZxSLGGARXGDvRF7NHrk
参宮橋あさや,飲食,日本料理,うなぎ,渋谷区代々木4-6-5,080-3466-3099,,35.6785164,139.6933484,ChIJLQ2lqYaNGGARUF1ye4zFOFI
参宮橋いぶさな,飲食,ステーキ・焼肉,ステーキ,渋谷区代々木4-10-7小淵ビル1F,03-6304-2728,,35.6783747,139.6927428,ChIJkWtYa8uMGGAR0qvQUq98nEY
サングリア,飲食,外国料理,イタリア料理,渋谷区桜丘町17-10吉野ビル2階,03-3496-3697,,35.6562301,139.7010896,ChIJfZg0XFeLGGAR--cKNv6TRM4
燦々,飲食,日本料理,日本料理,渋谷区宇田川町37-15ヨネクラハウス　1F,03-6416-8983,,35.662586399999995,139.69507629999998,ChIJS-NsDayMGGARfffZn7Y81Eg
さんじゅうろくどごぶのお昼ご飯,飲食,喫茶店・カフェ,喫茶店・カフェ,渋谷区幡ヶ谷2-13-1平沼ビル201,03-5351-3605,,35.6775989,139.67703659999998,ChIJfT5eCRfzGGARknTbFCt4ZsU
santafe,飲食,その他(バー・クラブ・スナックなど),バー,渋谷区道玄坂2-7-21F,03-6455-3253,,35.6586363,139.6988056,ChIJWcyDN1SLGGARkJyofHntbXk
さんだらぼっち,飲食,その他(バー・クラブ・スナックなど),スナック・パブ・キャバレー,渋谷区幡ヶ谷2-8-5近藤ビル2階,03-3374-2368,,35.6780014,139.67722369999998,ChIJv1BEOgfzGGARqyl1E_sHHGQ
SandoSando,飲食,外国料理,イタリア料理,渋谷区代々木4-50-8参宮橋ゲストハウス1階,03-6687-7713,,35.678169,139.691776,ChIJ_3QgRsuMGGAR60Uta0kkRfk
サンフォコン,飲食,外国料理,フランス料理,渋谷区西原3-5-3小林ビル1階,070-4383-3567,,35.6699841,139.68137059999998,ChIJ4YByBEjzGGARWfJQjVleihA
三陸,飲食,居酒屋,居酒屋,渋谷区代々木1-39-11MFPR代々木タワー2F,03-3320-8800,,35.682544199999995,139.7001141,ChIJabCcSs-MGGARtcRLqF-ProU
SALA ridente,飲食,外国料理,イタリア料理,渋谷区恵比寿西2-17-22アプリュスII 一階,03-6427-0440,,35.6490454,139.70626529999998,ChIJLbV3CUSLGGAR8f5MqyW0xXw
THAうちあげ,飲食,居酒屋,居酒屋,渋谷区笹塚2-7-9ライブイン笹塚1階,03-5351-0711,,35.6751758,139.669104,ChIJewI61N3zGGARUq4K7AdgRf4
THE OAK LEAF,飲食,その他(バー・クラブ・スナックなど),バー,渋谷区東2-17-12十一ビル　1階,03-6427-2257,,35.6527151,139.7091394,ChIJXcT54EKLGGARNcjxhgZgW18
THE GRUB 代々木上原,飲食,居酒屋,ダイニング・バー,渋谷区上原1-32-15第二小林ビル2階,03-6804-8714,,35.668791399999996,139.67992619999998,ChIJQZqW60fzGGARGLgGI3Rlw4Y
THE COFFEESHOP ROAST WORKS,飲食,喫茶店・カフェ,喫茶店・カフェ,渋谷区富ヶ谷2-22-12Vitre Yoyogi Park 1F,03-6407-1344,,35.6840123,139.6949486,ChIJTWusCl-NGGARiiUnot6mN88
THE THEATRE TABLE,飲食,喫茶店・カフェ,喫茶店・カフェ,渋谷区渋谷2-21-1渋谷ヒカリエ 11F,03-3486-8411,,35.659055099999996,139.7035292,ChIJ43YiUFiLGGARlsXC9pTlrlA
The6Market,飲食,喫茶店・カフェ,その他,渋谷区上原1-17-10-101横山アパート,03-6314-3176,,35.669056,139.6824235,ChIJdUo2Q0jzGGARIgvcbGSs5Ok
THE TEST KITCHEN,飲食,喫茶店・カフェ,喫茶店・カフェ,渋谷区恵比寿4丁目20-4恵比寿ガーデンプレイス グラススクエア B1F POTAL POINT Ebisu E,050-1745-7875,,35.6426363,139.71290059999998,ChIJRyUuS5WLGGARVWkWVFycIMo
THE BLUE POSTS,飲食,その他(バー・クラブ・スナックなど),カフェバー,渋谷区恵比寿1-8-14大黒ビル1階 28,070-8496-1242,,35.647701399999995,139.7099313,ChIJmcw7E9uLGGARCK4FyUbqpyU
The Bake,飲食,その他(バー・クラブ・スナックなど),その他,渋谷区鶯谷町7-6磯田ビル1階,03-5428-3933,,35.6541113,139.701199,ChIJi0unn1CLGGARPunpdR9dKvc
THE LINKING アメリカンダイナー,飲食,ステーキ・焼肉,ステーキ,渋谷区神南1-14-9 第7FMGビル　1F,03-6416-5882,https://yoyaku.tabelog.com/yoyaku/smartphone/net_booking_form/index?rcd=13281122,35.6638452,139.7000589,ChIJtW3NR-2NGGARS4hCOy4PllE
ZANZIBAR,飲食,その他(バー・クラブ・スナックなど),バー,渋谷区富ヶ谷1-43-23代々木公園ガーデニア102,03-3481-9179,,35.667256099999996,139.6908782,ChIJp4xcekvzGGARFia8yAqN_XY
紫煙,飲食,喫茶店・カフェ,喫茶店・カフェ,渋谷区道玄坂2-7-2東方ビル1F,03-6455-2276,,35.6581518,139.69815739999999,ChIJqSlC322LGGAR8oHDSenkPyA
潮待ち,飲食,居酒屋,居酒屋,渋谷区上原1丁目34-10志賀屋ビル202号室,03-6804-8484,,35.6694014,139.6819449,ChIJFWA2a0jzGGAREu-b-QO3LBc
シガニーベイクアンドコーヒー,飲食,喫茶店・カフェ,喫茶店・カフェ,渋谷区上原1丁目17番7号　フレニティハウス2F,03-6804-7270,,35.6688903,139.68256259999998,ChIJBVYcsoDzGGARy-HgFskboyI
四季ごはん 晴れ間。,飲食,日本料理,日本料理,渋谷区上原1-1-20,03-6804-9980,,35.6683705,139.6874574,ChIJvYEIi0vzGGARY8e9UeSlMTk
志ぐれ,飲食,その他(バー・クラブ・スナックなど),バー,渋谷区神山町10-8グランドゥール1階,03-6770-6589,,35.6637857,139.69416189999998,ChIJD0WsU6yMGGARKDmQpjKsZLc
ししくら,飲食,日本料理,日本料理,渋谷区恵比寿1-25-3ルヴェドゥプランタン1階,03-6277-3866,,35.6470617,139.7160821,ChIJX5U9xXaLGGARy2aXowQytcY
しじゅうから,飲食,その他(バー・クラブ・スナックなど),バー,渋谷区東1-27-5シンエイ東ビル3階,03-6419-7525,,35.6545033,139.7070061,ChIJleWW5VmLGGARDMfe4PUTy1s
七福,飲食,その他(バー・クラブ・スナックなど),その他,渋谷区上原1-25-9,03-5454-8735,,35.6682664,139.6819355,ChIJwfREYkjzGGARpCbGB50r3TA
七福餃子楼,飲食,居酒屋,居酒屋,渋谷区恵比寿南1-8-10,03-6303-0910,,35.6461304,139.70919229999998,ChIJNfnjXkCLGGARNLjzkIdvziw
6GRAMSstreet,飲食,居酒屋,ダイニング・バー,渋谷区恵比寿南2-1-11恵比寿A・Mビル1a,03-6303-3156,,35.6460517,139.70727259999998,ChIJGRFoWGyLGGAR0wtKP8GPNPI
シティ倶楽部,飲食,居酒屋,ダイニング・バー,渋谷区代々木2-23-1ニューステイトメナー114,03-5365-2212,,35.685497,139.6982067,ChIJ3VKEPM6MGGARntyEWp6MzC0
獅天鶏飯,飲食,外国料理,東南アジア料理,渋谷区渋谷3-18-10 大野ビル2号館2F,03-6811-1193,,35.6605815,139.7019968,ChIJI2rU39KNGGARAigBEuaFf88
獅天鶏飯ハナレ,飲食,外国料理,東南アジア料理,渋谷区渋谷1-24-7渋谷フラットビル2F,03-6712-5363,,35.6605815,139.7019968,ChIJI2rU39KNGGARAigBEuaFf88
渋2鮨 & Bar,飲食,日本料理,寿司,渋谷区渋谷2-7-13,03-3407-5777,https://goo.gl/maps/TrMXq5sQLu2imZoH7,35.6604138,139.70759560000002,ChIJ9WJlK16LGGARsmZBSYfRn5M
shibuya101,飲食,居酒屋,ダイニング・バー,渋谷区宇田川町34-6M&Iビル3F-A,03-6416-4369,,35.661252,139.6964063,ChIJqVWgYamMGGARMG_6W90kpU8
渋谷花魁,飲食,居酒屋,ダイニング・バー,渋谷区道玄坂2丁目22-6ゴールデンヒルズA棟,03-5456-8782,,35.6596654,139.6955415,ChIJuwLDMaqMGGARmuZOSx0b2sg
渋谷カフェ＆テラス BBQ Noan,飲食,喫茶店・カフェ,喫茶店・カフェ,渋谷区宇田川町37番地16レジディア渋谷2F,03-5738-8455,,35.6617387,139.7001764,ChIJEbREgHiNGGARsfDQLdX3abg
渋谷神山　聞弦坊,飲食,日本料理,そば・うどん,渋谷区神山町11-17日興パレス渋谷,03-5478-1157,,35.6636419,139.6939028,ChIJ_wJIVKyMGGARJeWCXQ1ySSY
渋谷GABIGABI,飲食,その他(バー・クラブ・スナックなど),バー,渋谷区道玄坂1-13-3MST道玄坂2階,03-3463-5538,,35.6575124,139.6986423,ChIJgSpTSlaLGGARf93MTyP7Wz8
渋谷ゴルフクラブ,飲食,その他(バー・クラブ・スナックなど),バー,渋谷区円山町25-7ファザーランド渋谷5階,080-4833-4400,,35.6558814,139.6935595,ChIJKe9VcCqLGGARElgzOyRa_sY
渋谷東急REIホテル　レストラン「ハシュハシュ」,飲食,外国料理,その他,渋谷区渋谷1-24-10,03-3498-0173,https://www.tokyuhotels.co.jp/shibuya-r/restaurant/index.html,35.6601491,139.7019439,ChIJXfQKCFiLGGARnITdBIkKBL8
渋谷のラジオラジ公ドリンクスタンド,飲食,喫茶店・カフェ,喫茶店・カフェ,渋谷区渋谷2-21-1渋谷Hikarie ヒカリエデッキ 4階,03-6805-0282,,35.6590936,139.70318810000003,ChIJmW687leLGGARq6Tt8O76Y9E
SHIBUYA BALL,飲食,その他(バー・クラブ・スナックなど),バー,渋谷区宇田川町4番9号くれたけビル 4階,03-3476-6533,,35.6624804,139.6977086,ChIJFci2OamMGGAREDy3h6WKd0g
渋谷フォルチェ,飲食,居酒屋,ビアホール,渋谷区道玄坂1-5-2渋谷SEDEビル5F,03-3476-7776,,35.6580491,139.69950889999998,ChIJZ3NBuFeLGGARyHA2c70MusY
Shibuya　Fromage　倶楽部　,飲食,居酒屋,ダイニング・バー,渋谷区道玄坂2-10-1,03-3464-2030,,35.6577542,139.6965223,ChIJofuZBlaLGGARtgVnKRqDZQQ
渋谷ベルゴ,飲食,外国料理,その他,渋谷区渋谷3-18-7 B1F渋谷東一号館ビル,03-3409-4442,,35.6571334,139.70380079999998,ChIJw7WmnVmLGGARgieIdMpFSFg
渋谷マスダ亭,飲食,日本料理,お好み焼き,渋谷区宇田川町22-1マスダ亭,03-3462-0016,,35.65972670000001,139.70000679999998,ChIJlZ48IqiMGGARzp8uS3eC5iY
シャイニーアウル表参道,飲食,外国料理,イタリア料理,渋谷区神宮前4-7-1,03-6851-4368,,35.6686593,139.712146,ChIJuT0dTp-MGGARwuXc9ULdRNA
シャイニーアウル富ヶ谷,飲食,日本料理,その他,渋谷区富ヶ谷1丁目35番23号,03-6772-4385,,35.6675591,139.6884653,ChIJqTQMU3fzGGARnBPY2L7lKRE
写真集食堂　めぐたま,飲食,日本料理,日本料理,渋谷区東　3-2-7,03-6805-1838,,35.651897999999996,139.712958,ChIJLzX9lGmLGGARYgMVPHNjYEQ
SHUTTERS表参道,飲食,外国料理,イタリア料理,渋谷区神宮前6-28-6キュープラザ原宿3F,03-6712-5077,https://tabelog.com/tokyo/A1306/A130601/13180219/,35.6669378,139.70408659999998,ChIJA5VbSqSMGGARaHgYVx1yC8s
上海ダイニング嘉麟香(カリンシャン),飲食,外国料理,中国料理,渋谷区神宮前3-41-2岡本ビル2F,03-6434-0985,,35.671048899999995,139.71362929999998,ChIJvx015JiMGGARWDv1r7RQYhc
上海飯店,飲食,外国料理,中国料理,渋谷区代々木4-10-9上海飯店,03-3370-3939,https://m.facebook.com/shanghaihanten.sangubashi/,35.6782221,139.6924584,ChIJF8XMasuMGGARPIuJKK18FEw
上海飲茶猪八戒,飲食,外国料理,中国料理,渋谷区千駄ヶ谷1-7-11姉妹舎ビル1階,03-3401-3775,,35.6785423,139.71004530000002,ChIJN2DPQb6MGGARZwXxLv80IIc
シャンブル・アヴェク・ヴュ,飲食,外国料理,フランス料理,渋谷区富ヶ谷2丁目18番16号スカイガーデン代々木公園101,03-3467-6613,,35.663483299999996,139.6843675,ChIJxb6hOE7zGGAR3k1j9-5Np28
SHARK COFFEE,飲食,喫茶店・カフェ,喫茶店・カフェ,渋谷区宇田川町2-1渋谷ホームズ1F,03-6416-1237,https://www.instagram.com/sharkcoffee_shibuya/,35.663663,139.6987557,ChIJob9XVR2NGGARMH-_uhd9apc
しゅうじ食堂,飲食,日本料理,その他,渋谷区広尾1丁目9ー18雨宮ビル1F,070-8941-3772,,35.6487473,139.7167695,ChIJ0azBZ8aLGGARG9BQ5Fg_YWU
終日one,飲食,喫茶店・カフェ,喫茶店・カフェ,渋谷区上原3-44-11高宏ビル 1F,03-5738-8501,https://shujitsu.com/,35.6680862,139.6786574,ChIJcZD3K0bzGGARWhfO3LBLY_A
酒菜おたま,飲食,居酒屋,居酒屋,渋谷区幡ヶ谷1-9-6リッツ幡ヶ谷101,03-5350-4055,,35.6755557,139.6721061,ChIJ0zcrHhjzGGAR25qOTDqpOJw
CHURRASCO GANG 渋谷本店,飲食,居酒屋,居酒屋,渋谷区宇田川町31-1HULIC & New Shibuya　6F,080-7408-7717,,35.661555,139.6976588,ChIJk25jnamNGGAR79xCZ_reUgE
SHUWASHUWA PEACE,飲食,居酒屋,その他,渋谷区幡ヶ谷3-16-3幡ヶ谷ハウス102,03-6300-0313,,35.6797599,139.6734495,ChIJTa2GFwjzGGAR0T0vcoSrc00
旬おばんざいと発酵酒肴　ただ今,飲食,日本料理,日本料理,渋谷区神泉町15-6,03-3461-6336,,35.6570404,139.6926631,ChIJG72lOrqNGGARNnEs6N89dhA
旬彩居酒屋　吉の,飲食,居酒屋,居酒屋,渋谷区上原2-33-2ユニマットプルーポイント2階,03-3485-0327,,35.6642209,139.6780627,ChIJw2QSKkTzGGAREqYYwZtMhqI
旬菜魚味家,飲食,日本料理,小料理,渋谷区広尾5-3-12,03-3473-1765,,35.650525,139.721371,ChIJHR1yXG2LGGARB5b0q17NJu4
昌,飲食,居酒屋,居酒屋,渋谷区神宮前6-7-16エムエスビル　B1F,03-3407-1534,,35.6673647,139.7058065,ChIJSxJlEqSMGGARIeYRWSFEpao
松月庵,飲食,日本料理,そば・うどん,渋谷区千駄ヶ谷4-30-5,03-3402-7836,,35.6814623,139.70351639999998,ChIJU4rkrMeMGGAR2SAiJjB2RCQ
笑助,飲食,居酒屋,居酒屋,渋谷区西原3-4-5アミティ代々木上原1F,03-5454-8557,,35.6701822,139.6817811,ChIJ2Sf3G0jzGGAR9A--Tpyw46I
松濤倶楽部,飲食,その他(バー・クラブ・スナックなど),バー,渋谷区宇田川町37-12眞砂ビル地下一階,03-3465-1932,https://shotoclub.com/,35.662323,139.69546499999998,ChIJq6pOCKyMGGARNFinpBDqvuo
松涛Mar,飲食,外国料理,イタリア料理,渋谷区松涛1-27-7東信松涛マンション101,03-3469-6920,,35.6594074,139.6933853,ChIJO7jcBquMGGAReUkc8btmF0s
昭和歌謡居酒屋UFO,飲食,居酒屋,居酒屋,渋谷区千駄ヶ谷4丁目29-12千駄ヶ谷北参道ダイヤモンドパレス104,03-6804-5968,,35.6811369,139.7039407,ChIJz30p2HiNGGARiZnso-tTXWw
食酒房ふさ助,飲食,居酒屋,居酒屋,渋谷区恵比寿西2-3-9浦ーMKYエビスビル102,03-3461-1993,,35.6489155,139.71779379999998,ChIJqc32PjyLGGARzmvlkCV56ys
食堂ふくや,飲食,日本料理,日本料理,渋谷区神宮前3-22-4舘野ビル1階A,03-3478-3525,,35.6699923,139.70748659999998,ChIJnU2NbaOMGGARnueMa5JEUhA
初代 割烹 高橋,飲食,日本料理,日本料理,渋谷区上原2-48-11ハニハラビルB1F,03-6407-0565,,35.6677512,139.6818752,ChIJP1LYjUjzGGARqjt0FuOidHQ
シルバースター,飲食,その他(バー・クラブ・スナックなど),バー,渋谷区上原1-33-16オーツカビル103,03-3481-0831,,35.6693713,139.6810676,ChIJaeZbCUjzGGAReBaFyQYmDIA
しろふわランドリー　初台南店,飲食,喫茶店・カフェ,喫茶店・カフェ,渋谷区西原1丁目43-1デミシル代々幡　1階105号室,03-4405-6691,,35.6762369,139.68312129999998,ChIJw44nRUjzGGAR7byY9UzQGiE
しろふわランドリー笹塚南店,飲食,喫茶店・カフェ,喫茶店・カフェ,渋谷区笹塚1-26-4J&Jハウス1F店舗,03-4405-6691,,35.6717367,139.6677264,ChIJ8TikZT3zGGARLXMreqNAwZg
しろふわランドリー幡ヶ谷北店,飲食,喫茶店・カフェ,喫茶店・カフェ,渋谷区本町6-38-7アミティ幡ヶ谷1F店舗,03-4405-6691,,35.6811515,139.67592059999998,ChIJByY_KeHzGGARKUn47Sc7iDY
眞吉恵比寿ランチ,飲食,日本料理,寿司,渋谷区恵比寿南1-11-1松本ビル1階,090-8005-4938,,35.6455027,139.70947859999998,ChIJIcVFY0CLGGARAF-wQ6nkMG0
しんざ笑もん,飲食,ステーキ・焼肉,焼肉,渋谷区幡ヶ谷2丁目8番10号リッシェル幡ヶ谷101,03-5333-1129,,35.677800399999995,139.6770694,ChIJ07CvSjvzGGARyxfvpL-H-As
新宿251,飲食,居酒屋,居酒屋,渋谷区千駄ヶ谷5-32-5GSハイム新宿南口104,03-6380-6303,,35.686166799999995,139.70368729999998,ChIJxfWyTB2NGGARf9wLMktNO_0
神泉 遠藤利三郎商店,飲食,外国料理,フランス料理,渋谷区神泉町11-9ワインアパートメント 1F,03-6455-3460,https://next-gf.com/store/,35.6557552,139.6922357,ChIJRxDZXFWLGGARPyz0BtL1VJA
神泉たつ,飲食,日本料理,小料理,渋谷区神泉町10-16さつきビル1F,03-5422-3366,,35.655612100000006,139.69282289999998,ChIJMXKICACLGGAR0HzC7S9PyUc
シントンキーボタニカル,飲食,外国料理,その他,渋谷区恵比寿南1-14-2 タイムゾーンビル2階,080-2099-1188,,35.6451134,139.71038450000003,ChIJVXYt9D-LGGARBtXST4491DA
シーウルフダイナー,飲食,外国料理,その他,渋谷区宇田川町3-1東武ホテル1Fシーウルフダイナー,03-6416-3363,,35.6632548,139.6988867,ChIJy2yrQjGNGGARngGNworS8k8
Shisha bar Lilac,飲食,喫茶店・カフェ,喫茶店・カフェ,渋谷区円山町5-14スタービル3階,03-6416-1510,,35.657106000000006,139.69488339999998,ChIJI3wfskqLGGARp21wCdCFpJg
シーシートーキョー,飲食,居酒屋,居酒屋,渋谷区代々木1-41-12フィルパーク代々木2F,03-4335-0979,,35.6827164,139.6996714,ChIJGSZoj8KNGGAR20A-vatlKs8
C'sBAR,飲食,その他(バー・クラブ・スナックなど),バー,渋谷区恵比寿西1丁目8-2ウエストパレスビルB1-B,03-6712-7848,,35.647768,139.7082756,ChIJgZXtEkGLGGARcMDryGDezGk
シーモアグラス,飲食,喫茶店・カフェ,喫茶店・カフェ,渋谷区神宮前6-27-8京セラ原宿ビルB1階,03-5469-9469,,35.6665425,139.70334259999998,ChIJcd6vyqWMGGARX-14BW57OA4
ジェラテリアコローレ,飲食,喫茶店・カフェ,その他,渋谷区幡ヶ谷2-18-2キャッスルマンション103,080-8532-3646,,35.6769349,139.67499809999998,ChIJKf62OgDzGGARkAHhes_s0Ps
GELATO BRAVO,飲食,喫茶店・カフェ,喫茶店・カフェ,渋谷区恵比寿西1-33-18コート代官山102,080-7139-7770,https://gelabra7770.base.shop/,35.646771699999995,139.7029412,ChIJs_mKwqCLGGARW6vELZOQFzE
JB's TOKYO ミヤシタパーク店,飲食,喫茶店・カフェ,ファーストフード,渋谷区神宮前6-20-10MIYASHITA PARK SOUTH 2F,03-6434-1029,,35.6614109,139.7018728,ChIJ7QxD9QeNGGAR-OlXihUc_Rg
JB’s TOKYO 代々木本店,飲食,喫茶店・カフェ,ファーストフード,渋谷区代々木1-33-3,03-6300-0913,,35.682799200000005,139.7021823,ChIJI42jra-NGGARz8-Vdy1WPx4
THE ALDGATE British Pub,飲食,外国料理,その他,渋谷区宇田川町30-4新岩崎ビル3F,03-3462-2983,http://www.the-aldgate.com,35.6607614,139.6979594,ChIJ9XzDpqmMGGARhPWN1LP_S8A
jicca,飲食,外国料理,無国籍料理,渋谷区西原2-27-4升本ビル2階,03-5738-2235,,35.67523510000001,139.6783561,ChIJNb5PszvzGGARMw7MbKvR1YE
地のものバルMUJO,飲食,居酒屋,ダイニング・バー,渋谷区富ヶ谷1-3-14橋谷ハイツ1F,050-6866-1618,,35.6694715,139.68933859999999,ChIJT9_2b0vzGGARH3IDeOfTpSQ
地ビールbar かえるかふぇ,飲食,喫茶店・カフェ,喫茶店・カフェ,渋谷区神宮前2-15-15カエルカフェ,03-6804-1933,,35.674437000000005,139.711444,ChIJ35xlYL2MGGAREl9G50OEdAk
ジャイヒンド,飲食,外国料理,インド料理,渋谷区笹塚1-56-6クレセントプラザ　笹塚2階,03-3374-0651,,35.6741156,139.66755089999998,ChIJ7eKJ2RnzGGAR6_k9NORj1ao
JAPANESE GELATERIA & CAFE ASANOHA,飲食,喫茶店・カフェ,喫茶店・カフェ,渋谷区恵比寿西1-8-11昴Aビル1階,03-3476-7036,https://tabelog.com/tokyo/A1303/A130302/13269617/,35.6474526,139.7083498,ChIJ_bF7BxKLGGARNF6MW8jQt7w
ジャンティ,飲食,その他(バー・クラブ・スナックなど),カフェバー,渋谷区代官山町 14-6美容室Praha 2F,080-9983-4449,,35.6503054,139.7042008,ChIJ2Yhc40SLGGARo2ylHhCYvTs
ジュリーズスパイス,飲食,外国料理,インド料理,渋谷区笹塚3-19-5,090-5572-3654,,35.6771342,139.6673214,ChIJaefGFhnzGGAREp55s2Tc36Y
純米酒専門YATA渋谷店,飲食,居酒屋,ダイニング・バー,渋谷区道玄坂1-6-9ILA道玄坂ビル5F,03-3464-0434,https://junmaishu.net/,35.6579166,139.6989637,ChIJHWR-yleLGGARzqcg4d7JNW4
城ヶ崎おかもと,飲食,居酒屋,その他,渋谷区恵比寿2-9-1EBISFLAT1B,03-5422-7684,,35.6459589,139.7170476,ChIJA7XvexOLGGARTwYBJOiqaVY
ジンギスカン羊一渋谷店,飲食,ステーキ・焼肉,焼肉,渋谷区道玄坂2-20-9,03-6427-8429,https://www.instagram.com/youichi617/?hl=ja,35.659554799999995,139.6959552,ChIJHfL7JaqMGGAR5TOWMobnhjM
ジンナンカフェ渋谷,飲食,喫茶店・カフェ,喫茶店・カフェ,渋谷区神南1-17-5クーラビル1F&B1,03-5728-3786,http://jinnancafe.com/shibuya/about.html,35.6630421,139.6999325,ChIJq-wIwaiMGGAR8NT5o_lUrjo
Ｇ.Ｇ.Ｃ,飲食,居酒屋,居酒屋,渋谷区富ヶ谷 1-44-4いずみマンション102,03-3469-0453,,35.6682701,139.6901107,ChIJTTW1v0zzGGARJpOCMq-XNQc
粋,飲食,居酒屋,居酒屋,渋谷区富ヶ谷2-18-16,03-3467-1507,,35.6635444,139.68449719999998,ChIJvV44v4PzGGARUc6fcgprP7c
酔香楼,飲食,外国料理,中国料理,渋谷区神山町6-2ホテルニューワシントン 1階,03-3467-2432,,35.66490400000001,139.69406,ChIJ0VTCo62MGGARHyD8hFXe3pY
sweetie,飲食,喫茶店・カフェ,その他,渋谷区本町1-38-8,090-3900-7797,https://www.instagram.com/sweetie.myspace.sweets,35.6813621,139.6821842,ChIJgTOHskzzGGAR4P9FZ-eWu1g
末ぜん,飲食,日本料理,日本料理,渋谷区猿楽町20-8,03-3461-8234,,35.6489232,139.7015457,ChIJu3ovfEWLGGAR3TmaDfjVN0g
skyhigh daikanyama,飲食,喫茶店・カフェ,喫茶店・カフェ,渋谷区鶯谷町19-18ファーストマンション七久保1f,03-6416-0819,,35.691232,139.7040213,ChIJnYREpduMGGARQG1oNaI7Trk
SCARLET,飲食,喫茶店・カフェ,喫茶店・カフェ,渋谷区上原2-42-17,03-6407-8472,,35.6670746,139.68116179999998,ChIJcWFMTWTzGGAR5bwrFs7XnTo
SCOO,飲食,その他(バー・クラブ・スナックなど),バー,渋谷区神宮前2-18-7フードビル103,090-4512-4900,https://instagram.com/scoo.harajuku?igshid=YmMyMTA2M2Y=,35.6723889,139.7096564,ChIJoRNTwVSNGGAR9-NI3k_luwU
祐定,飲食,居酒屋,居酒屋,渋谷区西原2-28-3クローバービル1F,03-5454-0303,,35.675355499999995,139.67816639999998,ChIJ3Sp2sjvzGGARbb-k6rQdP5w
鮨居酒屋しゅん,飲食,日本料理,寿司,渋谷区千駄ヶ谷5-22-1,090-4393-2543,,35.6838877,139.7040327,ChIJt2wzB0-NGGARIief9zQy-7A
鮨一喜,飲食,日本料理,寿司,渋谷区渋谷1-5-9N.KEFIA渋谷ビル1F,03-6413-6168,,35.6611213,139.7057723,ChIJOeNCGQCLGGARoY8IqKfzVyg
スシエビス 恵比寿本店,飲食,居酒屋,居酒屋,渋谷区恵比寿4-9-5マンションニュー恵比寿1階,03-6459-3184,https://tabelog.com/tokyo/A1303/A130302/13251807/,35.6459347,139.71320799999998,ChIJZzm26yqLGGAR_pLbSa1I2nQ
スシエビスHana 恵比寿本店,飲食,居酒屋,居酒屋,渋谷区恵比寿西1-8-10高橋ビル1階,03-6416-3630,https://tabelog.com/tokyo/A1303/A130302/13293501/,35.64735720000001,139.7084695,ChIJd1Dk1a6LGGARyFlAMRZD4YM
鮨㐂すしき,飲食,日本料理,寿司,渋谷区道玄坂1-7-9Y-placeビル3階,03-6455-3030,,35.6575621,139.6991783,ChIJcQ6JXG6LGGARHVNzDoWXN_U
すし菊地,飲食,日本料理,寿司,渋谷区神泉町20-15モンド本社ビル 1F,03-3780-3943,,35.6560693,139.6919251,ChIJj0OrWVWLGGARcIt8SsAXqn8
寿司酒場 すし屋の秀ヨシ,飲食,日本料理,寿司,渋谷区本町2-2-9後藤ビル1F,03-3377-3888,https://www.instagram.com/ajiyoshi.hatsudai/,35.6843803,139.6847888,ChIJN7Tvvy7zGGARNPDmoGko9_c
寿司さなか,飲食,日本料理,寿司,渋谷区神宮前6-14-1カナザワビル3F,03-3498-3750,,35.6665044,139.7058221,ChIJbcmgNqaMGGARS-Ph9YVleh4
鮨武　本店,飲食,日本料理,寿司,渋谷区西原3-23-1代々木上原羽田ビル1階,03-6407-1880,https://sushitake-uehara.com,35.6706199,139.6834603,EmJKYXBhbiwg44CSMTUxLTAwNjYgVG9reW8sIFNoaWJ1eWEsIE5pc2hpaGFyYSwgMy1jaMWNbWXiiJIyM-KIku-8kSDku6PjgIXmnKjkuIrljp_nvr3nlLDjg5Pjg6sgMemajiIgGh4KFgoUChIJzdZtLUjzGGARZrQcVyGE8BoSBDHpmo4
鮨武　代々木八幡,飲食,日本料理,寿司,渋谷区富ヶ谷1-53-2辰美ビル3階,090-7356-3648,https://sushitake-hachiman.com,35.6692192,139.6881785,ChIJRVhYeU3zGGARhff-kHEcZgo
鮨　とみなか,飲食,日本料理,寿司,渋谷区神山町7-11 1階,03-5454-2133,,35.6641623,139.6936402,ChIJRR9sB62MGGARDApiYRPtr60
鮨博一,飲食,日本料理,寿司,渋谷区恵比寿1-22-17オーワビル1F,03-3473-0032,,35.6460228,139.7145014,ChIJaXmD-hSLGGAR0QqQE5LFu84
鮨まつした,飲食,日本料理,寿司,渋谷区恵比寿1丁目29番16号ベルハイム1F,03-6450-4622,,35.6479037,139.7174928,ChIJgbhOhWeLGGAR0D0GuvJEQOQ
STUNNER,飲食,喫茶店・カフェ,喫茶店・カフェ,渋谷区神宮前3-42-2VORT外苑前3 B1,090-3789-2245,,35.670541899999996,139.7139958,ChIJNe2WMgCNGGAR2Hwn0qA7XQU
Stars☆Tokyo,飲食,その他(バー・クラブ・スナックなど),バー,渋谷区広尾1-15-6ヒーロービル一階,03-6459-3760,,35.6484496,139.7124148,ChIJP-j0XtiLGGARiTLxw5cNyUc
stabler,飲食,喫茶店・カフェ,喫茶店・カフェ,渋谷区恵比寿南1-2-2-1A,03-6452-2911,,35.6461673,139.7082944,ChIJYdnRjtmLGGARXZGrfL6DxdI
stelo,飲食,居酒屋,ダイニング・バー,渋谷区元代々木町5-2NYC motoyoyogi 1E区画,050-1722-5820,,35.6698482,139.6863515,ChIJoQy9v9fzGGARy0l61oYOLxU
ステーキむささび,飲食,ステーキ・焼肉,ステーキ,渋谷区恵比寿4-23-12茗荷原ビル1階,03-6450-2218,,35.644565,139.7154516,ChIJW6OeRBaLGGARRfDwldKNCgE
スナック紫喜,飲食,その他(バー・クラブ・スナックなど),スナック・パブ・キャバレー,渋谷区富ヶ谷1-2-13高松DCビルB1F,03-6804-9220,,35.6693743,139.68889199999998,ChIJjVxSd0vzGGARbRp6nUol52k
スナックつむぎ,飲食,その他(バー・クラブ・スナックなど),スナック・パブ・キャバレー,渋谷区道玄坂1-6-2渋谷ファイブビル B1階,070-1216-4409,https://www.instagram.com/snackbar_tsumugi/,35.6579237,139.6991206,ChIJNQz_vqCLGGARzMDmoN3HCgA
スナックニューアフター,飲食,その他(バー・クラブ・スナックなど),スナック・パブ・キャバレー,渋谷区道玄坂1-17-9ヴェラハイツ道玄坂B1F,03-6809-0809,,35.6572026,139.6968061,ChIJP4VPskCLGGARq2Nmvu5kc0s
スナックRie,飲食,その他(バー・クラブ・スナックなど),スナック・パブ・キャバレー,渋谷区恵比寿1-12-7三恵31ビル4EA号,090-4010-3516,,35.6465442,139.71211879999998,ChIJ7dSM5WaLGGARohtCVC0gbGo
Spicy Flower,飲食,外国料理,東南アジア料理,渋谷区本町2-46-1第三市田ビル,03-6300-5788,,35.684629699999995,139.6852748,ChIJU01hiNzzGGAR7E2eMDNWs0Y
Spice　Chill,飲食,喫茶店・カフェ,その他,渋谷区恵比寿1-20-1コンフォート恵比寿3F,090-6181-5564,,35.6460873,139.7091477,ChIJq3hLRf-LGGARgvm5sWhSfFE
スパイスバル　コートリー,飲食,外国料理,その他,渋谷区渋谷1-25-10,03-5962-7696,,35.6600585,139.70149809999998,ChIJGV6goVeLGGAREgSdKzS8mUQ
スパゲッティハシヤ　幡ヶ谷分店,飲食,外国料理,イタリア料理,渋谷区幡ヶ谷2-5-9,03-3373-2660,,35.6790301,139.6775794,ChIJo79RwiTzGGARHklYLMGy9Zk
Spirare Ebisu,飲食,外国料理,イタリア料理,渋谷区東3-24-7EBIS EAST GALLERY,03-3486-5129,,35.648983199999996,139.7095267,ChIJV3RN-mmLGGARaIXmAn7Mjew
SPLASH,飲食,その他(バー・クラブ・スナックなど),バー,渋谷区笹塚3-19-6萩原ビル2F,090-4933-7620,,35.6769217,139.66741919999998,ChIJMe_mEBnzGGARGxFbjYwgtOY
Sputnik,飲食,喫茶店・カフェ,喫茶店・カフェ,渋谷区恵比寿西2-18-6代官山ウイング101,080-4376-0712,,35.6495971,139.7052249,ChIJC5TbTkqLGGARjYucEKoTfOw
スペアリブハウスハウディ代々木店,飲食,居酒屋,ダイニング・バー,渋谷区代々木1-18-16RES代々木ビルB1,080-3385-3966,https://www.spareribshouse-howdy.com/sp/,35.6808063,139.7020757,ChIJezUV48eNGGARuTBhqKdv0Fw
スペインバル貴バル,飲食,外国料理,スペイン料理,渋谷区広尾5-19-3マチダビル1c,03-5421-2114,,35.649102299999996,139.7198555,ChIJLd9cLW2LGGARHq8Gy4WS05M
スペイン料理　シーフード　ワイン　ラスボカス,飲食,外国料理,スペイン料理,渋谷区渋谷渋谷3丁目2-3帝都青山ビルB1,03-3406-0609,,35.6571749,139.7075016,ChIJRf8hF1yLGGAR16GA8ful2rM
space i,飲食,喫茶店・カフェ,その他,渋谷区本町2-7-10-1階シブヤFハウス10TH,070-9106-1212,,35.6837655,139.68283639999999,ChIJxwDtVwDzGGARrYkIx1_Feb8
SPACE&CAFE BANKSIA,飲食,喫茶店・カフェ,喫茶店・カフェ,渋谷区神宮前3-20-3石井ビル1F,080-7940-4740,,35.6704126,139.7084066,ChIJvTShGqOMGGARfRuig0WOrFs
スペースワイ,飲食,その他(バー・クラブ・スナックなど),バー,渋谷区本町2-14-4SHビル地下,03-6276-6760,,35.6821881,139.6819686,ChIJs061dS_zGGARN0BxtC7hUfs
澄音,飲食,その他(バー・クラブ・スナックなど),スナック・パブ・キャバレー,渋谷区神山町17-1第二渡辺ビル3F B,03-3466-0808,,35.6644964,139.6931323,ChIJn3a870WNGGARGXTJ0mHNpPk
炭火串焼いっせき,飲食,日本料理,焼鳥,渋谷区千駄ヶ谷4-4-13ニュー寿ビル101,03-6447-2102,,35.679554599999996,139.7041309,ChIJG87lTM2NGGARw4bt6pt79gI
炭火串焼まるま,飲食,居酒屋,居酒屋,渋谷区笹塚1-29-7Fファーストビル2階,03-3467-5166,,35.673252399999996,139.66683279999998,ChIJnxaDXRfzGGARkN2PsHYUwDc
炭火酒場　すす,飲食,居酒屋,居酒屋,渋谷区幡ヶ谷2-13-4幡ヶ谷定石ビル3階,03-6276-6920,,35.6775035,139.6767891,ChIJ7QYmJiXzGGARrFPvG3fzQ-k
炭火焼アジアン酒場　アローイ兄弟,飲食,居酒屋,居酒屋,渋谷区千駄ヶ谷5-20-21ほぼ新宿のれん街に区画,03-6380-1940,,35.6829983,139.7035234,ChIJhTmmZsaMGGARwcPi6UBEVW4
炭火焼大衆酒場御厨,飲食,居酒屋,居酒屋,渋谷区笹塚1-24-3,03-6407-0221,,35.6721433,139.668762,ChIJ8b-yUhbzGGARfCKTB2IRBXA
炭火焼鳥　恵比寿　比内亭　はなれ,飲食,居酒屋,居酒屋,渋谷区恵比寿南1-8-4屋宮ビル2階,03-6412-7885,https://tabelog.com/tokyo/A1303/A130302/13296980/,35.6460278,139.7092222,ChIJ69BlcwCLGGAR0hWyovrAf4Y
炭火焼鳥　鳥祐,飲食,日本料理,焼鳥,渋谷区渋谷3-15-1F93shibuya1  2階,03-3400-0011,,35.656003,139.70542000000003,ChIJHcZs61uLGGAR3a4tCmxnV2o
炭火焼肉じんじん,飲食,ステーキ・焼肉,焼肉,渋谷区神宮前2-3-30第二竹上ビル102,03-6804-2948,,35.6744284,139.7133982,ChIJAQALj5eMGGARZBeccCvAB8I
炭焼きこむらど,飲食,居酒屋,居酒屋,渋谷区本町1-22-5山下ビル1階,03-6276-3995,,35.6782817,139.6792657,ChIJVVXBzjrzGGARUHUrqSqtVGQ
small alley cafe,飲食,喫茶店・カフェ,喫茶店・カフェ,渋谷区東1-29-11F,03-3406-4169,,35.6539293,139.7070708,ChIJZ22UrgeLGGARalYjs5jzD70
ズーガンズー渋谷店,飲食,居酒屋,ダイニング・バー,渋谷区渋谷2-9-11青山シティビルB1,03-3400-1496,https://zoogunzoo.com,35.660848,139.7074198,ChIJ9zXDPF-LGGARQl0nih2RHrQ
西安ビャンビャン麺笹塚店,飲食,外国料理,中国料理,渋谷区笹塚1-55-16　京王クラウン街B106,03-5990-6633,,35.674369299999995,139.6692273,ChIJc4z5_A_zGGARppkFYk8iHiM
勢揃坂蕎ぎん清,飲食,日本料理,そば・うどん,渋谷区神宮前2-3-10ヒルトップ神宮前1階,03-3479-1911,,35.673173999999996,139.713638,ChIJO_rhNpiMGGARIkdVSgTC2Kw
SENNE,飲食,居酒屋,ビアホール,渋谷区幡ヶ谷2-47-1ダイショービル1F及びB1F,03-6300-7444,,35.6791589,139.6772396,ChIJ3SwazWzzGGAR-oSv2YiWpSA
セルリアンタワー東急ホテル　ガーデンキッチン「かるめら」,飲食,外国料理,その他,渋谷区桜丘町26-1セルリアンタワー東急ホテル,03-3476-3431,https://www.tokyuhotels.co.jp/cerulean-h/restaurant/caramelo/index.html,35.6564093,139.6993541,ChIJT3dTLQmLGGARlH6B2pSo3jc
セルリアンタワー東急ホテル　ガーデンラウンジ「坐忘」,飲食,喫茶店・カフェ,喫茶店・カフェ,渋谷区桜丘町26-1セルリアンタワー東急ホテル　LBF,03-3476-3439,https://www.tokyuhotels.co.jp/cerulean-h/restaurant/zabou/index.html,35.656287999999996,139.699773,ChIJ2ehjBVeLGGARGpIK8st58a4
セルリアンタワー東急ホテル　シガーバー「R261 CIGAR & ROCK」,飲食,居酒屋,ダイニング・バー,渋谷区桜丘町26-1,03-3476-3526,https://www.tokyuhotels.co.jp/cerulean-h/restaurant/r261/index.html,35.6564093,139.6993541,ChIJVwVGMqaLGGARFlRggPkelVI
セルリアンタワー東急ホテル　タワーズバー「ベロビスト」,飲食,その他(バー・クラブ・スナックなど),バー,渋谷区桜丘町26-1,03-3476-3398,https://www.tokyuhotels.co.jp/cerulean-h/restaurant/bellovisto/index.html,35.6564093,139.6993541,ChIJ2ehjBVeLGGARIpzejpXyUpU
セルリアンタワー東急ホテル　鉄板焼 桜-SAKURA-,飲食,ステーキ・焼肉,ステーキ,渋谷区桜丘町26-1,03-3476-3521,https://www.tokyuhotels.co.jp/cerulean-h/restaurant/sakura/index.html,35.6565209,139.6993573,ChIJy5p6LNKLGGARXDiXutwRkCU
セルリアンタワー東急ホテル　日本料理「Japanese Cuisine 桜丘」,飲食,日本料理,日本料理,渋谷区桜丘町26-1,03-3476-3420,https://www.tokyuhotels.co.jp/cerulean-h/restaurant/sakuragaoka/index.html,35.6564093,139.6993541,ChIJdzVqu7mLGGAREHNYcPpi1eg
セルリアンタワー東急ホテル　料亭「セルリアンタワー数寄屋」,飲食,日本料理,料亭,渋谷区桜丘町26-1,03-3476-3420,https://www.tokyuhotels.co.jp/cerulean-h/restaurant/sukiya/index.html,35.6564093,139.6993541,ChIJY3VaNhqLGGARqdxwy5mRVc8
SERENDIPITY FARMERS  SOFTCREAM,飲食,喫茶店・カフェ,喫茶店・カフェ,渋谷区代々木5-55-5,070-8916-7666,,35.6779882,139.6916745,ChIJK02zDxyNGGARWS0a_8lfiow
SEN,飲食,居酒屋,居酒屋,渋谷区神泉町8番地13号アーガス霜田ビル101号室,090-2739-2023,,35.6557368,139.6934782,ChIJd6PZEbaLGGARDGUOMLH2TM0
千駄ヶ谷厨房,飲食,日本料理,その他,渋谷区千駄ヶ谷1-7-12志水ビル1階,03-3478-4333,,35.6785999,139.7101457,ChIJRSr0fACNGGARejFClAi6Azs
千真野,飲食,日本料理,日本料理,渋谷区富ヶ谷1-51-12代々木公園ハウスB101,03-6416-8587,,35.668770099999996,139.68907149999998,ChIJPRdU-2rzGGAReZO3KiQq-uc
センロギワ.,飲食,居酒屋,居酒屋,渋谷区恵比寿南1-23-1ABC亜米利加橋ビル 2F,03-4361-4358,,35.6433464,139.7117011,ChIJk8QqqRCLGGARBB4uX11lBbM
Sevres Cafe,飲食,喫茶店・カフェ,喫茶店・カフェ,渋谷区神宮前4丁目-11-2高野ビルB1F,080-3600-8360,https://www.instagram.com/sevres_cafe/,35.666786099999996,139.7101521,ChIJVWXnSQCNGGARtY5a2oRs8AQ
zenta coffee,飲食,喫茶店・カフェ,喫茶店・カフェ,渋谷区鶯谷町12-6LOKOビル1階,070-2377-0681,https://www.zenta.coffee/,35.651517600000005,139.7012588,ChIJeeFqIkyLGGARaJHbyzgYqhA
草原,飲食,その他(バー・クラブ・スナックなど),カフェバー,渋谷区初台1-37-7,090-9833-6722,,35.6796882,139.68678029999998,ChIJBYZzygXzGGARp7C8iQTlND0
創作アジアンダイニング 移民の歌,飲食,外国料理,その他,渋谷区神宮前2-31-7ビラグロリアB-1,03-6804-5211,,35.673043,139.709342,ChIJuzdiJr2MGGARKfDug8d1SCQ
そうめんそそそ研究室,飲食,日本料理,そば・うどん,渋谷区渋谷2-21-1渋谷ヒカリエ 6F 6-7,03-6450-6795,,35.6591151,139.7039264,ChIJK5zH7ISLGGARojqdLKmCBQ4
そば季寄　武蔵屋,飲食,日本料理,そば・うどん,渋谷区上原1-22-3ムサシビル1階,03-5478-0766,https://www.musashiya-uehara.com/,35.6686571,139.6823329,ChIJ5UhkXkjzGGAR6xENQgoW7Ow
蕎麦と日本酒八福寿家恵比寿店,飲食,居酒屋,居酒屋,渋谷区恵比寿南1-18-11エビステムズコート　八福寿家,03-5734-1544,,35.6450315,139.7106336,ChIJfeXi8z-LGGARHbz6p9Da--E
そば處大野屋元代々木町店,飲食,日本料理,そば・うどん,渋谷区元代々木町3-10,03-3467-7513,https://soba-oonoya.gorp.jp/,35.670127799999996,139.6872428,ChIJ3QMbykvzGGARTmfJEuXt9AQ
そば処絆,飲食,日本料理,そば・うどん,渋谷区神山町24―11　ガーデニア神山1F,03-3469-1555,,35.662473899999995,139.687877,ChIJ09_lQlLzGGARPFQjBXa5Fvk
そば処初台丸屋,飲食,日本料理,そば・うどん,渋谷区初台1-37-11シャトー初台1F,03-3375-2880,,35.6800851,139.6866307,ChIJK5SjJTLzGGARDAR1UzdS5Rc
そば処　丸屋,飲食,日本料理,そば・うどん,渋谷区富ヶ谷1-51-1,03-3460-1435,,35.6689301,139.6891839,ChIJ9c2ogkzzGGARzLvkPEdpvpo
蕎麦前ごとう,飲食,日本料理,そば・うどん,渋谷区代官山町11-12日進ヒルズ代官山2f,03-6427-8308,,35.650925,139.7037121,ChIJrxNnsJiLGGARCGiW9Mh_1rA
ソラマコーヒー,飲食,喫茶店・カフェ,喫茶店・カフェ,渋谷区神宮前1-12-6ドヒビル1F,03-3423-2370,,35.6693727,139.7046858,ChIJTU8q6KSMGGAR2coRjeqZaUk
Salt恵比寿,飲食,居酒屋,居酒屋,渋谷区恵比寿南1-3-2エルスタンザ恵比寿B1F,03-6451-0176,https://tabelog.com/tokyo/A1303/A130302/13197080/,35.645669000000005,139.708188,ChIJuy_57ECLGGARi8l9OsgQP5s
SOTARTE 代々木上原,飲食,喫茶店・カフェ,喫茶店・カフェ,渋谷区上原1-18-7第五大貴ビル1階,03-6407-9260,,35.6685489,139.6827226,ChIJiZmEpwTzGGARYo5EWAVBnoY
SOWAT,飲食,外国料理,東南アジア料理,渋谷区千駄ヶ谷3-36-2アトラス原宿1階,050-3567-7697,https://www.sowat.jp/,35.6923402,139.70919580000003,ChIJaS6eXv2NGGAR_SiHycLFvos
THAI THAN,飲食,外国料理,東南アジア料理,渋谷区恵比寿1-22-10GranDuo恵比寿3 1階,03-6721-7133,,35.647198599999996,139.7073823,ChIJhZFRiO-LGGAR7ehPbiwQvcQ
タイ国屋台式料理 スパイスMARKET,飲食,外国料理,東南アジア料理,渋谷区西原1-21-1,03-6416-8550,,35.676153,139.6773898,ChIJb2J1DjvzGGARUr06xWObepc
大衆居酒屋代々木横丁,飲食,居酒屋,居酒屋,渋谷区代々木1-31-17麻緒ビル101号室,03-3374-7721,,35.681931899999995,139.702323,ChIJX6v_O8aMGGARNi9u01gKoWI
大衆割烹えびす,飲食,居酒屋,居酒屋,渋谷区本町2丁目14番2号,03-3378-1427,,35.6822412,139.6822511,ChIJZencdC_zGGAR0KWuDMVLHfM
大衆かっぽう和家,飲食,日本料理,焼鳥,渋谷区恵比寿西1-8-4Diビル2F,03-6433-7464,,35.6475486,139.708534,ChIJk-r_DkGLGGAROKnzvHSHL6c
大衆割烹たがみ,飲食,日本料理,日本料理,渋谷区渋谷 1-6-4せいこうビル 1F,03-3407-9085,,35.6608273,139.7055813,ChIJIe7dPQCLGGAR6Lq8rb8-iNM
大衆喫茶つばき,飲食,居酒屋,居酒屋,渋谷区恵比寿2-1-4ステージファースト恵比寿二番館102,080-4458-6630,,35.648055,139.7177321,ChIJkT7D9KqLGGAR3z6vgvIhcws
大衆酒場けいじ,飲食,居酒屋,居酒屋,渋谷区恵比寿南1-8-11タオスビル1階,03-6712-2990,,35.646164299999995,139.7092142,ChIJNz6H9iCLGGAR-Y1jMlxrPas
大衆酒場KoKoRo,飲食,居酒屋,居酒屋,渋谷区笹塚2-43-7,03-6276-6648,,35.6764229,139.6678849,ChIJHw48kn_zGGARoyg8Keq7c3Q
大衆酒場スシスミビ笹塚店,飲食,居酒屋,居酒屋,渋谷区笹塚2-10-7米山ビル1階,03-5990-6555,https://s.tabelog.com/tokyo/A1318/A131808/13280024/,35.673965599999995,139.6669779,ChIJX5VzTNjzGGARoVrgGHrku4M
大衆和牛酒場コンロ家代々木店,飲食,居酒屋,居酒屋,渋谷区代々木1-52-5ベルテ南新宿B1F,03-6383-4866,,35.6834,139.69933699999999,ChIJTaZIGM-MGGAReeH4m65oc2Y
タイダイニング　プラーローマー,飲食,外国料理,東南アジア料理,渋谷区桜丘町30-15ビバリーヒルズ101,03-6415-4565,,35.6557013,139.6980377,ChIJ_wZF7laLGGARN0_wlLO4124
タイ屋台ラオラオ,飲食,外国料理,その他,渋谷区恵比寿4-4-14恵比寿イナビル1階左,03-5793-3773,,35.645477199999995,139.7114365,ChIJQY1e_j-LGGARLKoQ9rx_ARw
台湾料理　故宮,飲食,外国料理,中国料理,渋谷区道玄坂2-23-13渋谷デリタワー4階,03-3462-6051,,35.6601134,139.6960986,ChIJad7gKqqMGGARc-IKMPH9RHw
BAR TAKATSU,飲食,その他(バー・クラブ・スナックなど),バー,渋谷区道玄坂2-20-26藤和エクシール道玄坂B1-03,03-3464-5200,,35.6593227,139.6967756,ChIJO1NRhKmMGGARWY0H5eKiq6A
タカミヤズ　アヒ　センター,飲食,外国料理,その他,渋谷区西原3-3-3三誠ビルディング102,03-5738-8900,,35.6703372,139.6818652,ChIJW9gxypfzGGARuxzmdttyX54
タカミヤズ アンド スイーツ,飲食,外国料理,その他,渋谷区広尾5-8-1,03-5422-7662,,35.648577599999996,139.7206958,ChIJW6NyaQCLGGARh1mxk9osB9c
Taki,飲食,居酒屋,居酒屋,渋谷区桜丘町17-12渋谷ジョンソンビル3F,03-3780-0656,http://shibuya-taki.sakura.ne.jp/,35.6577505,139.69867589999998,ChIJOxlo0vuLGGARB8W_cFOtMG8
Taki AKANE,飲食,居酒屋,居酒屋,渋谷区道玄坂1-11-1第2大番ビル404,03-3464-5120,http://shibuya-taki.sakura.ne.jp/akane/index.html,35.6577505,139.69867589999998,ChIJOxlo0vuLGGARB8W_cFOtMG8
滝乃家,飲食,居酒屋,居酒屋,渋谷区神山町4番19号,03-3468-7844,,35.665261799999996,139.6927991,ChIJmUmvZa2MGGARGw8le6-X2E8
拓寅,飲食,居酒屋,居酒屋,渋谷区本町6-7-4ルーブル渋谷本町 1F,090-3807-6742,,35.6823488,139.6786613,ChIJx8WvvODzGGARIVnYvC48q1A
たくみ,飲食,居酒屋,居酒屋,渋谷区宇田川町30-5渋谷JOWビル 4階,03-6380-5785,,35.6608944,139.6979788,ChIJBx9zqCWNGGARdDtRrNC3o3o
TAKESUE,飲食,外国料理,フランス料理,渋谷区幡ヶ谷2-9-12コートリーブル105,03-6273-5280,,35.6789957,139.6772795,ChIJGbiT_UXzGGARN9KKG1oPgKE
竹もと,飲食,日本料理,小料理,渋谷区笹塚3-13-9ビューノ笹塚102,03-6300-6076,,35.6775161,139.6669374,ChIJiV6POBnzGGARNsBa0COtdzE
多古菊,飲食,居酒屋,居酒屋,渋谷区道玄坂1丁目6番2号ファイブビル1階,03-3461-8866,,35.657914,139.699118,ChIJIfcJtleLGGARJex9EyeiKeI
TAS YARD,飲食,喫茶店・カフェ,喫茶店・カフェ,渋谷区千駄ヶ谷3-3-14メゾンブランシュ101,03-3470-3940,https://tasyard.com,35.6755886,139.70573299999998,ChIJuW1uWLmMGGAR9vxc5gsmk5A
立食い鮨　鮨川,飲食,日本料理,寿司,渋谷区笹塚1-62-6プライムブリス笹塚1F,090-9260-3611,,35.672767500000006,139.6623802,ChIJnW7xm6HzGGARyLJezuFbDUU
立呑酒場ななつぼ,飲食,居酒屋,居酒屋,渋谷区千駄ヶ谷3-32-7千駄ヶ谷幸田会館,080-5676-0534,,35.6771117,139.7070432,ChIJSVWmv0aNGGARJBomeXYL74M
立飲み　ゆみちゃん,飲食,居酒屋,居酒屋,渋谷区神山町40-1鈴井ビル1階,03-6407-8801,,35.665033699999995,139.69275270000003,ChIJjamtKwuNGGARVlO5-IrgJpQ
takk.(music&bar),飲食,その他(バー・クラブ・スナックなど),バー,渋谷区円山町15-6-2F,03-4400-0544,,35.6574679,139.6942684,ChIJpYH_bQCNGGAR9q5Rcd5w10s
 Touch wood,飲食,外国料理,フランス料理,渋谷区笹塚3-17-3つるやビル2階,070-9155-7471,,35.6768143,139.6677258,ChIJkck5ioXzGGARL5v3JO4Ge6w
TANA diner,飲食,その他(バー・クラブ・スナックなど),バー,渋谷区元代々木町 9-6TANA diner,090-2908-5168,,35.669910300000005,139.6858469,ChIJETjHgUnzGGARALWI-QwSFyk
たまきんち株式会社,飲食,居酒屋,居酒屋,渋谷区恵比寿西1丁目3番5号アルス恵比寿メイクス106,03-3496-1770,,35.6486827,139.7087058,ChIJu0p8ekGLGGARB7t7e_l0uM0
たまりば代々木本店,飲食,居酒屋,居酒屋,渋谷区代々木1-41-3,03-5350-9455,,35.6828,139.699661,ChIJd4WWMM-MGGAR4Ovviu2Hyfc
たまりばー,飲食,居酒屋,ダイニング・バー,渋谷区代官山町13-8キャッスルマンション代官山114,070-6460-5564,,35.650473999999996,139.7049104,ChIJCXcVSwCLGGARTyLSgbw3fik
たもいやんせ渋谷店,飲食,居酒屋,居酒屋,渋谷区神泉町10-10volt渋谷神泉ビル1F,03-3461-4333,https://tamoiyanse.net,35.6553841,139.69258489999999,ChIJNyILFFWLGGARI-d--fb-Np4
タルイテーブルズ,飲食,外国料理,イタリア料理,渋谷区千駄ヶ谷四丁目22番6号,03-6384-5204,,35.680354,139.7059703,ChIJDTAaWQCNGGARuoOAUIfNsU4
セルリアンタワー東急ホテル　タワーズレストラン「クーカーニョ」,飲食,外国料理,フランス料理,渋谷区桜丘町26-1,03-3476-3404,https://www.tokyuhotels.co.jp/cerulean-h/restaurant/coucagno/index.html,35.6564093,139.6993541,ChIJ2ehjBVeLGGARH27tf2Yr2TA
タンジャイミールス,飲食,外国料理,インド料理,渋谷区幡ヶ谷2-7-10松本ビル2F,03-5352-8055,,35.6779054,139.6775984,ChIJJSMWg8jzGGARBXp6GP-QkN8
淡水研究室,飲食,居酒屋,居酒屋,渋谷区代々木1-13-2エンドウビル101,03-3299-3763,,35.681947,139.6999641,ChIJU_YbyciMGGARQ2H3fgWKZpo
TANTO TANTO OSTERIA　アトレ恵比寿,飲食,外国料理,イタリア料理,渋谷区恵比寿南1-5-5アトレ恵比寿店6F,03-5475-8391,,35.6470553,139.70958560000003,ChIJSdVkP0CLGGARQufLFk8bI2c
炭豚豚、武蔵野うどん・みらい家,飲食,日本料理,日本料理,渋谷区笹塚1-15-5堀内ビル,03-5454-1089,,35.6718603,139.6689125,ChIJOY_NTRbzGGARzy6EuuXbqnE
TurnTableRestaurant,飲食,居酒屋,ダイニング・バー,渋谷区神泉町10-3,03-3461-7722,,35.655386,139.692916,ChIJ_59qBGKLGGARBFTKojmmESk
代官山さん昇,飲食,日本料理,日本料理,渋谷区代官山町8番16号,03-6416-5980,,35.6517853,139.70550989999998,ChIJC3pdt0SLGGAReVDzT6q2KJQ
代官山のんき,飲食,居酒屋,居酒屋,渋谷区代官山町8-15DIビル1F,03-6455-2277,https://next-gf.com/store/,35.6519687,139.7050385,ChIJwXo2CmuLGGAR_al7cKPtlWo
代官山パンケーキカフェ　Clover’s,飲食,喫茶店・カフェ,喫茶店・カフェ,渋谷区代官山町18-8堀井代官山ビル2階,03-3770-2733,,35.6496175,139.7044302,ChIJq6oJV0SLGGARKG0ks6hh-fE
代官山間人,飲食,日本料理,日本料理,渋谷区猿楽町9-8アーバンパーク代官山1・B03,03-3780-0352,,35.6514561,139.7028245,ChIJTxLfylqLGGARqypR8eqdGdk
Da-ism,飲食,喫茶店・カフェ,喫茶店・カフェ,渋谷区千駄ヶ谷3-16-17NOCE KITASANDO102,03-6447-4006,,35.6761503,139.7073681,ChIJLXwZBfuNGGARu4Epp9TGaVE
dining＆bar　KITSUNE,飲食,居酒屋,ダイニング・バー,渋谷区東2-20-13シャトレー渋谷B1F,03-5766-5911,,35.6533815,139.7090479,ChIJnXgZKEOLGGARO2AD96Ez8y0
ダイニングバー　クー,飲食,居酒屋,ダイニング・バー,渋谷区宇田川町34-6M&Iビル2F,03-3477-0138,,35.661255,139.696393,ChIJqVWgYamMGGAR_kqfGcvAgIk
DINING BAR SCUBA,飲食,その他(バー・クラブ・スナックなど),バー,渋谷区幡ヶ谷1-1-5第一岩田ビル　B1F,03-3376-2684,,35.6775826,139.6789025,ChIJ____PyPzGGARLkzkGpGvANo
DADA　-DARTS AND KARAOKE-,飲食,その他(バー・クラブ・スナックなど),バー,渋谷区代官山町13-4セレサ代官山　地下一階,03-6277-5744,,35.6498437,139.70448,ChIJYxoi4WyLGGARdiaKkfqnf5Y
DA HOUSE,飲食,その他(バー・クラブ・スナックなど),バー,渋谷区恵比寿南2-3-15cocospace恵比寿南2階,03-6303-1256,,35.6456613,139.7077069,ChIJafzzjgOLGGARCbPQw8ATIKc
darna,飲食,外国料理,その他,渋谷区元代々木町23-4,090-3405-1387,,35.6702477,139.685544,ChIJeeUgoFvzGGARzxfpU7nxTJg
Dan de CHAYA　だんで茶屋,飲食,喫茶店・カフェ,喫茶店・カフェ,渋谷区代々木5-2-52F,03-5454-4954,,35.6708791,139.6890821,ChIJJ4UEcjjzGGARvA8_wwWuI3I
dandelion,飲食,喫茶店・カフェ,その他,渋谷区代官山町13-4ヴォーグ代官山2,03-3464-2685,,35.6499606,139.7044225,ChIJr3A--ESLGGAReFt3aYhbM6c
チアーアップトーキョーハチ公前店,飲食,居酒屋,ダイニング・バー,渋谷区神南1-23-7第一榮來ビル7F,03-3461-7800,,35.6596435,139.700987,ChIJmaGtaOOLGGAR47UkdJyLpGY
チェルシー食堂,飲食,居酒屋,その他,渋谷区笹塚3丁目40-1our days Brewery 2F,090-3540-0191,,35.678869899999995,139.6683333,ChIJG772VOTzGGARE3mnva07IUE
chicks,飲食,日本料理,ラーメン,渋谷区千駄ヶ谷3-30-4ホワイトキャッスル104,03-6804-5940,,35.677359599999996,139.7075011,ChIJI8_9AgCNGGARpyluG2NQICQ
CIMI restorant,飲食,外国料理,その他,渋谷区代々木3-9-5,080-1110-7786,,35.683585099999995,139.69598969999998,ChIJWww3qXCNGGARzDkx3Wb7OH0
CHACOあめみや,飲食,ステーキ・焼肉,ステーキ,渋谷区千駄ヶ谷1-7-12,03-3402-6066,,35.6786023,139.710098,ChIJJ-BPQL6MGGARkAhYq-0roAw
茶々Tokyo,飲食,その他(バー・クラブ・スナックなど),バー,渋谷区西原2-28-4宮嶋ビル102,080-2373-0408,,35.6753079,139.6782603,ChIJr8f9PHTzGGARX47-Mfh7OnA
茶席辰吉,飲食,日本料理,そば・うどん,渋谷区千駄ヶ谷3-60-4林ビル1階,03-5410-5578,,35.673878699999996,139.7053723,ChIJrfCtchmNGGARV92iP3q6lcs
チャングミ,飲食,外国料理,韓国料理,渋谷区宇田川町41-29石井ビル1階,03-3476-1129,,35.6630283,139.6949199,ChIJm6ovQpaNGGARy8ukev73TmY
中華スタンドDanDan,飲食,居酒屋,居酒屋,渋谷区幡ヶ谷2-48-2英ビル1B,050-3562-7445,,35.6794873,139.67695820000003,ChIJH2tJJI_zGGARtOFQ0f0poI4
中華そば天宝,飲食,外国料理,中国料理,渋谷区神南1丁目10番7号テルス神南1F,03-3462-0622,,35.663160399999995,139.70121509999998,ChIJH5ffnaiMGGARaztTErnYXpE
中華バル和平,飲食,外国料理,中国料理,渋谷区千駄ヶ谷5丁目17番18号,03-3356-1599,,35.6821544,139.7047593,ChIJ0zC0l9GNGGAR7JtJcGPUliQ
中華風家庭料理　Yamaのuchi,飲食,外国料理,中国料理,渋谷区渋谷1-10-12宮城ビルB2,03-3407-3545,,35.6607919,139.70477649999998,ChIJ58LvkFiLGGARioAKhkl66K8
チュウカメンシュカテンホウ,飲食,外国料理,中国料理,渋谷区富ヶ谷1-3-12エルプレイス富ヶ谷2F,03-6407-0844,,35.6693291,139.68900299999999,ChIJhYOSekvzGGARWPMHNUEmGB4
中華料理永楽,飲食,外国料理,中国料理,渋谷区本町2-47-2,03-3376-7307,,35.6860812,139.6845426,ChIJiV2hOSnzGGARxQ8g-c5nhlc
中華料理沙羅,飲食,外国料理,中国料理,渋谷区代々木2丁目11番12号,03-3379-3764,,35.687337,139.6967812,ChIJMfy8j9GMGGARpdtVK4EQVGo
中華料理 聚満園,飲食,外国料理,中国料理,渋谷区西原2-31-7内藤ビル1F,03-5465-2976,,35.6760198,139.67734059999998,ChIJd79RDDvzGGAR3K21Ci8sXPA
中国酒菜　好来　代々木店,飲食,外国料理,中国料理,渋谷区千駄ヶ谷5ー24ー3NTTドコモ代々木ビルアネックス2階,03-3356-0988,https://kouraihoujin.owst.jp/,35.6847108,139.7028628,ChIJsdWnxcWMGGAR9FFZef-8Gs4
中國名菜龍坊,飲食,外国料理,中国料理,渋谷区恵比寿西1-33-36オクターヴコート代官山B1F,03-6455-0850,,35.6477673,139.70389450000002,ChIJ4brO0kWLGGARBY91nwRVkC4
ちょい呑みバー 8カウント,飲食,その他(バー・クラブ・スナックなど),バー,渋谷区桜丘町16-8アトラス桜丘ビルB1,03-3461-8525,https://instagram.com/kyohei8count?igshid=MmIzYWVlNDQ5Yg==,35.6564506,139.7009297,ChIJByvBRMSLGGARS1IZA_HxxWA
Cyodo,飲食,その他(バー・クラブ・スナックなど),その他,渋谷区本町6-37-10,080-7892-3819,,35.6809057,139.67668129999998,ChIJw37Yz0rzGGARiRBxSrTTW1c
txokoa,飲食,外国料理,フランス料理,渋谷区神山町40-1鈴井ビル2階,03-5738-7291,,35.6650387,139.69274339999998,ChIJywP1GcmNGGARg5xQTbNpPYw
Queen's Collection Chocolate Cafe,飲食,喫茶店・カフェ,喫茶店・カフェ,渋谷区猿楽町25-3,03-6416-1900,https://instagram.com/chococafe_daikanyama?igshid=MjEwN2IyYWYwYw==,35.648724,139.7015008,ChIJx3HggUWLGGAR3b4HPMc2hyU
Chocolate Pocket,飲食,居酒屋,ダイニング・バー,渋谷区笹塚2-12-13Y2ビル1F,03-5309-2494,,35.675339699999995,139.6679432,ChIJXzfGtRnzGGARLYGNAmxDOlA
ちょっとさんどカフェ代官山,飲食,喫茶店・カフェ,喫茶店・カフェ,渋谷区代官山町16-2,080-2070-2114,,35.649811,139.7027718,ChIJaTUrj8OLGGARqxqXXdHNRZk
Chiles Mexican Grill,飲食,外国料理,その他,渋谷区神宮前1-8-24OZ原宿ビル1-A,03-6434-9693,,35.670376499999996,139.705599,ChIJUd36uqSMGGARIkBBHqsDtdQ
つきたて餅雅や,飲食,喫茶店・カフェ,ファーストフード,渋谷区恵比寿2-8-13accessBLD4階,070-9135-6662,,35.6459313,139.71721739999998,ChIJzRIbOJKLGGAR8iFVT0wI9BI
月乃ひかり亭,飲食,居酒屋,居酒屋,渋谷区渋谷3-13-9エトワールUビル2階,03-5467-5197,https://r.gnavi.co.jp/p618500/,35.655885,139.706145,ChIJBepOiVuLGGAR_sKaVmqNgOE
つくるよ。大野,飲食,外国料理,イタリア料理,,03-3466-0808,http://ohno-buono.jp,,,
土濵笑店,飲食,居酒屋,居酒屋,渋谷区神泉町12-4アーガス神泉ビル2F,03-6416-1027,https://tsuchihama.amamin.jp/,35.6558284,139.6927476,ChIJ0T3WaFWLGGAR0j7hB53mKNg
TREEbyNAKEDyoyogipark,飲食,喫茶店・カフェ,喫茶店・カフェ,渋谷区富ヶ谷1丁目10-2CITTA代々木公園1F,050-1743-2539,,35.6682768,139.69127699999999,ChIJw6V9M7OMGGARcNj1PoXV6o4
ZWEI ein achtel shot bar,飲食,その他(バー・クラブ・スナックなど),バー,渋谷区道玄坂 1-18-7第二仁科屋ビル2F,080-6669-3888,,35.6570093,139.6973011,ChIJE4cn_nuLGGARF_7qyclvWuQ
Tiki's Tokyo,飲食,外国料理,その他,渋谷区神南1-1-1代々木公園BE STAGE 1F,070-3300-0366,,35.6662974,139.7012947,ChIJw_bpeFiNGGARplUqqbNlTwM
tTure,飲食,その他(バー・クラブ・スナックなど),バー,渋谷区恵比寿西2-8-11グランベル恵比寿IV2階,03-6452-5011,https://www.tablecheck.com/shops/tture-ebisu/reserve,35.6495351,139.7075519,ChIJc8AvmhuLGGARwQhql5zFRqo
TiTi,飲食,外国料理,フランス料理,渋谷区恵比寿2丁目8-13accessBLD恵比寿1階,070-9232-5619,,35.6459174,139.71722839999998,ChIJS_0c3rmLGGARhaaXG8GzlgU
ティースイーツラボ・コンテナート,飲食,喫茶店・カフェ,喫茶店・カフェ,渋谷区代々木1-42-14村野ビル1F,03-6778-0198,,35.6830176,139.6993278,ChIJmX2mvomNGGARubgEwsoCXec
T4KITCHEN,飲食,喫茶店・カフェ,喫茶店・カフェ,渋谷区神南1-12-16ASIABUILDING 1F,03-6452-5744,,35.662679,139.7005906,ChIJWQ5gkKiMGGAR4aCFNceg_A0
takeCURRY恵比寿本店,飲食,外国料理,東南アジア料理,渋谷区恵比寿2-12-16リベルタII,03-6277-2370,,35.645512499999995,139.7179352,ChIJvzkVfJ-LGGAROvqL5cmHkE4
定食サトウ,飲食,日本料理,日本料理,渋谷区円山町13ー9メゾン若林B103,03-3477-1611,https://www.instagram.com/teishokusato,35.6582365,139.6936845,ChIJs8uC9aqMGGARHgPnBbENtHg
手打蕎麦ごとう,飲食,日本料理,そば・うどん,渋谷区上原1-35-9吉野ビル1F,03-6906-8639,,35.669643199999996,139.68155460000003,ChIJr_c2DkjzGGARtMiKLIZFv3A
手打ち蕎麦と鴨料理　慈玄,飲食,日本料理,そば・うどん,渋谷区恵比寿　1-24-9,03-3444-7088,,35.646622,139.7155877,ChIJnzUEuRSLGGARfDFTxvCKQlQ
手打ち蕎麦と和食楽,飲食,居酒屋,居酒屋,渋谷区西原3-2-4フロンティア代々木上原3階,070-7781-8950,,35.6704541,139.6824235,ChIJWQnUaUnzGGAR2jgFjRt8a6s
鉄板お好焼昇次郎,飲食,日本料理,お好み焼き,渋谷区代々木4-6-5七福ビル2F,03-3375-8636,,35.6785469,139.6932837,ChIJOfDl92eNGGAR0qgBJeswQzI
鉄板ホルモン和真　幡ヶ谷店,飲食,居酒屋,その他,渋谷区幡ヶ谷2-13-4幡ヶ谷中央ビル102,03-3372-3690,,35.677516499999996,139.6768531,ChIJTwJ_2rzzGGARHwMQ2w6LHYg
鉄板焼きくうが,飲食,居酒屋,居酒屋,渋谷区神山町17-1第2渡辺ビル1階,03-6407-1238,,35.6645326,139.6931117,ChIJ68T-sAqNGGARapQvDSNJoTo
鉄板やきそば・酒場　しぶやき,飲食,居酒屋,居酒屋,渋谷区渋谷3-13-1,03-3400-1154,,35.6560225,139.706445,ChIJxan_iVuLGGAROWYKpTp4VE8
鉄板焼Note,飲食,日本料理,日本料理,渋谷区西原3-3-1アラキビルB1F,070-3664-2158,,35.67042,139.681915,ChIJbTQSLH3zGGARlT1xvNK3jR8
鉄板焼き半駄ヶ谷,飲食,居酒屋,居酒屋,渋谷区千駄ヶ谷4-10-5矢口ビル1F,03-6721-1073,,35.6798413,139.70656449999998,ChIJZ7ZPaAWNGGAR-jm121LB8I4
鉄板焼バルcam,飲食,居酒屋,ダイニング・バー,渋谷区恵比寿南1-23-8アメリカンブリッジビル2階,03-5935-7620,,35.643049999999995,139.71167499999999,ChIJLz5DhhWLGGARt08oJITe3bY
鉄板焼 よしむら,飲食,日本料理,お好み焼き,渋谷区広尾5-19-11マリオン広尾ビルB1,03-3280-8839,,35.6485237,139.7203994,ChIJO70OxxKLGGARrYyjWDgaeio
寺島商店,飲食,居酒屋,居酒屋,渋谷区本町1-51-10,03-5990-6587,,35.6824005,139.6848563,ChIJ8Wt4fMbzGGARNYnqbWhlymQ
てんてんてん,飲食,居酒屋,居酒屋,渋谷区本町6-37-6銀河ビル2階,03-6383-3188,,35.6806619,139.6762657,ChIJ42VKe4TzGGAR3mlrmpQXe9Y
代官山天風,飲食,日本料理,お好み焼き,渋谷区猿楽町1-5代官山ハイム103,03-6315-9035,,35.65353210000001,139.7049429,ChIJrXHVFFuLGGAR7DtuOb0ShfY
天ぷら北川,飲食,日本料理,天ぷら,渋谷区恵比寿南1-17-15VORT恵比寿VI B1-A,090-5410-4691,,35.644537199999995,139.7102448,ChIJmYbCJQCLGGARTfRFtyeJdhc
天宝,飲食,外国料理,中国料理,渋谷区笹塚2-43-4ハイムマスビル1階,03-3374-0568,,35.6762472,139.66804439999999,ChIJMz8JqxnzGGARJ7TO9Rp_4wI
Table by S,飲食,外国料理,その他,渋谷区西原3-23-6プラド2F,03-6407-0780,https://tablebys.tokyo/,35.670473900000005,139.6831785,ChIJwZMrLEjzGGAR3W05GVrHeX8
Dear All,飲食,喫茶店・カフェ,喫茶店・カフェ,渋谷区笹塚1-59-5バンブー皐月101,03-6300-0502,,35.6734323,139.6647649,ChIJ2fI6DhrzGGARZj0_mog88HU
dish-tokyogastronomycafe,飲食,外国料理,その他,渋谷区上原1-33-16オーツカビル2F,03-5465-6455,,35.6693856,139.6810471,ChIJ1zd-T_PzGGARjQCZsqrJ6xA
デトックスダイニング,飲食,居酒屋,ダイニング・バー,渋谷区幡ヶ谷2-6-5梅村ビル1F,03-3379-1205,http://www.detox-dining.com/,35.6779031,139.67827979999998,ChIJr9u9KTvzGGAR40HiFvVegRU
Dubois(デュボワ),飲食,外国料理,フランス料理,渋谷区西原2-20-8コーポ小沢1階 Dubois,03-3467-3958,,35.6746889,139.6794622,ChIJ3fkvIzrzGGARITu3kynhNH8
デルソーレ　渋谷,飲食,居酒屋,居酒屋,渋谷区道玄坂2-28-2MMビル 5F,03-6822-4183,,35.6586948,139.69598349999998,ChIJl9JXB-iNGGAR6QwF-avFh84
Delcharlro,飲食,外国料理,イタリア料理,渋谷区恵比寿4-4-14イナビル1階,03-5420-1135,,35.645471,139.71143179999999,ChIJQY1e_j-LGGAR1N3MR2W4X9c
ト灯,飲食,居酒屋,その他,渋谷区渋谷2-7-14,03-5834-2922,,35.6604946,139.7078329,ChIJgVIRH1-LGGARYthNR8MzNg8
